Unix_time,GPS_data,flagStop
1778777787433794521,$GPGGA,165627.000,1205.9931,S,07701.4540,W,1,06,1.6,143.4,M,8.4,M,,0000*6D,0
1778777819619106703,$GPGSA,M,3,05,21,14,17,24,30,,,,,,,3.2,1.6,2.8*32,0
1778777819619565634,$GPRMC,165627.000,A,1205.9931,S,07701.4540,W,0.00,283.57,140526,,,A*6F,0
1778777819620187785,$GPGGA,165628.000,1205.9931,S,07701.4540,W,1,06,1.6,143.4,M,8.4,M,,0000*62,0
1778777819620955819,$GPGSA,M,3,05,21,14,17,24,30,,,,,,,3.2,1.6,2.8*32,0
1778777819621461514,$GPRMC,165628.000,A,1205.9931,S,07701.4540,W,0.00,283.57,140526,,,A*60,0
1778777819622098610,$GPGGA,165629.000,1205.9931,S,07701.4540,W,1,07,1.0,143.4,M,8.4,M,,0000*64,0
1778777819622853643,$GPGSA,M,3,05,21,14,17,24,30,11,,,,,,1.8,1.0,1.6*31,0
1778777819623378174,$GPGSV,3,1,12,05,57,278,35,21,57,340,45,14,31,147,32,17,30,083,47*7A,0
1778777819624047902,$GPGSV,3,2,12,24,16,246,37,30,15,129,25,11,11,349,18,44,42,284,38*70,0
1778777819624725873,$GPGSV,3,3,12,28,61,149,,13,46,170,,26,45,139,,23,33,074,*71,0
1778777819625339541,$GPRMC,165629.000,A,1205.9931,S,07701.4540,W,0.00,283.57,140526,,,A*61,0
1778777819626053144,$GPGGA,165630.000,1205.9931,S,07701.4540,W,1,06,1.6,143.4,M,8.4,M,,0000*6B,0
1778777819626721243,$GPGSA,M,3,05,21,14,17,24,30,,,,,,,3.2,1.6,2.8*32,0
1778777819627226401,$GPRMC,165630.000,A,1205.9931,S,07701.4540,W,0.00,283.57,140526,,,A*69,0
1778777819627926892,$GPGGA,165631.000,1205.9931,S,07701.4540,W,1,06,1.6,143.4,M,8.4,M,,0000*6A,0
1778777819628645144,$GPGSA,M,3,05,21,14,17,24,30,,,,,,,3.2,1.6,2.8*32,0
1778777819629102890,$GPRMC,165631.000,A,1205.9931,S,07701.4540,W,0.00,283.57,140526,,,A*68,0
1778777819629796140,$GPGGA,165632.000,1205.9931,S,07701.4540,W,1,07,1.0,143.4,M,8.4,M,,0000*6E,0
1778777819630529912,$GPGSA,M,3,05,21,14,17,24,30,11,,,,,,1.8,1.0,1.6*31,0
1778777819630983898,$GPRMC,165632.000,A,1205.9931,S,07701.4540,W,0.00,283.57,140526,,,A*6B,0
1778777819631677666,$GPGGA,165633.000,1205.9931,S,07701.4540,W,1,07,1.0,143.4,M,8.4,M,,0000*6F,0
1778777819632406956,$GPGSA,M,3,05,21,14,17,24,30,11,,,,,,1.8,1.0,1.6*31,0
1778777819632930042,$GPRMC,165633.000,A,1205.9931,S,07701.4540,W,0.00,283.57,140526,,,A*6A,0
1778777819633574324,$GPGGA,165634.000,1205.9931,S,07701.4540,W,1,07,1.0,143.4,M,8.4,M,,0000*68,0
1778777819634325690,$GPGSA,M,3,05,21,14,17,24,30,11,,,,,,1.8,1.0,1.6*31,0
1778777819634850572,$GPGSV,3,1,12,05,57,278,34,21,57,340,45,14,31,147,32,17,30,083,47*7B,0
1778777819635540988,$GPGSV,3,2,12,24,16,246,38,30,15,129,25,11,11,349,21,44,42,284,37*7A,0
1778777819636221996,$GPGSV,3,3,12,28,61,149,,13,46,170,,26,45,139,,23,33,074,*71,0
1778777819636829793,$GPRMC,165634.000,A,1205.9931,S,07701.4540,W,0.00,283.57,140526,,,A*6D,0
1778777819637527172,$GPGGA,165635.000,1205.9931,S,07701.4539,W,1,07,1.0,143.4,M,8.4,M,,0000*67,0
1778777819637947026,$GPGSA,M,3,05,21,14,17,24,30,11,,,,,,1.8,1.0,1.6*31,0
1778777819638177640,$GPRMC,165635.000,A,1205.9931,S,07701.4539,W,0.00,283.57,140526,,,A*62,0
1778777819638873871,$GPGGA,165636.000,1205.9931,S,07701.4539,W,1,06,1.6,143.4,M,8.4,M,,0000*63,0
1778777819639608514,$GPGSA,M,3,05,21,14,17,24,30,,,,,,,3.2,1.6,2.8*32,0
1778777819640100911,$GPRMC,165636.000,A,1205.9931,S,07701.4539,W,0.00,283.57,140526,,,A*61,0
1778777819640772270,$GPGGA,165637.000,1205.9931,S,07701.4539,W,1,06,1.6,143.4,M,8.4,M,,0000*62,0
1778777819641506153,$GPGSA,M,3,05,21,14,17,24,30,,,,,,,3.2,1.6,2.8*32,0
1778777819641999310,$GPRMC,165637.000,A,1205.9931,S,07701.4539,W,0.00,283.57,140526,,,A*60,0
1778777819642658056,$GPGGA,165638.000,1205.9931,S,07701.4539,W,1,07,1.0,143.4,M,8.4,M,,0000*6A,0
1778777819643390772,$GPGSA,M,3,05,21,14,17,24,30,11,,,,,,1.8,1.0,1.6*31,0
1778777819643903727,$GPRMC,165638.000,A,1205.9931,S,07701.4539,W,0.00,283.57,140526,,,A*6F,0
1778777819644605941,$GPGGA,165639.000,1205.9931,S,07701.4539,W,1,06,1.6,143.4,M,8.4,M,,0000*6C,0
1778777819645082114,$GPGSA,M,3,05,21,14,17,24,30,,,,,,,3.2,1.6,2.8*32,0
1778777819645178790,$GPGSV,3,1,12,05,57,278,34,21,57,340,45,14,31,147,33,17,30,083,46*7B,0
1778777819645310876,$GPGSV,3,2,12,24,16,246,38,30,15,129,26,44,42,284,37,28,61,149,*75,0
1778777819645438833,$GPGSV,3,3,12,13,46,170,,26,45,139,,23,33,074,,16,29,146,*7F,0
1778777819645653501,$GPRMC,165639.000,A,1205.9931,S,07701.4539,W,0.00,283.57,140526,,,A*6E,0
1778777819645790810,$GPGGA,165640.000,1205.9931,S,07701.4539,W,1,07,1.0,143.4,M,8.4,M,,0000*65,0
1778777819645934138,$GPGSA,M,3,05,21,14,17,24,30,11,,,,,,1.8,1.0,1.6*31,0
1778777819646034129,$GPRMC,165640.000,A,1205.9931,S,07701.4539,W,0.00,283.57,140526,,,A*60,0
1778777819646168845,$GPGGA,165641.000,1205.9931,S,07701.4539,W,1,07,1.0,143.4,M,8.4,M,,0000*64,0
1778777819646311469,$GPGSA,M,3,05,21,14,17,24,30,11,,,,,,1.8,1.0,1.6*31,0
1778777819646410775,$GPRMC,165641.000,A,1205.9931,S,07701.4539,W,0.00,283.57,140526,,,A*61,0
1778777819646545398,$GPGGA,165642.000,1205.9931,S,07701.4539,W,1,06,1.6,143.4,M,8.4,M,,0000*60,0
1778777819646687838,$GPGSA,M,3,05,21,14,17,24,30,,,,,,,3.2,1.6,2.8*32,0
1778777819646783476,$GPRMC,165642.000,A,1205.9931,S,07701.4539,W,0.00,283.57,140526,,,A*62,0
1778777819646918303,$GPGGA,165643.000,1205.9931,S,07701.4539,W,1,06,1.6,143.4,M,8.4,M,,0000*61,0
1778777819647060576,$GPGSA,M,3,05,21,14,17,24,30,,,,,,,3.2,1.6,2.8*32,0
1778777819647156011,$GPRMC,165643.000,A,1205.9931,S,07701.4539,W,0.00,283.57,140526,,,A*63,0
1778777819647290727,$GPGGA,165644.000,1205.9931,S,07701.4539,W,1,06,1.6,143.4,M,8.4,M,,0000*66,0
1778777819647432610,$GPGSA,M,3,05,21,14,17,24,30,,,,,,,3.2,1.6,2.8*32,0
1778777819647527508,$GPGSV,3,1,12,05,57,278,34,21,57,340,45,14,31,147,34,17,30,083,46*7C,0
1778777819647658817,$GPGSV,3,2,12,24,16,246,38,30,15,129,27,44,42,284,38,28,61,149,*7B,0
1778777819647786958,$GPGSV,3,3,12,13,46,170,,26,45,139,,23,33,074,,16,29,146,*7F,0
1778777819647903784,$GPRMC,165644.000,A,1205.9931,S,07701.4539,W,0.00,283.57,140526,,,A*64,0
1778777819648039352,$GPGGA,165645.000,1205.9931,S,07701.4539,W,1,07,1.0,143.4,M,8.4,M,,0000*60,0
1778777819648182421,$GPGSA,M,3,05,21,14,17,24,30,11,,,,,,1.8,1.0,1.6*31,0
1778777819648331249,$GPRMC,165645.000,A,1205.9931,S,07701.4539,W,0.00,283.57,140526,,,A*65,0
1778777819648485282,$GPGGA,165646.000,1205.9931,S,07701.4539,W,1,07,1.0,143.4,M,8.4,M,,0000*63,0
1778777819648639408,$GPGSA,M,3,05,21,14,17,24,30,11,,,,,,1.8,1.0,1.6*31,0
1778777819648738324,$GPRMC,165646.000,A,1205.9931,S,07701.4539,W,0.00,283.57,140526,,,A*66,0
1778777819648871948,$GPGGA,165647.000,1205.9931,S,07701.4539,W,1,07,1.0,143.4,M,8.4,M,,0000*62,0
1778777819649013165,$GPGSA,M,3,05,21,14,17,24,30,11,,,,,,1.8,1.0,1.6*31,0
1778777819649111896,$GPRMC,165647.000,A,1205.9931,S,07701.4539,W,0.00,283.57,140526,,,A*67,0
1778777819649245556,$GPGGA,165648.000,1205.9931,S,07701.4539,W,1,06,1.6,143.4,M,8.4,M,,0000*6A,0
1778777819649387255,$GPGSA,M,3,05,21,14,17,24,30,,,,,,,3.2,1.6,2.8*32,0
1778777819649482078,$GPRMC,165648.000,A,1205.9931,S,07701.4539,W,0.00,283.57,140526,,,A*68,0
1778777819649615720,$GPGGA,165649.000,1205.9930,S,07701.4539,W,1,06,1.6,143.5,M,8.4,M,,0000*6B,0
1778777819649756604,$GPGSA,M,3,05,21,14,17,24,30,,,,,,,3.2,1.6,2.8*32,0
1778777819649851446,$GPGSV,3,1,12,05,57,278,34,21,57,340,45,14,31,147,34,17,30,083,46*7C,0
1778777819649981310,$GPGSV,3,2,12,24,16,246,38,30,15,129,27,11,11,349,25,44,42,284,38*73,0
1778777819650111063,$GPGSV,3,3,12,28,61,149,,13,46,170,,26,45,139,,23,33,074,*71,0
1778777819650226240,$GPRMC,165649.000,A,1205.9930,S,07701.4539,W,0.05,283.57,140526,,,A*6D,0
1778777819650359715,$GPGGA,165650.000,1205.9930,S,07701.4539,W,1,07,1.0,143.5,M,8.4,M,,0000*64,0
1778777819650500599,$GPGSA,M,3,05,21,14,17,24,30,11,,,,,,1.8,1.0,1.6*31,0
1778777819650599238,$GPRMC,165650.000,A,1205.9930,S,07701.4539,W,0.01,283.57,140526,,,A*61,0
1778777819650733009,$GPGGA,165651.000,1205.9930,S,07701.4539,W,1,07,1.0,143.5,M,8.4,M,,0000*65,0
1778777819650873782,$GPGSA,M,3,05,21,14,17,24,30,11,,,,,,1.8,1.0,1.6*31,0
1778777819650972291,$GPRMC,165651.000,A,1205.9930,S,07701.4539,W,0.00,283.57,140526,,,A*61,0
1778777819651105877,$GPGGA,165652.000,1205.9930,S,07701.4539,W,1,07,1.0,143.5,M,8.4,M,,0000*66,0
1778777819651246964,$GPGSA,M,3,05,21,14,17,24,30,11,,,,,,1.8,1.0,1.6*31,0
1778777819651345474,$GPRMC,165652.000,A,1205.9930,S,07701.4539,W,0.00,283.57,140526,,,A*62,0
1778777819651479060,$GPGGA,165653.000,1205.9930,S,07701.4539,W,1,07,1.0,143.5,M,8.4,M,,0000*67,0
1778777819651754308,$GPGSA,M,3,05,21,14,17,24,30,11,,,,,,1.8,1.0,1.6*31,0
1778777819651854891,$GPRMC,165653.000,A,1205.9930,S,07701.4539,W,0.00,283.57,140526,,,A*63,0
1778777819651988830,$GPGGA,165654.000,1205.9930,S,07701.4539,W,1,07,1.0,143.5,M,8.4,M,,0000*60,0
1778777819652239723,$GPGSA,M,3,05,21,14,17,24,30,11,,,,,,1.8,1.0,1.6*31,0
1778777819652349067,$GPGSV,3,1,12,05,57,278,34,21,57,340,45,14,31,147,35,17,30,083,46*7D,0
1778777819652480523,$GPGSV,3,2,12,24,16,246,37,30,15,129,27,11,11,349,26,44,42,284,37*70,0
1778777819652611610,$GPGSV,3,3,12,28,61,149,,13,46,170,,26,45,139,,23,33,074,*71,0
1778777819652727991,$GPRMC,165654.000,A,1205.9930,S,07701.4539,W,0.00,283.57,140526,,,A*64,0
1778777819652863263,$GPGGA,165655.000,1205.9930,S,07701.4539,W,1,07,1.0,143.5,M,8.4,M,,0000*61,0
1778777819653005776,$GPGSA,M,3,05,21,14,17,24,30,11,,,,,,1.8,1.0,1.6*31,0
1778777819653105526,$GPRMC,165655.000,A,1205.9930,S,07701.4539,W,0.00,283.57,140526,,,A*65,0
1778777819653240798,$GPGGA,165656.000,1205.9930,S,07701.4539,W,1,07,1.0,143.5,M,8.4,M,,0000*62,0
1778777819653383459,$GPGSA,M,3,05,21,14,17,24,30,11,,,,,,1.8,1.0,1.6*31,0
1778777819653483135,$GPRMC,165656.000,A,1205.9930,S,07701.4539,W,0.00,283.57,140526,,,A*66,0
1778777819653618259,$GPGGA,165657.000,1205.9930,S,07701.4539,W,1,07,1.0,143.5,M,8.4,M,,0000*63,0
1778777819653760735,$GPGSA,M,3,05,21,14,17,24,30,11,,,,,,1.8,1.0,1.6*31,0
1778777819653860652,$GPRMC,165657.000,A,1205.9930,S,07701.4539,W,0.00,283.57,140526,,,A*67,0
1778777819653995849,$GPGGA,165658.000,1205.9930,S,07701.4539,W,1,07,1.0,143.5,M,8.4,M,,0000*6C,0
1778777819654138418,$GPGSA,M,3,05,21,14,17,24,30,11,,,,,,1.8,1.0,1.6*31,0
1778777819654238150,$GPRMC,165658.000,A,1205.9930,S,07701.4539,W,0.00,283.57,140526,,,A*68,0
1778777819654373755,$GPGGA,165659.000,1205.9930,S,07701.4539,W,1,07,1.0,143.5,M,8.4,M,,0000*6D,0
1778777819654519602,$GPGSA,M,3,05,21,14,17,24,30,11,,,,,,1.8,1.0,1.6*31,0
1778777819715759231,$GPGSV,3,1,12,05,57,278,36,21,57,340,44,14,31,147,35,17,30,083,45*7D,0
1778777819876159103,$GPGSV,3,2,12,24,16,246,37,30,15,129,22,11,11,349,25,44,42,284,37*76,0
1778777820018250442,$GPGSV,3,3,12,28,61,149,,13,46,170,,26,45,139,,23,33,074,*71,0
1778777820183293486,$GPRMC,165659.000,A,1205.9930,S,07701.4539,W,0.00,283.57,140526,,,A*69,0
1778777820430805131,$GPGGA,165700.000,1205.9930,S,07701.4539,W,1,07,1.0,143.5,M,8.4,M,,0000*60,0
1778777820552266184,$GPGSA,M,3,05,21,14,17,24,30,11,,,,,,1.8,1.0,1.6*31,0
1778777820717288430,$GPRMC,165700.000,A,1205.9930,S,07701.4539,W,0.00,283.57,140526,,,A*64,0
1778777821434402299,$GPGGA,165701.000,1205.9930,S,07701.4539,W,1,07,1.0,143.5,M,8.4,M,,0000*61,0
1778777821555871353,$GPGSA,M,3,05,21,14,17,24,30,11,,,,,,1.8,1.0,1.6*31,0
1778777821720853503,$GPRMC,165701.000,A,1205.9930,S,07701.4539,W,0.00,283.57,140526,,,A*65,0
1778777822430659453,$GPGGA,165702.000,1205.9930,S,07701.4539,W,1,07,1.0,143.5,M,8.4,M,,0000*62,1
1778777822552115413,$GPGSA,M,3,05,21,14,17,24,30,11,,,,,,1.8,1.0,1.6*31,1
1778777822717155660,$GPRMC,165702.000,A,1205.9930,S,07701.4539,W,0.00,283.57,140526,,,A*66,1
1778777823435722183,$GPGGA,165703.000,1205.9930,S,07701.4539,W,1,07,1.0,143.5,M,8.4,M,,0000*63,1
1778777823557179903,$GPGSA,M,3,05,21,14,17,24,30,11,,,,,,1.8,1.0,1.6*31,1
1778777823722208964,$GPRMC,165703.000,A,1205.9930,S,07701.4539,W,0.00,283.57,140526,,,A*67,1
1778777824433896292,$GPGGA,165704.000,1205.9930,S,07701.4539,W,1,07,1.0,143.5,M,8.4,M,,0000*64,1
1778777824555349104,$GPGSA,M,3,05,21,14,17,24,30,11,,,,,,1.8,1.0,1.6*31,1
1778777824715777664,$GPGSV,3,1,12,05,57,278,37,21,57,340,44,14,31,147,35,17,30,083,45*7C,1
1778777824876189186,$GPGSV,3,2,12,24,16,246,37,30,15,129,14,11,11,349,21,44,42,284,37*77,1
1778777825018286747,$GPGSV,3,3,12,28,61,149,,13,46,170,,26,45,139,,23,33,074,*71,1
1778777825183510197,$GPRMC,165704.000,A,1205.9930,S,07701.4539,W,0.00,283.57,140526,,,A*60,1
1778777825433141371,$GPGGA,165705.000,1205.9930,S,07701.4539,W,1,06,1.6,143.5,M,8.4,M,,0000*62,1
1778777825549980996,$GPGSA,M,3,05,21,14,17,24,30,,,,,,,3.2,1.6,2.8*32,1
1778777825715030263,$GPRMC,165705.000,A,1205.9930,S,07701.4539,W,0.00,283.57,140526,,,A*61,1
1778777826435688479,$GPGGA,165706.000,1205.9930,S,07701.4539,W,1,07,1.0,143.5,M,8.4,M,,0000*66,1
1778777826557225707,$GPGSA,M,3,05,21,14,17,24,30,11,,,,,,1.8,1.0,1.6*31,1
1778777826722129349,$GPRMC,165706.000,A,1205.9930,S,07701.4539,W,0.00,283.57,140526,,,A*62,1
1778777827430936428,$GPGGA,165707.000,1205.9930,S,07701.4539,W,1,07,1.0,143.5,M,8.4,M,,0000*67,1
1778777827552466432,$GPGSA,M,3,05,21,14,17,24,30,11,,,,,,1.8,1.0,1.6*31,1
1778777827717378816,$GPRMC,165707.000,A,1205.9930,S,07701.4539,W,0.00,283.57,140526,,,A*63,1
1778777828428234808,$GPGGA,165708.000,1205.9930,S,07701.4539,W,1,06,1.6,143.5,M,8.4,M,,0000*6F,1
1778777828545130734,$GPGSA,M,3,05,21,14,17,24,30,,,,,,,3.2,1.6,2.8*32,1
1778777828710123199,$GPRMC,165708.000,A,1205.9930,S,07701.4539,W,0.00,283.57,140526,,,A*6C,1
1778777829432482555,$GPGGA,165709.000,1205.9930,S,07701.4539,W,1,06,1.6,143.5,M,8.4,M,,0000*6E,0
1778777829549330847,$GPGSA,M,3,05,21,14,17,24,30,,,,,,,3.2,1.6,2.8*32,0
1778777829709792114,$GPGSV,3,1,12,05,57,278,38,21,57,340,44,14,31,147,34,17,30,083,46*71,0
1778777829865588040,$GPGSV,3,2,12,24,16,246,37,30,15,129,23,44,42,284,38,28,61,149,*70,0
1778777830007674064,$GPGSV,3,3,12,13,46,170,,26,45,139,,23,33,074,,16,29,146,*7F,0
1778777830172716034,$GPRMC,165709.000,A,1205.9930,S,07701.4539,W,0.00,283.57,140526,,,A*6D,0
1778777830432728894,$GPGGA,165710.000,1205.9930,S,07701.4539,W,1,06,1.6,143.5,M,8.4,M,,0000*66,0
1778777830549643211,$GPGSA,M,3,05,21,14,17,24,30,,,,,,,3.2,1.6,2.8*32,0
1778777830714610896,$GPRMC,165710.000,A,1205.9930,S,07701.4539,W,0.00,283.57,140526,,,A*65,0
1778777831432965825,$GPGGA,165711.000,1205.9930,S,07701.4539,W,1,06,1.6,143.5,M,8.4,M,,0000*67,0
1778777831549872159,$GPGSA,M,3,05,21,14,17,24,30,,,,,,,3.2,1.6,2.8*32,0
1778777831714854197,$GPRMC,165711.000,A,1205.9930,S,07701.4539,W,0.00,283.57,140526,,,A*64,0
1778777832433665002,$GPGGA,165712.000,1205.9929,S,07701.4541,W,1,06,1.6,143.4,M,8.4,M,,0000*62,0
1778777832550546778,$GPGSA,M,3,05,21,14,17,24,30,,,,,,,3.2,1.6,2.8*32,0
1778777832715576413,$GPRMC,165712.000,A,1205.9929,S,07701.4541,W,1.84,296.34,140526,,,A*6C,0
1778777833427642629,$GPGGA,165713.000,1205.9925,S,07701.4548,W,1,06,1.6,143.3,M,8.4,M,,0000*61,0
1778777833544536592,$GPGSA,M,3,05,21,14,17,24,30,,,,,,,3.2,1.6,2.8*32,0
1778777833709581062,$GPRMC,165713.000,A,1205.9925,S,07701.4548,W,2.87,296.13,140526,,,A*6D,0
1778777834428146417,$GPGGA,165714.000,1205.9919,S,07701.4557,W,1,06,1.6,143.4,M,8.4,M,,0000*60,0
1778777834545032287,$GPGSA,M,3,05,21,14,17,24,30,,,,,,,3.2,1.6,2.8*32,0
1778777834705419269,$GPGSV,3,1,12,05,57,278,38,21,57,340,45,14,31,147,34,17,30,083,46*70,0
1778777834861248846,$GPGSV,3,2,12,24,16,246,31,30,15,129,35,44,42,284,39,28,61,149,*70,0
1778777835003329203,$GPGSV,3,3,12,13,46,170,,26,45,139,,23,33,074,,16,29,146,*7F,0
1778777835168375099,$GPRMC,165714.000,A,1205.9919,S,07701.4557,W,3.94,299.40,140526,,,A*61,0
1778777835434441836,$GPGGA,165715.000,1205.9908,S,07701.4572,W,1,06,1.6,143.3,M,8.4,M,,0000*61,0
1778777835551298370,$GPGSA,M,3,05,21,14,17,24,30,,,,,,,3.2,1.6,2.8*32,0
1778777835716282593,$GPRMC,165715.000,A,1205.9908,S,07701.4572,W,6.21,302.13,140526,,,A*69,0
1778777836435925179,$GPGGA,165716.000,1205.9897,S,07701.4589,W,1,06,1.6,143.1,M,8.4,M,,0000*63,0
1778777836552788750,$GPGSA,M,3,05,21,14,17,24,30,,,,,,,3.2,1.6,2.8*32,0
1778777836717789975,$GPRMC,165716.000,A,1205.9897,S,07701.4589,W,6.43,303.41,140526,,,A*6B,0
1778777837434283194,$GPGGA,165717.000,1205.9886,S,07701.4604,W,1,06,1.6,143.0,M,8.4,M,,0000*65,0
1778777837551176564,$GPGSA,M,3,05,21,14,17,24,30,,,,,,,3.2,1.6,2.8*32,0
1778777837716189902,$GPRMC,165717.000,A,1205.9886,S,07701.4604,W,5.92,307.04,140526,,,A*66,0
1778777838431861063,$GPGGA,165718.000,1205.9875,S,07701.4617,W,1,06,1.6,143.1,M,8.4,M,,0000*65,0
1778777838548710188,$GPGSA,M,3,05,21,14,17,24,30,,,,,,,3.2,1.6,2.8*32,0
1778777838713736082,$GPRMC,165718.000,A,1205.9875,S,07701.4617,W,5.92,311.50,140526,,,A*61,0
1778777839437935091,$GPGGA,165719.000,1205.9862,S,07701.4627,W,1,06,1.6,143.1,M,8.4,M,,0000*61,0
1778777839554804107,$GPGSA,M,3,05,21,14,17,24,30,,,,,,,3.2,1.6,2.8*32,0
1778777839715259799,$GPGSV,3,1,12,05,57,278,41,21,57,340,44,14,31,147,31,17,30,083,27*7D,0
1778777839875645281,$GPGSV,3,2,12,24,16,246,24,30,15,129,27,11,11,349,15,13,46,170,42*7E,0
1778777840022322064,$GPGSV,3,3,12,44,42,284,41,28,61,149,,26,45,139,,23,33,074,*7A,0
1778777840187333494,$GPRMC,165719.000,A,1205.9862,S,07701.4627,W,5.90,318.95,140526,,,A*67,0
1778777840438392486,$GPGGA,165720.000,1205.9845,S,07701.4635,W,1,06,1.6,143.1,M,8.4,M,,0000*6D,0
1778777840555308044,$GPGSA,M,3,05,21,14,17,24,30,,,,,,,3.2,1.6,2.8*32,0
1778777840720297508,$GPRMC,165720.000,A,1205.9845,S,07701.4635,W,6.48,329.42,140526,,,A*65,0
1778777841435937130,$GPGGA,165721.000,1205.9824,S,07701.4634,W,1,06,1.6,143.0,M,8.4,M,,0000*6B,0
1778777841552877689,$GPGSA,M,3,05,21,14,17,24,30,,,,,,,3.2,1.6,2.8*32,0
1778777841717836651,$GPRMC,165721.000,A,1205.9824,S,07701.4634,W,6.91,346.77,140526,,,A*69,0
1778777842433089329,$GPGGA,165722.000,1205.9799,S,07701.4625,W,1,05,2.8,142.8,M,8.4,M,,0000*66,0
1778777842545362863,$GPGSA,M,3,05,21,14,17,30,,,,,,,,7.5,2.8,7.0*37,0
1778777842705826797,$GPRMC,165722.000,A,1205.9799,S,07701.4625,W,8.21,5.13,140526,,,A*60,0
1778777843433535335,$GPGGA,165723.000,1205.9763,S,07701.4610,W,1,05,2.8,142.5,M,8.4,M,,0000*69,0
1778777843545833390,$GPGSA,M,3,05,21,14,17,30,,,,,,,,7.5,2.8,7.0*37,0
1778777843710840875,$GPRMC,165723.000,A,1205.9763,S,07701.4610,W,10.84,19.93,140526,,,A*61,0
1778777844430881108,$GPGGA,165724.000,1205.9728,S,07701.4593,W,1,06,1.5,142.4,M,8.4,M,,0000*65,0
1778777844547757773,$GPGSA,M,3,05,21,17,14,30,11,,,,,,,2.5,1.5,2.0*39,0
1778777844708187555,$GPGSV,3,1,12,05,56,281,43,21,55,341,43,17,30,085,44,14,29,147,43*73,0
1778777844864015633,$GPGSV,3,2,12,30,14,128,24,11,11,350,20,44,42,284,41,28,59,150,*7B,0
1778777845006134215,$GPGSV,3,3,12,13,47,168,,26,45,137,,23,33,073,,16,27,147,*71,0
1778777845171133033,$GPRMC,165724.000,A,1205.9728,S,07701.4593,W,12.56,24.75,140526,,,A*6A,0
1778777845439041626,$GPGGA,165725.000,1205.9695,S,07701.4576,W,1,06,1.5,142.7,M,8.4,M,,0000*6B,0
1778777845555931811,$GPGSA,M,3,05,21,17,14,30,11,,,,,,,2.5,1.5,2.0*39,0
1778777845720931443,$GPRMC,165725.000,A,1205.9695,S,07701.4576,W,12.59,25.05,140526,,,A*6E,0
1778777846435142913,$GPGGA,165726.000,1205.9664,S,07701.4559,W,1,06,1.5,143.9,M,8.4,M,,0000*64,0
1778777846552088899,$GPGSA,M,3,05,21,17,14,30,11,,,,,,,2.5,1.5,2.0*39,0
1778777846717038509,$GPRMC,165726.000,A,1205.9664,S,07701.4559,W,11.92,25.35,140526,,,A*69,0
1778777847438515227,$GPGGA,165727.000,1205.9633,S,07701.4543,W,1,07,1.0,144.1,M,8.4,M,,0000*67,0
1778777847559989060,$GPGSA,M,3,05,21,17,14,24,30,11,,,,,,1.8,1.0,1.6*31,0
1778777847724988118,$GPRMC,165727.000,A,1205.9633,S,07701.4543,W,12.11,25.13,140526,,,A*6D,0
1778777848442102265,$GPGGA,165728.000,1205.9600,S,07701.4528,W,1,06,1.5,143.9,M,8.4,M,,0000*6E,0
1778777848558997876,$GPGSA,M,3,05,21,17,14,30,11,,,,,,,2.5,1.5,2.0*39,0
1778777848724001898,$GPRMC,165728.000,A,1205.9600,S,07701.4528,W,12.30,25.03,140526,,,A*6D,0
1778777849433615441,$GPGGA,165729.000,1205.9568,S,07701.4513,W,1,06,1.1,144.2,M,8.4,M,,0000*62,0
1778777849550495551,$GPGSA,M,3,05,21,14,24,30,11,,,,,,,1.9,1.1,1.6*37,0
1778777849710930037,$GPGSV,3,1,12,05,56,281,43,21,55,341,42,14,29,147,44,24,16,245,39*75,0
1778777849866767819,$GPGSV,3,2,12,30,14,128,27,11,11,350,29,44,42,284,42,28,59,150,*72,0
1778777850008935184,$GPGSV,3,3,12,13,47,168,,26,45,137,,23,33,073,,17,30,085,*79,0
1778777850173859735,$GPRMC,165729.000,A,1205.9568,S,07701.4513,W,12.72,25.44,140526,,,A*6C,0
1778777850438459077,$GPGGA,165730.000,1205.9535,S,07701.4496,W,1,06,1.1,144.6,M,8.4,M,,0000*6A,0
1778777850555343484,$GPGSA,M,3,05,21,14,24,30,11,,,,,,,1.9,1.1,1.6*37,0
1778777850720354710,$GPRMC,165730.000,A,1205.9535,S,07701.4496,W,12.80,25.23,140526,,,A*6C,0
1778777851438095859,$GPGGA,165731.000,1205.9502,S,07701.4481,W,1,07,1.0,145.0,M,8.4,M,,0000*6E,0
1778777851559572303,$GPGSA,M,3,05,21,17,14,24,30,11,,,,,,1.8,1.0,1.6*31,0
1778777851724559249,$GPRMC,165731.000,A,1205.9502,S,07701.4481,W,12.57,23.80,140526,,,A*6A,0
1778777852437927586,$GPGGA,165732.000,1205.9470,S,07701.4466,W,1,07,1.0,145.2,M,8.4,M,,0000*62,0
1778777852559387232,$GPGSA,M,3,05,21,17,14,24,30,11,,,,,,1.8,1.0,1.6*31,0
1778777852724391383,$GPRMC,165732.000,A,1205.9470,S,07701.4466,W,12.44,23.82,140526,,,A*64,0
1778777853436938143,$GPGGA,165733.000,1205.9439,S,07701.4451,W,1,07,1.0,145.2,M,8.4,M,,0000*6A,0
1778777853558419235,$GPGSA,M,3,05,21,17,14,24,30,11,,,,,,1.8,1.0,1.6*31,0
1778777853723407700,$GPRMC,165733.000,A,1205.9439,S,07701.4451,W,12.15,24.83,140526,,,A*6E,0
1778777854439060248,$GPGGA,165734.000,1205.9408,S,07701.4435,W,1,07,1.0,145.3,M,8.4,M,,0000*6C,0
1778777854560565491,$GPGSA,M,3,05,21,17,14,24,30,11,,,,,,1.8,1.0,1.6*31,0
1778777854720979161,$GPGSV,3,1,12,05,56,281,43,21,55,341,38,17,30,085,42,14,29,147,40*7A,0
1778777854881374681,$GPGSV,3,2,12,24,16,245,32,30,14,128,26,11,11,350,23,44,42,284,38*75,0
1778777855023473558,$GPGSV,3,3,12,28,59,150,,13,47,168,,26,45,137,,23,33,073,*73,0
1778777855188473653,$GPRMC,165734.000,A,1205.9408,S,07701.4435,W,12.04,25.21,140526,,,A*60,0
1778777855433694751,$GPGGA,165735.000,1205.9375,S,07701.4420,W,1,07,1.0,145.3,M,8.4,M,,0000*64,0
1778777855555199976,$GPGSA,M,3,05,21,17,14,24,30,11,,,,,,1.8,1.0,1.6*31,0
1778777855720185996,$GPRMC,165735.000,A,1205.9375,S,07701.4420,W,12.16,24.67,140526,,,A*68,0
1778777856435620765,$GPGGA,165736.000,1205.9344,S,07701.4405,W,1,07,1.0,145.5,M,8.4,M,,0000*64,0
1778777856557077207,$GPGSA,M,3,05,21,17,14,24,30,11,,,,,,1.8,1.0,1.6*31,0
1778777856722087155,$GPRMC,165736.000,A,1205.9344,S,07701.4405,W,12.09,24.48,140526,,,A*6D,0
1778777857436916164,$GPGGA,165737.000,1205.9313,S,07701.4391,W,1,06,1.1,145.7,M,8.4,M,,0000*6F,0
1778777857553799903,$GPGSA,M,3,05,21,14,24,30,11,,,,,,,1.9,1.1,1.6*37,0
1778777857718810259,$GPRMC,165737.000,A,1205.9313,S,07701.4391,W,12.17,24.69,140526,,,A*68,0
1778777858438012304,$GPGGA,165738.000,1205.9282,S,07701.4376,W,1,06,1.1,145.7,M,8.4,M,,0000*60,0
1778777858554887765,$GPGSA,M,3,05,21,14,24,30,11,,,,,,,1.9,1.1,1.6*37,0
1778777858719884453,$GPRMC,165738.000,A,1205.9282,S,07701.4376,W,12.15,24.31,140526,,,A*68,0
1778777859440358671,$GPGGA,165739.000,1205.9251,S,07701.4362,W,1,07,1.0,146.1,M,8.4,M,,0000*6F,0
1778777859561806297,$GPGSA,M,3,05,21,17,14,24,30,11,,,,,,1.8,1.0,1.6*31,0
1778777859722609318,$GPGSV,3,1,12,05,56,281,43,21,55,341,40,17,30,085,30,14,29,147,27*71,0
1778777859882654268,$GPGSV,3,2,12,24,16,245,42,30,14,128,21,11,11,350,23,44,42,284,38*75,0
1778777860024750552,$GPGSV,3,3,12,28,59,150,,13,47,168,,26,45,137,,23,33,073,*73,0
1778777860189757333,$GPRMC,165739.000,A,1205.9251,S,07701.4362,W,12.35,24.15,140526,,,A*66,0
1778777860434136705,$GPGGA,165740.000,1205.9219,S,07701.4347,W,1,07,1.0,146.5,M,8.4,M,,0000*6E,0
1778777860555617353,$GPGSA,M,3,05,21,17,14,24,30,11,,,,,,1.8,1.0,1.6*31,0
1778777860720604985,$GPRMC,165740.000,A,1205.9219,S,07701.4347,W,12.38,24.31,140526,,,A*68,0
1778777861438985064,$GPGGA,165741.000,1205.9189,S,07701.4334,W,1,07,1.0,147.0,M,8.4,M,,0000*65,0
1778777861560443302,$GPGSA,M,3,05,21,17,14,24,30,11,,,,,,1.8,1.0,1.6*31,0
1778777861725448046,$GPRMC,165741.000,A,1205.9189,S,07701.4334,W,12.05,24.78,140526,,,A*64,0
1778777862437986769,$GPGGA,165742.000,1205.9159,S,07701.4319,W,1,07,1.0,147.2,M,8.4,M,,0000*66,0
1778777862559455841,$GPGSA,M,3,05,21,17,14,24,30,11,,,,,,1.8,1.0,1.6*31,0
1778777862724449807,$GPRMC,165742.000,A,1205.9159,S,07701.4319,W,12.07,25.44,140526,,,A*69,0
1778777863433450515,$GPGGA,165743.000,1205.9127,S,07701.4305,W,1,07,1.0,147.3,M,8.4,M,,0000*62,0
1778777863554925292,$GPGSA,M,3,05,21,17,14,24,30,11,,,,,,1.8,1.0,1.6*31,0
1778777863719984208,$GPRMC,165743.000,A,1205.9127,S,07701.4305,W,12.11,25.50,140526,,,A*6E,0
1778777864433913244,$GPGGA,165744.000,1205.9097,S,07701.4289,W,1,07,1.0,147.5,M,8.4,M,,0000*6C,0
1778777864555371853,$GPGSA,M,3,05,21,17,14,24,30,11,,,,,,1.8,1.0,1.6*31,0
1778777864715798543,$GPGSV,3,1,12,05,56,281,43,21,55,341,40,17,30,085,42,14,29,147,40*75,0
1778777864876222676,$GPGSV,3,2,12,24,16,245,37,30,14,128,26,11,11,350,22,44,42,284,40*7E,0
1778777865018338258,$GPGSV,3,3,12,28,59,150,,13,47,168,,26,45,137,,23,33,073,*73,0
1778777865183328316,$GPRMC,165744.000,A,1205.9097,S,07701.4289,W,12.14,25.34,140526,,,A*61,0
1778777865438780308,$GPGGA,165745.000,1205.9067,S,07701.4275,W,1,07,1.0,147.9,M,8.4,M,,0000*6D,0
1778777865560221656,$GPGSA,M,3,05,21,17,14,24,30,11,,,,,,1.8,1.0,1.6*31,0
1778777865725222011,$GPRMC,165745.000,A,1205.9067,S,07701.4275,W,12.06,25.23,140526,,,A*69,0
1778777866440677134,$GPGGA,165746.000,1205.9037,S,07701.4260,W,1,07,1.0,148.3,M,8.4,M,,0000*6A,0
1778777866562144206,$GPGSA,M,3,05,21,17,14,24,30,11,,,,,,1.8,1.0,1.6*31,0
1778777866727155303,$GPRMC,165746.000,A,1205.9037,S,07701.4260,W,11.86,25.00,140526,,,A*61,0
1778777867436349381,$GPGGA,165747.000,1205.9007,S,07701.4246,W,1,06,1.5,148.5,M,8.4,M,,0000*6E,0
1778777867553221453,$GPGSA,M,3,05,21,17,14,30,11,,,,,,,2.5,1.5,2.0*39,0
1778777867718237976,$GPRMC,165747.000,A,1205.9007,S,07701.4246,W,11.77,24.55,140526,,,A*68,0
1778777868432662392,$GPGGA,165748.000,1205.8976,S,07701.4232,W,1,06,1.5,148.4,M,8.4,M,,0000*6D,0
1778777868549532371,$GPGSA,M,3,05,21,17,14,30,11,,,,,,,2.5,1.5,2.0*39,0
1778777868714531615,$GPRMC,165748.000,A,1205.8976,S,07701.4232,W,11.81,24.16,140526,,,A*64,0
1778777869436237743,$GPGGA,165749.000,1205.8945,S,07701.4219,W,1,07,1.0,148.3,M,8.4,M,,0000*66,0
1778777869557704612,$GPGSA,M,3,05,21,17,14,24,30,11,,,,,,1.8,1.0,1.6*31,0
1778777869718128412,$GPGSV,3,1,12,05,56,281,43,21,55,341,41,17,30,085,26,14,29,147,32*73,0
1778777869878556009,$GPGSV,3,2,12,24,16,245,21,30,14,128,26,11,11,350,28,06,01,026,14*79,0
1778777870025216013,$GPGSV,3,3,12,44,42,284,41,28,59,150,,13,47,168,,26,45,137,*7B,0
1778777870190238518,$GPRMC,165749.000,A,1205.8945,S,07701.4219,W,11.96,22.53,140526,,,A*6D,0
1778777870435662358,$GPGGA,165750.000,1205.8913,S,07701.4205,W,1,07,1.0,148.2,M,8.4,M,,0000*61,0
1778777870557120911,$GPGSA,M,3,05,21,17,14,24,30,11,,,,,,1.8,1.0,1.6*31,0
1778777870722132767,$GPRMC,165750.000,A,1205.8913,S,07701.4205,W,11.93,23.57,140526,,,A*6B,0
1778777871435293676,$GPGGA,165751.000,1205.8883,S,07701.4192,W,1,07,1.0,148.3,M,8.4,M,,0000*64,0
1778777871556752693,$GPGSA,M,3,05,21,17,14,24,30,11,,,,,,1.8,1.0,1.6*31,0
1778777871721768327,$GPRMC,165751.000,A,1205.8883,S,07701.4192,W,11.67,23.57,140526,,,A*64,0
1778777872440147628,$GPGGA,165752.000,1205.8852,S,07701.4178,W,1,07,1.0,148.5,M,8.4,M,,0000*69,0
1778777872561598792,$GPGSA,M,3,05,21,17,14,24,30,11,,,,,,1.8,1.0,1.6*31,0
1778777872726603665,$GPRMC,165752.000,A,1205.8852,S,07701.4178,W,11.69,24.06,140526,,,A*62,0
1778777873439976835,$GPGGA,165753.000,1205.8822,S,07701.4164,W,1,07,1.0,148.6,M,8.4,M,,0000*61,0
1778777873561432740,$GPGSA,M,3,05,21,17,14,24,30,11,,,,,,1.8,1.0,1.6*31,0
1778777873726455449,$GPRMC,165753.000,A,1205.8822,S,07701.4164,W,11.69,24.17,140526,,,A*69,0
1778777874438973577,$GPGGA,165754.000,1205.8790,S,07701.4151,W,1,07,1.0,148.7,M,8.4,M,,0000*67,0
1778777874560466930,$GPGSA,M,3,05,21,17,14,24,30,11,,,,,,1.8,1.0,1.6*31,0
1778777874720950680,$GPGSV,3,1,12,05,56,281,44,21,55,341,42,17,30,085,25,14,29,147,35*73,0
1778777874881282564,$GPGSV,3,2,12,24,16,245,36,30,14,128,23,11,11,350,32,44,42,284,43*78,0
1778777875023396461,$GPGSV,3,3,12,28,59,150,,13,47,168,,26,45,137,,23,33,073,*73,0
1778777875188379962,$GPRMC,165754.000,A,1205.8790,S,07701.4151,W,11.55,24.78,140526,,,A*68,0
1778777875435697422,$GPGGA,165755.000,1205.8760,S,07701.4139,W,1,07,1.0,148.8,M,8.4,M,,0000*68,0
1778777875557168236,$GPGSA,M,3,05,21,17,14,24,30,11,,,,,,1.8,1.0,1.6*31,0
1778777875722191463,$GPRMC,165755.000,A,1205.8760,S,07701.4139,W,10.61,22.79,140526,,,A*69,0
1778777876440948373,$GPGGA,165756.000,1205.8733,S,07701.4130,W,1,07,1.0,148.8,M,8.4,M,,0000*64,0
1778777876562411427,$GPGSA,M,3,05,21,17,14,24,30,11,,,,,,1.8,1.0,1.6*31,0
1778777876725128292,$GPRMC,165756.000,A,1205.8733,S,07701.4130,W,9.70,19.79,140526,,,A*55,0
1778777877440790100,$GPGGA,165757.000,1205.8708,S,07701.4125,W,1,07,1.0,148.8,M,8.4,M,,0000*69,0
1778777877562264692,$GPGSA,M,3,05,21,17,14,24,30,11,,,,,,1.8,1.0,1.6*31,0
1778777877724969667,$GPRMC,165757.000,A,1205.8708,S,07701.4125,W,8.75,14.86,140526,,,A*51,0
1778777878440623660,$GPGGA,165758.000,1205.8684,S,07701.4126,W,1,07,1.0,149.1,M,8.4,M,,0000*68,0
1778777878562097530,$GPGSA,M,3,05,21,17,14,24,30,11,,,,,,1.8,1.0,1.6*31,0
1778777878722518774,$GPRMC,165758.000,A,1205.8684,S,07701.4126,W,8.39,4.13,140526,,,A*6D,0
1778777879440475351,$GPGGA,165759.000,1205.8662,S,07701.4138,W,1,07,1.0,149.5,M,8.4,M,,0000*6A,0
1778777879561942794,$GPGSA,M,3,05,21,17,14,24,30,11,,,,,,1.8,1.0,1.6*31,0
1778777879722355816,$GPGSV,3,1,12,05,56,281,44,21,55,341,43,17,30,085,41,14,29,147,44*76,0
1778777879882782283,$GPGSV,3,2,12,24,16,245,34,30,14,128,29,11,11,350,25,06,01,026,14*7F,0
1778777880034039917,$GPGSV,3,3,12,13,47,168,40,44,42,284,42,28,59,150,,26,45,137,*7C,0
1778777880199048884,$GPRMC,165759.000,A,1205.8662,S,07701.4138,W,8.14,352.12,140526,,,A*65,0
1778777880438451127,$GPGGA,165800.000,1205.8645,S,07701.4151,W,1,06,1.6,149.5,M,8.4,M,,0000*64,0
1778777880555381742,$GPGSA,M,3,05,21,17,14,24,30,,,,,,,3.3,1.6,2.9*32,0
1778777880720332610,$GPRMC,165800.000,A,1205.8645,S,07701.4151,W,8.10,338.51,140526,,,A*63,0
1778777881439590123,$GPGGA,165801.000,1205.8643,S,07701.4186,W,1,06,1.6,150.3,M,8.4,M,,0000*67,0
1778777881556405986,$GPGSA,M,3,05,21,17,14,24,30,,,,,,,3.3,1.6,2.9*32,0
1778777881723703962,$GPRMC,165801.000,A,1205.8643,S,07701.4186,W,10.54,300.02,140526,,,A*5A,0
1778777882436657130,$GPGGA,165802.000,1205.8642,S,07701.4224,W,1,06,1.6,150.7,M,8.4,M,,0000*6A,0
1778777882553525998,$GPGSA,M,3,05,21,17,14,24,30,,,,,,,3.3,1.6,2.9*32,0
1778777882720905295,$GPRMC,165802.000,A,1205.8642,S,07701.4224,W,11.03,279.42,140526,,,A*5B,0
1778777883436912877,$GPGGA,165803.000,1205.8641,S,07701.4259,W,1,06,1.6,151.0,M,8.4,M,,0000*64,0
1778777883553788949,$GPGSA,M,3,05,21,17,14,24,30,,,,,,,3.3,1.6,2.9*32,0
1778777883721140689,$GPRMC,165803.000,A,1205.8641,S,07701.4259,W,11.01,276.90,140526,,,A*51,0
1778777884438625129,$GPGGA,165804.000,1205.8639,S,07701.4293,W,1,06,1.6,151.4,M,8.4,M,,0000*6E,0
1778777884555508776,$GPGSA,M,3,05,21,17,14,24,30,,,,,,,3.3,1.6,2.9*32,0
1778777884715934577,$GPGSV,3,1,12,05,56,281,46,21,55,341,45,17,30,085,47,14,29,147,38*7F,0
1778777884871771136,$GPGSV,3,2,12,24,16,245,27,30,14,128,28,44,42,284,47,28,59,150,*72,0
1778777885013858031,$GPGSV,3,3,12,13,47,168,,26,45,137,,23,33,073,,16,27,147,*71,0
1778777885181156654,$GPRMC,165804.000,A,1205.8639,S,07701.4293,W,11.36,276.74,140526,,,A*51,0
1778777885437219148,$GPGGA,165805.000,1205.8636,S,07701.4328,W,1,06,1.6,151.5,M,8.4,M,,0000*60,0
1778777885554099999,$GPGSA,M,3,05,21,17,14,24,30,,,,,,,3.3,1.6,2.9*32,0
1778777885721397492,$GPRMC,165805.000,A,1205.8636,S,07701.4328,W,11.81,277.02,140526,,,A*52,0
1778777886434350420,$GPGGA,165806.000,1205.8634,S,07701.4363,W,1,06,1.6,151.5,M,8.4,M,,0000*6E,0
1778777886551228918,$GPGSA,M,3,05,21,17,14,24,30,,,,,,,3.3,1.6,2.9*32,0
1778777886718540784,$GPRMC,165806.000,A,1205.8634,S,07701.4363,W,11.87,277.46,140526,,,A*5A,0
1778777887440222929,$GPGGA,165807.000,1205.8631,S,07701.4397,W,1,06,1.6,151.6,M,8.4,M,,0000*62,0
1778777887557111780,$GPGSA,M,3,05,21,17,14,24,30,,,,,,,3.3,1.6,2.9*32,0
1778777887724408811,$GPRMC,165807.000,A,1205.8631,S,07701.4397,W,11.51,278.20,140526,,,A*51,0
1778777888440503623,$GPGGA,165808.000,1205.8627,S,07701.4430,W,1,06,1.6,151.6,M,8.4,M,,0000*60,0
1778777888557361934,$GPGSA,M,3,05,21,17,14,24,30,,,,,,,3.3,1.6,2.9*32,0
1778777888724671800,$GPRMC,165808.000,A,1205.8627,S,07701.4430,W,11.10,278.30,140526,,,A*57,0
1778777889443035137,$GPGGA,165809.000,1205.8624,S,07701.4460,W,1,07,1.0,151.7,M,8.4,M,,0000*61,0
1778777889564557251,$GPGSA,M,3,05,21,17,14,24,30,11,,,,,,1.8,1.0,1.6*31,0
1778777889724926454,$GPGSV,3,1,12,05,56,281,46,21,55,341,45,17,30,085,47,14,29,147,38*7F,0
1778777889885343476,$GPGSV,3,2,12,24,16,245,14,30,14,128,38,11,11,350,20,13,47,168,34*77,0
1778777890032029501,$GPGSV,3,3,12,44,42,284,47,28,59,150,,26,45,137,,23,33,073,*76,0
1778777890199320605,$GPRMC,165809.000,A,1205.8624,S,07701.4460,W,10.43,277.79,140526,,,A*55,0
1778777890440796115,$GPGGA,165810.000,1205.8623,S,07701.4487,W,1,06,1.5,152.5,M,8.4,M,,0000*62,0
1778777890557681022,$GPGSA,M,3,05,21,17,14,30,11,,,,,,,2.5,1.5,2.0*39,0
1778777890722677172,$GPRMC,165810.000,A,1205.8623,S,07701.4487,W,9.08,278.32,140526,,,A*64,0
1778777891439592208,$GPGGA,165811.000,1205.8623,S,07701.4511,W,1,06,1.5,152.5,M,8.4,M,,0000*6D,0
1778777891556461058,$GPGSA,M,3,05,21,17,14,30,11,,,,,,,2.5,1.5,2.0*39,0
1778777891721486507,$GPRMC,165811.000,A,1205.8623,S,07701.4511,W,8.17,271.53,140526,,,A*6A,0
1778777892434007894,$GPGGA,165812.000,1205.8625,S,07701.4534,W,1,06,1.5,152.7,M,8.4,M,,0000*6D,0
1778777892550896246,$GPGSA,M,3,05,21,17,14,30,11,,,,,,,2.5,1.5,2.0*39,0
1778777892715890174,$GPRMC,165812.000,A,1205.8625,S,07701.4534,W,7.72,264.24,140526,,,A*60,0
1778777893433638343,$GPGGA,165813.000,1205.8634,S,07701.4553,W,1,06,1.5,153.0,M,8.4,M,,0000*6B,0
1778777893550527694,$GPGSA,M,3,05,21,17,14,30,11,,,,,,,2.5,1.5,2.0*39,0
1778777893715571312,$GPRMC,165813.000,A,1205.8634,S,07701.4553,W,7.43,251.79,140526,,,A*6C,0
1778777894434933631,$GPGGA,165814.000,1205.8648,S,07701.4569,W,1,06,1.5,153.3,M,8.4,M,,0000*6D,0
1778777894551815963,$GPGSA,M,3,05,21,17,14,30,11,,,,,,,2.5,1.5,2.0*39,0
1778777894712230633,$GPGSV,3,1,12,05,56,281,32,21,55,341,45,17,30,085,46,14,29,147,40*72,0
1778777894868075952,$GPGSV,3,2,12,30,14,128,33,11,11,350,26,44,42,284,25,28,59,150,*79,0
1778777895010176329,$GPGSV,3,3,12,13,47,168,,26,45,137,,23,33,073,,16,27,147,*71,0
1778777895175186018,$GPRMC,165814.000,A,1205.8648,S,07701.4569,W,7.17,242.02,140526,,,A*66,0
1778777895434367338,$GPGGA,165815.000,1205.8672,S,07701.4582,W,1,06,1.5,153.6,M,8.4,M,,0000*65,0
1778777895551254171,$GPGSA,M,3,05,21,17,14,30,11,,,,,,,2.5,1.5,2.0*39,0
1778777895716257582,$GPRMC,165815.000,A,1205.8672,S,07701.4582,W,7.99,226.89,140526,,,A*6C,0
1778777896435230253,$GPGGA,165816.000,1205.8693,S,07701.4593,W,1,06,1.5,153.9,M,8.4,M,,0000*66,0
1778777896552139791,$GPGSA,M,3,05,21,17,14,30,11,,,,,,,2.5,1.5,2.0*39,0
1778777896717122959,$GPRMC,165816.000,A,1205.8693,S,07701.4593,W,8.22,216.67,140526,,,A*6C,0
1778777897435297649,$GPGGA,165817.000,1205.8712,S,07701.4601,W,1,06,1.5,154.0,M,8.4,M,,0000*69,0
1778777897552173203,$GPGSA,M,3,05,21,17,14,30,11,,,,,,,2.5,1.5,2.0*39,0
1778777897717174669,$GPRMC,165817.000,A,1205.8712,S,07701.4601,W,8.02,210.00,140526,,,A*68,0
1778777898434297280,$GPGGA,165818.000,1205.8732,S,07701.4610,W,1,05,2.8,154.0,M,8.4,M,,0000*69,0
1778777898546591297,$GPGSA,M,3,05,21,17,14,30,,,,,,,,7.5,2.8,7.0*37,0
1778777898711605412,$GPRMC,165818.000,A,1205.8732,S,07701.4610,W,8.34,208.71,140526,,,A*6F,0
1778777899440387420,$GPGGA,165819.000,1205.8746,S,07701.4619,W,1,06,1.5,154.1,M,8.4,M,,0000*6E,0
1778777899557271734,$GPGSA,M,3,05,21,17,14,30,11,,,,,,,2.5,1.5,2.0*39,0
1778777899717690497,$GPGSV,3,1,12,05,56,281,26,21,55,341,45,17,30,085,37,14,29,147,28*7F,0
1778777899878108908,$GPGSV,3,2,12,30,14,128,26,11,11,350,18,06,01,026,17,44,42,284,20*72,0
1778777900020219934,$GPGSV,3,3,12,28,59,150,,13,47,168,,26,45,137,,23,33,073,*73,0
1778777900185230160,$GPRMC,165819.000,A,1205.8746,S,07701.4619,W,7.70,208.56,140526,,,A*6E,0
1778777900439605330,$GPGGA,165820.000,1205.8758,S,07701.4628,W,1,05,2.8,154.1,M,8.4,M,,0000*64,0
1778777900551898959,$GPGSA,M,3,05,21,17,14,30,,,,,,,,7.5,2.8,7.0*37,0
1778777900716909203,$GPRMC,165820.000,A,1205.8758,S,07701.4628,W,7.21,209.05,140526,,,A*6A,0
1778777901436727749,$GPGGA,165821.000,1205.8775,S,07701.4641,W,1,06,1.6,154.1,M,8.4,M,,0000*6B,0
1778777901553623509,$GPGSA,M,3,05,21,17,14,24,30,,,,,,,3.3,1.6,2.9*32,0
1778777901718621956,$GPRMC,165821.000,A,1205.8775,S,07701.4641,W,7.77,209.62,140526,,,A*69,0
1778777902435738066,$GPGGA,165822.000,1205.8798,S,07701.4661,W,1,06,1.6,154.1,M,8.4,M,,0000*69,0
1778777902552621435,$GPGSA,M,3,05,21,17,14,24,30,,,,,,,3.3,1.6,2.9*32,0
1778777902717633773,$GPRMC,165822.000,A,1205.8798,S,07701.4661,W,8.59,212.87,140526,,,A*69,0
1778777903435580182,$GPGGA,165823.000,1205.8823,S,07701.4683,W,1,06,1.6,154.1,M,8.4,M,,0000*6B,0
1778777903552466274,$GPGSA,M,3,05,21,17,14,24,30,,,,,,,3.3,1.6,2.9*32,0
1778777903717460202,$GPRMC,165823.000,A,1205.8823,S,07701.4683,W,9.05,213.37,140526,,,A*69,0
1778777904436682934,$GPGGA,165824.000,1205.8850,S,07701.4703,W,1,06,1.6,154.0,M,8.4,M,,0000*60,0
1778777904553546060,$GPGSA,M,3,05,21,17,14,24,30,,,,,,,3.3,1.6,2.9*32,0
1778777904713957767,$GPGSV,3,1,12,05,56,281,38,21,55,341,33,17,30,085,33,14,29,147,32*7E,0
1778777904869805087,$GPGSV,3,2,12,24,16,245,33,30,14,128,26,44,42,284,32,28,59,150,*7B,0
1778777905011894722,$GPGSV,3,3,12,13,47,168,,26,45,137,,23,33,073,,16,27,147,*71,0
1778777905176903522,$GPRMC,165824.000,A,1205.8850,S,07701.4703,W,9.27,211.30,140526,,,A*66,0
1778777905438176666,$GPGGA,165825.000,1205.8877,S,07701.4722,W,1,06,1.6,153.9,M,8.4,M,,0000*69,0
1778777905555060146,$GPGSA,M,3,05,21,17,14,24,30,,,,,,,3.3,1.6,2.9*32,0
1778777905720059056,$GPRMC,165825.000,A,1205.8877,S,07701.4722,W,8.94,207.55,140526,,,A*6C,0
1778777906439060730,$GPGGA,165826.000,1205.8909,S,07701.4740,W,1,07,1.0,154.2,M,8.4,M,,0000*6D,0
1778777906560509375,$GPGSA,M,3,05,21,17,14,24,30,11,,,,,,1.8,1.0,1.6*31,0
1778777906727828316,$GPRMC,165826.000,A,1205.8909,S,07701.4740,W,10.04,206.06,140526,,,A*54,0
1778777907438679955,$GPGGA,165827.000,1205.8954,S,07701.4751,W,1,07,1.0,155.0,M,8.4,M,,0000*67,0
1778777907560141435,$GPGSA,M,3,05,21,17,14,24,30,11,,,,,,1.8,1.0,1.6*31,0
1778777907727441855,$GPRMC,165827.000,A,1205.8954,S,07701.4751,W,10.63,203.95,140526,,,A*53,0
1778777908439156890,$GPGGA,165828.000,1205.8995,S,07701.4763,W,1,07,1.0,155.4,M,8.4,M,,0000*60,0
1778777908560611091,$GPGSA,M,3,05,21,17,14,24,30,11,,,,,,1.8,1.0,1.6*31,0
1778777908727907103,$GPRMC,165828.000,A,1205.8995,S,07701.4763,W,10.90,205.01,140526,,,A*57,0
1778777909438992264,$GPGGA,165829.000,1205.9039,S,07701.4780,W,1,07,1.0,155.5,M,8.4,M,,0000*63,0
1778777909560450207,$GPGSA,M,3,05,21,17,14,24,30,11,,,,,,1.8,1.0,1.6*31,0
1778777909720874914,$GPGSV,3,1,12,05,56,281,38,21,55,341,31,17,30,085,29,14,29,147,41*73,0
1778777909881297400,$GPGSV,3,2,12,24,16,245,39,30,14,128,26,11,11,350,19,44,42,284,30*7F,0
1778777910023399073,$GPGSV,3,3,12,28,59,150,,13,47,168,,26,45,137,,23,33,073,*73,0
1778777910190684899,$GPRMC,165829.000,A,1205.9039,S,07701.4780,W,11.06,205.27,140526,,,A*5F,0
1778777910439660642,$GPGGA,165830.000,1205.9086,S,07701.4802,W,1,07,1.0,156.6,M,8.4,M,,0000*6A,0
1778777910561119622,$GPGSA,M,3,05,21,17,14,24,30,11,,,,,,1.8,1.0,1.6*31,0
1778777910728424635,$GPRMC,165830.000,A,1205.9086,S,07701.4802,W,11.37,205.15,140526,,,A*55,0
1778777911440127613,$GPGGA,165831.000,1205.9138,S,07701.4826,W,1,07,1.0,157.4,M,8.4,M,,0000*6A,0
1778777911561590278,$GPGSA,M,3,05,21,17,14,24,30,11,,,,,,1.8,1.0,1.6*31,0
1778777911728953815,$GPRMC,165831.000,A,1205.9138,S,07701.4826,W,11.91,205.51,140526,,,A*5A,0
1778777912440396305,$GPGGA,165832.000,1205.9178,S,07701.4841,W,1,07,1.0,157.3,M,8.4,M,,0000*6B,0
1778777912561848006,$GPGSA,M,3,05,21,17,14,24,30,11,,,,,,1.8,1.0,1.6*31,0
1778777912729196301,$GPRMC,165832.000,A,1205.9178,S,07701.4841,W,12.23,205.35,140526,,,A*54,0
1778777913438761673,$GPGGA,165833.000,1205.9208,S,07701.4856,W,1,06,1.6,156.4,M,8.4,M,,0000*69,0
1778777913555650210,$GPGSA,M,3,05,21,17,14,24,30,,,,,,,3.3,1.6,2.9*32,0
1778777913722983411,$GPRMC,165833.000,A,1205.9208,S,07701.4856,W,12.03,205.85,140526,,,A*5E,0
1778777914443195067,$GPGGA,165834.000,1205.9237,S,07701.4867,W,1,06,1.6,155.4,M,8.4,M,,0000*63,0
1778777914560070306,$GPGSA,M,3,05,21,17,14,24,30,,,,,,,3.3,1.6,2.9*32,0
1778777914720499107,$GPGSV,3,1,12,05,56,281,44,21,55,341,42,17,30,085,39,14,29,147,30*7B,0
1778777914876338074,$GPGSV,3,2,12,24,16,245,38,30,14,128,21,11,11,350,,44,42,284,39*78,0
1778777915018420801,$GPGSV,3,3,12,28,59,150,,13,47,168,,26,45,137,,23,33,073,*73,0
1778777915185714739,$GPRMC,165834.000,A,1205.9237,S,07701.4867,W,11.94,203.30,140526,,,A*52,0
1778777915441982863,$GPGGA,165835.000,1205.9266,S,07701.4879,W,1,06,1.6,154.4,M,8.4,M,,0000*68,0
1778777915558893291,$GPGSA,M,3,05,21,17,14,24,30,,,,,,,3.3,1.6,2.9*32,0
1778777915726169190,$GPRMC,165835.000,A,1205.9266,S,07701.4879,W,11.84,204.15,140526,,,A*59,0
1778777916440157399,$GPGGA,165836.000,1205.9297,S,07701.4892,W,1,07,1.0,154.1,M,8.4,M,,0000*62,0
1778777916561634472,$GPGSA,M,3,05,21,17,14,24,30,11,,,,,,1.8,1.0,1.6*31,0
1778777916728916650,$GPRMC,165836.000,A,1205.9297,S,07701.4892,W,11.77,205.35,140526,,,A*5E,0
1778777917438115840,$GPGGA,165837.000,1205.9328,S,07701.4906,W,1,07,1.0,153.7,M,8.4,M,,0000*6B,0
1778777917559587672,$GPGSA,M,3,05,21,17,14,24,30,11,,,,,,1.8,1.0,1.6*31,0
1778777917726881314,$GPRMC,165837.000,A,1205.9328,S,07701.4906,W,11.65,206.51,140526,,,A*54,0
1778777918440044020,$GPGGA,165838.000,1205.9360,S,07701.4920,W,1,07,1.0,153.7,M,8.4,M,,0000*6C,0
1778777918561507388,$GPGSA,M,3,05,21,17,14,24,30,11,,,,,,1.8,1.0,1.6*31,0
1778777918728810568,$GPRMC,165838.000,A,1205.9360,S,07701.4920,W,11.94,204.58,140526,,,A*56,0
1778777919438217722,$GPGGA,165839.000,1205.9391,S,07701.4933,W,1,06,1.6,153.3,M,8.4,M,,0000*62,0
1778777919555111648,$GPGSA,M,3,05,21,17,14,24,30,,,,,,,3.3,1.6,2.9*32,0
1778777919715522891,$GPGSV,3,1,12,05,56,281,42,21,55,341,40,17,30,085,36,14,29,147,37*77,0
1778777919875958230,$GPGSV,3,2,12,24,16,245,37,30,14,128,23,11,11,350,28,44,42,284,38*7E,0
1778777920018032271,$GPGSV,3,3,12,28,59,150,,13,47,168,,26,45,137,,23,33,073,*73,0
1778777920185332469,$GPRMC,165839.000,A,1205.9391,S,07701.4933,W,11.48,203.71,140526,,,A*56,0
1778777920439318584,$GPGGA,165840.000,1205.9421,S,07701.4944,W,1,06,1.6,153.1,M,8.4,M,,0000*62,0
1778777920556188841,$GPGSA,M,3,05,21,17,14,24,30,,,,,,,3.3,1.6,2.9*32,0
1778777920723506300,$GPRMC,165840.000,A,1205.9421,S,07701.4944,W,11.69,204.04,140526,,,A*52,0
1778777921439983573,$GPGGA,165841.000,1205.9451,S,07701.4957,W,1,06,1.6,152.9,M,8.4,M,,0000*6F,0
1778777921556855164,$GPGSA,M,3,05,21,17,14,24,30,,,,,,,3.3,1.6,2.9*32,0
1778777921724156306,$GPRMC,165841.000,A,1205.9451,S,07701.4957,W,12.13,203.81,140526,,,A*52,0
1778777922437558534,$GPGGA,165842.000,1205.9482,S,07701.4971,W,1,05,1.6,152.6,M,8.4,M,,0000*6A,0
1778777922549828660,$GPGSA,M,3,05,21,17,14,11,,,,,,,,2.8,1.6,2.3*37,0
1778777922717137618,$GPRMC,165842.000,A,1205.9482,S,07701.4971,W,12.32,204.75,140526,,,A*54,0
1778777923439239691,$GPGGA,165843.000,1205.9514,S,07701.4985,W,1,06,1.0,152.7,M,8.4,M,,0000*6A,0
1778777923556124283,$GPGSA,M,3,05,21,17,14,24,11,,,,,,,2.0,1.0,1.7*38,0
1778777923723419851,$GPRMC,165843.000,A,1205.9514,S,07701.4985,W,12.54,203.92,140526,,,A*5E,0
1778777924439493012,$GPGGA,165844.000,1205.9545,S,07701.4999,W,1,06,1.0,152.8,M,8.4,M,,0000*6B,0
1778777924556379067,$GPGSA,M,3,05,21,17,14,24,11,,,,,,,2.0,1.0,1.7*38,0
1778777924716801275,$GPGSV,3,1,12,05,56,281,34,21,55,341,35,17,30,085,28,14,29,147,14*7A,0
1778777924877234150,$GPGSV,3,2,12,24,16,245,18,11,11,350,20,30,14,128,04,44,42,284,34*72,0
1778777925019322211,$GPGSV,3,3,12,28,59,150,,13,47,168,,26,45,137,,23,33,073,*73,0
1778777925186618038,$GPRMC,165844.000,A,1205.9545,S,07701.4999,W,12.16,204.01,140526,,,A*5B,0
1778777925439132443,$GPGGA,165845.000,1205.9574,S,07701.5012,W,1,06,1.0,152.8,M,8.4,M,,0000*63,0
1778777925556005607,$GPGSA,M,3,05,21,17,14,24,11,,,,,,,2.0,1.0,1.7*38,0
1778777925723357884,$GPRMC,165845.000,A,1205.9574,S,07701.5012,W,11.19,203.47,140526,,,A*5A,0
1778777926439590468,$GPGGA,165846.000,1205.9601,S,07701.5023,W,1,06,1.0,152.9,M,8.4,M,,0000*62,0
1778777926556474874,$GPGSA,M,3,05,21,17,14,24,11,,,,,,,2.0,1.0,1.7*38,0
1778777926723772350,$GPRMC,165846.000,A,1205.9601,S,07701.5023,W,10.35,202.71,140526,,,A*51,0
1778777927439018879,$GPGGA,165847.000,1205.9624,S,07701.5035,W,1,06,1.0,152.8,M,8.4,M,,0000*62,0
1778777927555908490,$GPGSA,M,3,05,21,17,14,24,11,,,,,,,2.0,1.0,1.7*38,0
1778777927720909196,$GPRMC,165847.000,A,1205.9624,S,07701.5035,W,9.62,203.56,140526,,,A*6E,0
1778777928445524317,$GPGGA,165848.000,1205.9636,S,07701.5044,W,1,07,1.0,152.4,M,8.4,M,,0000*65,0
1778777928567058804,$GPGSA,M,3,05,21,17,14,24,30,11,,,,,,1.8,1.0,1.6*31,0
1778777928731990578,$GPRMC,165848.000,A,1205.9636,S,07701.5044,W,7.48,205.59,140526,,,A*6B,0
1778777929444961951,$GPGGA,165849.000,1205.9638,S,07701.5045,W,1,07,1.0,151.7,M,8.4,M,,0000*6B,0
1778777929566423542,$GPGSA,M,3,05,21,17,14,24,30,11,,,,,,1.8,1.0,1.6*31,0
1778777929726840045,$GPGSV,3,1,12,05,56,281,40,21,55,341,41,17,30,085,19,14,29,147,33*7D,0
1778777929887262142,$GPGSV,3,2,12,24,16,245,16,30,14,128,19,11,11,350,28,44,42,284,39*75,0
1778777930029413394,$GPGSV,3,3,12,28,59,150,,13,47,168,,26,45,137,,23,33,073,*73,0
1778777930194356873,$GPRMC,165849.000,A,1205.9638,S,07701.5045,W,4.98,205.76,140526,,,A*66,0
1778777930444779028,$GPGGA,165850.000,1205.9647,S,07701.5049,W,1,07,1.0,151.0,M,8.4,M,,0000*60,0
1778777930566245860,$GPGSA,M,3,05,21,17,14,24,30,11,,,,,,1.8,1.0,1.6*31,0
1778777930731262420,$GPRMC,165850.000,A,1205.9647,S,07701.5049,W,5.46,202.46,140526,,,A*6C,0
1778777931439832551,$GPGGA,165851.000,1205.9660,S,07701.5050,W,1,07,1.0,150.4,M,8.4,M,,0000*69,0
1778777931561297050,$GPGSA,M,3,05,21,17,14,24,30,11,,,,,,1.8,1.0,1.6*31,0
1778777931726311980,$GPRMC,165851.000,A,1205.9660,S,07701.5050,W,5.85,201.96,140526,,,A*61,0
1778777932444667723,$GPGGA,165852.000,1205.9673,S,07701.5055,W,1,07,1.0,150.0,M,8.4,M,,0000*69,0
1778777932566133815,$GPGSA,M,3,05,21,17,14,24,30,11,,,,,,1.8,1.0,1.6*31,0
1778777932731145596,$GPRMC,165852.000,A,1205.9673,S,07701.5055,W,5.90,203.46,140526,,,A*6E,0
1778777933440554472,$GPGGA,165853.000,1205.9685,S,07701.5060,W,1,07,1.0,149.6,M,8.4,M,,0000*69,0
1778777933562013729,$GPGSA,M,3,05,21,17,14,24,30,11,,,,,,1.8,1.0,1.6*31,0
1778777933727038123,$GPRMC,165853.000,A,1205.9685,S,07701.5060,W,5.76,205.31,140526,,,A*6E,0
1778777934441477726,$GPGGA,165854.000,1205.9697,S,07701.5066,W,1,07,1.0,149.4,M,8.4,M,,0000*69,0
1778777934562909906,$GPGSA,M,3,05,21,17,14,24,30,11,,,,,,1.8,1.0,1.6*31,0
1778777934723322205,$GPGSV,3,1,12,05,56,281,43,21,55,341,43,17,30,085,33,14,29,147,36*71,0
1778777934883754488,$GPGSV,3,2,12,24,16,245,16,30,14,128,26,11,11,350,34,44,42,284,43*79,0
1778777935025836863,$GPGSV,3,3,12,28,59,150,,13,47,168,,26,45,137,,23,33,073,*73,0
1778777935190844848,$GPRMC,165854.000,A,1205.9697,S,07701.5066,W,6.05,204.78,140526,,,A*67,0
1778777935442746289,$GPGGA,165855.000,1205.9711,S,07701.5070,W,1,07,1.0,149.2,M,8.4,M,,0000*66,0
1778777935564205305,$GPGSA,M,3,05,21,17,14,24,30,11,,,,,,1.8,1.0,1.6*31,0
1778777935729191511,$GPRMC,165855.000,A,1205.9711,S,07701.5070,W,6.29,203.94,140526,,,A*65,0
1778777936442165347,$GPGGA,165856.000,1205.9726,S,07701.5076,W,1,07,1.0,148.9,M,8.4,M,,0000*6D,0
1778777936563617715,$GPGSA,M,3,05,21,17,14,24,30,11,,,,,,1.8,1.0,1.6*31,0
1778777936728621718,$GPRMC,165856.000,A,1205.9726,S,07701.5076,W,6.53,198.59,140526,,,A*69,0
1778777937443030966,$GPGGA,165857.000,1205.9741,S,07701.5078,W,1,07,1.0,148.4,M,8.4,M,,0000*6E,0
1778777937564505095,$GPGSA,M,3,05,21,17,14,24,30,11,,,,,,1.8,1.0,1.6*31,0
1778777937729507968,$GPRMC,165857.000,A,1205.9741,S,07701.5078,W,6.56,191.06,140526,,,A*61,0
1778777938443288713,$GPGGA,165858.000,1205.9761,S,07701.5072,W,1,07,1.0,147.7,M,8.4,M,,0000*65,0
1778777938564756526,$GPGSA,M,3,05,21,17,14,24,30,11,,,,,,1.9,1.0,1.6*30,0
1778777938729764715,$GPRMC,165858.000,A,1205.9761,S,07701.5072,W,7.23,179.04,140526,,,A*61,0
1778777939445224523,$GPGGA,165859.000,1205.9781,S,07701.5056,W,1,07,1.0,146.6,M,8.4,M,,0000*6C,0
1778777939566731248,$GPGSA,M,3,05,21,17,14,24,30,11,,,,,,1.9,1.0,1.6*30,0
1778777939727106284,$GPGSV,3,1,12,05,56,281,44,21,55,341,38,17,30,085,36,14,29,147,42*7C,0
1778777939887517083,$GPGSV,3,2,12,24,16,245,30,30,14,128,37,11,11,350,34,44,42,284,44*7A,0
1778777940029618109,$GPGSV,3,3,12,28,59,150,,13,47,168,,26,45,137,,23,33,073,*73,0
1778777940194623019,$GPRMC,165859.000,A,1205.9781,S,07701.5056,W,8.53,159.05,140526,,,A*63,0
1778777940439857749,$GPGGA,165900.000,1205.9801,S,07701.5035,W,1,06,1.5,145.6,M,8.4,M,,0000*64,0
1778777940556725450,$GPGSA,M,3,05,21,17,14,30,11,,,,,,,2.5,1.5,2.0*39,0
1778777940721746177,$GPRMC,165900.000,A,1205.9801,S,07701.5035,W,9.73,144.77,140526,,,A*66,0
1778777941442600263,$GPGGA,165901.000,1205.9817,S,07701.5005,W,1,06,1.5,144.7,M,8.4,M,,0000*61,0
1778777941559479021,$GPGSA,M,3,05,21,17,14,30,11,,,,,,,2.5,1.5,2.0*39,0
1778777941726786646,$GPRMC,165901.000,A,1205.9817,S,07701.5005,W,10.83,128.63,140526,,,A*5B,0
1778777942443486365,$GPGGA,165902.000,1205.9830,S,07701.4973,W,1,06,1.5,144.1,M,8.4,M,,0000*68,0
1778777942560363456,$GPGSA,M,3,05,21,17,14,30,11,,,,,,,2.5,1.5,2.0*39,0
1778777942727666395,$GPRMC,165902.000,A,1205.9830,S,07701.4973,W,11.59,118.55,140526,,,A*54,0
1778777943444378171,$GPGGA,165903.000,1205.9845,S,07701.4940,W,1,06,1.5,143.8,M,8.4,M,,0000*65,0
1778777943561235464,$GPGSA,M,3,05,21,17,14,30,11,,,,,,,2.5,1.5,2.0*39,0
1778777943728556497,$GPRMC,165903.000,A,1205.9845,S,07701.4940,W,11.77,117.84,140526,,,A*58,0
1778777944444001712,$GPGGA,165904.000,1205.9861,S,07701.4909,W,1,06,1.5,143.5,M,8.4,M,,0000*64,0
1778777944560942142,$GPGSA,M,3,05,21,17,14,30,11,,,,,,,2.5,1.5,2.0*39,0
1778777944721302640,$GPGSV,3,1,12,05,56,281,45,21,55,341,40,17,30,085,31,14,29,147,44*73,0
1778777944877189630,$GPGSV,3,2,12,30,14,128,39,11,11,350,24,44,42,284,46,28,59,150,*74,0
1778777945019238854,$GPGSV,3,3,12,13,47,168,,26,45,137,,23,33,073,,16,27,147,*71,0
1778777945186530162,$GPRMC,165904.000,A,1205.9861,S,07701.4909,W,11.86,117.82,140526,,,A*5C,0
1778777945448034069,$GPGGA,165905.000,1205.9876,S,07701.4878,W,1,07,1.0,143.3,M,8.4,M,,0000*66,0
1778777945569473157,$GPGSA,M,3,05,21,17,14,24,30,11,,,,,,1.9,1.0,1.6*30,0
1778777945736764558,$GPRMC,165905.000,A,1205.9876,S,07701.4878,W,11.71,116.91,140526,,,A*57,0
1778777946448054220,$GPGGA,165906.000,1205.9888,S,07701.4845,W,1,07,1.0,143.5,M,8.4,M,,0000*6C,0
1778777946569512310,$GPGSA,M,3,05,21,17,14,24,30,11,,,,,,1.9,1.0,1.6*30,0
1778777946736824101,$GPRMC,165906.000,A,1205.9888,S,07701.4845,W,11.39,114.32,140526,,,A*5C,0
1778777947448733876,$GPGGA,165907.000,1205.9900,S,07701.4814,W,1,07,1.0,143.4,M,8.4,M,,0000*69,0
1778777947570185207,$GPGSA,M,3,05,21,17,14,24,30,11,,,,,,1.9,1.0,1.6*30,0
1778777947737487201,$GPRMC,165907.000,A,1205.9900,S,07701.4814,W,11.13,114.85,140526,,,A*5C,0
1778777948443765990,$GPGGA,165908.000,1205.9913,S,07701.4786,W,1,07,1.0,143.3,M,8.4,M,,0000*67,0
1778777948565239471,$GPGSA,M,3,05,21,17,14,24,30,11,,,,,,1.9,1.0,1.6*30,0
1778777948732535113,$GPRMC,165908.000,A,1205.9913,S,07701.4786,W,10.42,115.99,140526,,,A*5C,0
1778777949447575345,$GPGGA,165909.000,1205.9925,S,07701.4759,W,1,07,1.0,143.4,M,8.4,M,,0000*66,0
1778777949569035028,$GPGSA,M,3,05,21,17,14,24,30,11,,,,,,1.9,1.0,1.6*30,0
1778777949729454791,$GPGSV,3,1,12,05,56,281,45,21,55,341,40,17,30,085,36,14,29,147,43*73,0
1778777949889886203,$GPGSV,3,2,12,24,16,245,21,30,14,128,40,11,11,350,22,06,01,026,11*76,0
1778777950036561153,$GPGSV,3,3,12,44,42,284,46,28,59,150,,13,47,168,,26,45,137,*7C,0
1778777950201560526,$GPRMC,165909.000,A,1205.9925,S,07701.4759,W,9.60,115.68,140526,,,A*6C,0
1778777950448275522,$GPGGA,165910.000,1205.9936,S,07701.4733,W,1,07,1.0,143.7,M,8.4,M,,0000*63,0
1778777950569698165,$GPGSA,M,3,05,21,17,14,24,30,11,,,,,,1.9,1.0,1.6*30,0
1778777950734712873,$GPRMC,165910.000,A,1205.9936,S,07701.4733,W,9.21,115.68,140526,,,A*6F,0
1778777951448918935,$GPGGA,165911.000,1205.9946,S,07701.4708,W,1,07,1.0,143.9,M,8.4,M,,0000*63,0
1778777951570375988,$GPGSA,M,3,05,21,17,14,24,30,11,,,,,,1.9,1.0,1.6*30,0
1778777951735377899,$GPRMC,165911.000,A,1205.9946,S,07701.4708,W,9.15,115.98,140526,,,A*69,0
1778777952449178275,$GPGGA,165912.000,1205.9957,S,07701.4682,W,1,07,1.0,144.4,M,8.4,M,,0000*69,0
1778777952570642569,$GPGSA,M,3,05,21,17,14,24,30,11,,,,,,1.9,1.0,1.6*30,0
1778777952735648221,$GPRMC,165912.000,A,1205.9957,S,07701.4682,W,9.49,115.61,140526,,,A*66,0
1778777953445267654,$GPGGA,165913.000,1205.9967,S,07701.4657,W,1,07,1.0,144.5,M,8.4,M,,0000*62,0
1778777953566736764,$GPGSA,M,3,05,21,17,14,24,30,11,,,,,,1.9,1.0,1.6*30,0
1778777953731731321,$GPRMC,165913.000,A,1205.9967,S,07701.4657,W,9.56,115.35,140526,,,A*63,0
1778777954445349829,$GPGGA,165914.000,1205.9978,S,07701.4630,W,1,07,1.0,145.7,M,8.4,M,,0000*69,0
1778777954566773138,$GPGSA,M,3,05,21,17,14,24,30,11,,,,,,1.9,1.0,1.6*30,0
1778777954727189568,$GPGSV,3,1,12,05,56,281,45,21,55,341,41,17,30,085,38,14,29,147,40*7F,0
1778777954887620739,$GPGSV,3,2,12,24,16,245,33,30,14,128,34,11,11,350,17,06,01,026,04*74,0
1778777955034283780,$GPGSV,3,3,12,44,42,284,45,28,59,150,,13,47,168,,26,45,137,*7F,0
1778777955199302507,$GPRMC,165914.000,A,1205.9978,S,07701.4630,W,9.03,115.92,140526,,,A*66,0
1778777955449102438,$GPGGA,165915.000,1205.9988,S,07701.4606,W,1,07,1.0,146.5,M,8.4,M,,0000*63,0
1778777955570623182,$GPGSA,M,3,05,21,17,14,24,30,11,,,,,,1.9,1.0,1.6*30,0
1778777955735656929,$GPRMC,165915.000,A,1205.9988,S,07701.4606,W,7.71,115.96,140526,,,A*62,0
1778777956455407672,$GPGGA,165916.000,1205.9997,S,07701.4588,W,1,07,1.0,147.1,M,8.4,M,,0000*6E,0
1778777956576865448,$GPGSA,M,3,05,21,17,14,24,30,11,,,,,,1.9,1.0,1.6*30,0
1778777956741901380,$GPRMC,165916.000,A,1205.9997,S,07701.4588,W,6.46,116.57,140526,,,A*61,0
1778777957449415969,$GPGGA,165917.000,1206.0004,S,07701.4574,W,1,07,0.9,147.4,M,8.4,M,,0000*68,0
1778777957570870540,$GPGSA,M,3,05,21,17,14,24,30,11,,,,,,1.9,0.9,1.6*38,0
1778777957735892934,$GPRMC,165917.000,A,1206.0004,S,07701.4574,W,4.37,118.76,140526,,,A*63,0
1778777958449678365,$GPGGA,165918.000,1206.0009,S,07701.4566,W,1,07,0.9,147.7,M,8.4,M,,0000*6A,0
1778777958571126232,$GPGSA,M,3,05,21,17,14,24,30,11,,,,,,1.9,0.9,1.6*38,0
1778777958736139199,$GPRMC,165918.000,A,1206.0009,S,07701.4566,W,1.90,118.97,140526,,,A*65,0
1778777959447211822,$GPGGA,165919.000,1206.0008,S,07701.4567,W,1,06,1.6,147.6,M,8.4,M,,0000*65,0
1778777959564108600,$GPGSA,M,3,05,21,17,14,24,30,,,,,,,3.4,1.6,2.9*35,0
1778777959724517436,$GPGSV,3,1,12,05,56,281,46,21,55,341,42,17,30,085,31,14,29,147,41*77,0
1778777959884948533,$GPGSV,3,2,12,24,16,245,24,30,14,128,39,11,11,350,17,13,47,168,44*76,0
1778777960031617742,$GPGSV,3,3,12,44,42,284,46,28,59,150,,26,45,137,,23,33,073,*77,0
1778777960196624356,$GPRMC,165919.000,A,1206.0008,S,07701.4567,W,0.02,118.97,140526,,,A*6E,0
1778777960447469032,$GPGGA,165920.000,1206.0008,S,07701.4567,W,1,06,1.6,147.6,M,8.4,M,,0000*6F,0
1778777960564352828,$GPGSA,M,3,05,21,17,14,24,30,,,,,,,3.4,1.6,2.9*35,1
1778777960729374110,$GPRMC,165920.000,A,1206.0008,S,07701.4567,W,0.01,118.97,140526,,,A*67,1
1778777961447114482,$GPGGA,165921.000,1206.0008,S,07701.4567,W,1,06,1.6,147.6,M,8.4,M,,0000*6E,1
1778777961563985072,$GPGSA,M,3,05,21,17,14,24,30,,,,,,,3.4,1.6,2.9*35,1
1778777961728989983,$GPRMC,165921.000,A,1206.0008,S,07701.4567,W,0.00,118.97,140526,,,A*67,1
1778777962447985823,$GPGGA,165922.000,1206.0008,S,07701.4567,W,1,06,1.6,147.6,M,8.4,M,,0000*6D,1
1778777962564862118,$GPGSA,M,3,05,21,17,14,24,30,,,,,,,3.4,1.6,2.9*35,1
1778777962729882122,$GPRMC,165922.000,A,1206.0008,S,07701.4567,W,0.00,118.97,140526,,,A*64,1
1778777963449083185,$GPGGA,165923.000,1206.0008,S,07701.4567,W,1,06,1.6,147.6,M,8.4,M,,0000*6C,1
1778777963565952961,$GPGSA,M,3,05,21,17,14,24,30,,,,,,,3.4,1.6,2.9*35,1
1778777963730971558,$GPRMC,165923.000,A,1206.0008,S,07701.4567,W,0.00,118.97,140526,,,A*65,1
1778777964449324487,$GPGGA,165924.000,1206.0008,S,07701.4567,W,1,06,1.6,147.6,M,8.4,M,,0000*6B,1
1778777964566217894,$GPGSA,M,3,05,21,17,14,24,30,,,,,,,3.4,1.6,2.9*35,1
1778777964726628304,$GPGSV,3,1,12,05,56,281,46,21,55,341,42,17,30,085,32,14,29,147,43*76,1
1778777964887049437,$GPGSV,3,2,12,24,16,245,25,30,14,128,40,13,47,168,45,44,42,284,47*73,1
1778777965029157852,$GPGSV,3,3,12,28,59,150,,26,45,137,,23,33,073,,16,27,147,*7D,1
1778777965194155299,$GPRMC,165924.000,A,1206.0008,S,07701.4567,W,0.00,118.97,140526,,,A*62,1
1778777965452085577,$GPGGA,165925.000,1206.0008,S,07701.4567,W,1,06,1.6,147.6,M,8.4,M,,0000*6A,1
1778777965569051602,$GPGSA,M,3,05,21,17,14,24,30,,,,,,,3.4,1.6,2.9*35,1
1778777965733983803,$GPRMC,165925.000,A,1206.0008,S,07701.4567,W,0.00,118.97,140526,,,A*63,1
1778777966450067243,$GPGGA,165926.000,1206.0009,S,07701.4565,W,1,06,1.6,147.8,M,8.4,M,,0000*64,1
1778777966566924091,$GPGSA,M,3,05,21,17,14,24,30,,,,,,,3.4,1.6,2.9*35,1
1778777966731940410,$GPRMC,165926.000,A,1206.0009,S,07701.4565,W,1.33,115.86,140526,,,A*6F,1
1778777967448641186,$GPGGA,165927.000,1206.0012,S,07701.4558,W,1,06,1.6,147.9,M,8.4,M,,0000*60,1
1778777967565530333,$GPGSA,M,3,05,21,17,14,24,30,,,,,,,3.4,1.6,2.9*35,1
1778777967730581248,$GPRMC,165927.000,A,1206.0012,S,07701.4558,W,4.31,116.53,140526,,,A*66,1
1778777968450774218,$GPGGA,165928.000,1206.0019,S,07701.4546,W,1,07,0.9,148.0,M,8.4,M,,0000*62,1
1778777968572238846,$GPGSA,M,3,05,21,17,14,24,30,11,,,,,,1.9,0.9,1.6*38,1
1778777968737244720,$GPRMC,165928.000,A,1206.0019,S,07701.4546,W,5.40,117.52,140526,,,A*6A,1
1778777969447489007,$GPGGA,165929.000,1206.0026,S,07701.4527,W,1,06,1.6,147.2,M,8.4,M,,0000*6A,1
1778777969564362690,$GPGSA,M,3,05,21,17,14,24,30,,,,,,,3.4,1.6,2.9*35,1
1778777969724789213,$GPGSV,3,1,12,05,56,281,46,21,55,341,42,17,30,085,32,14,29,147,37*75,1
1778777969885204679,$GPGSV,3,2,12,24,16,245,25,30,14,128,40,11,11,350,24,13,47,168,45*78,1
1778777970031879166,$GPGSV,3,3,12,44,42,284,47,28,59,150,,26,45,137,,23,33,073,*76,1
1778777970196903523,$GPRMC,165929.000,A,1206.0026,S,07701.4527,W,7.06,114.62,140526,,,A*60,1
1778777970449819150,$GPGGA,165930.000,1206.0038,S,07701.4503,W,1,07,0.9,146.8,M,8.4,M,,0000*6F,1
1778777970571282463,$GPGSA,M,3,05,21,17,14,24,30,11,,,,,,1.9,0.9,1.6*38,1
1778777970736305098,$GPRMC,165930.000,A,1206.0038,S,07701.4503,W,8.81,115.89,140526,,,A*65,1
1778777971450087602,$GPGGA,165931.000,1206.0049,S,07701.4476,W,1,07,0.9,146.1,M,8.4,M,,0000*62,1
1778777971571546581,$GPGSA,M,3,05,21,17,14,24,30,11,,,,,,1.9,0.9,1.6*38,1
1778777971738847779,$GPRMC,165931.000,A,1206.0049,S,07701.4476,W,10.39,116.02,140526,,,A*5B,1
1778777972446585908,$GPGGA,165932.000,1206.0062,S,07701.4446,W,1,07,0.9,146.1,M,8.4,M,,0000*6B,1
1778777972568049480,$GPGSA,M,3,05,21,17,14,24,30,11,,,,,,1.9,0.9,1.6*38,1
1778777972735339566,$GPRMC,165932.000,A,1206.0062,S,07701.4446,W,11.47,115.33,140526,,,A*5B,1
1778777973449337220,$GPGGA,165933.000,1206.0075,S,07701.4415,W,1,07,0.9,145.7,M,8.4,M,,0000*6F,1
1778777973570803700,$GPGSA,M,3,05,21,17,14,24,30,11,,,,,,1.9,0.9,1.6*38,1
1778777973738102472,$GPRMC,165933.000,A,1206.0075,S,07701.4415,W,11.57,115.03,140526,,,A*58,1
1778777974450017951,$GPGGA,165934.000,1206.0087,S,07701.4384,W,1,07,0.9,145.4,M,8.4,M,,0000*69,1
1778777974571484616,$GPGSA,M,3,05,21,17,14,24,30,11,,,,,,1.9,0.9,1.6*38,1
1778777974731896322,$GPGSV,3,1,12,05,56,281,46,21,55,341,37,17,30,085,40,14,29,147,43*71,1
1778777974892328957,$GPGSV,3,2,12,24,16,245,25,30,14,128,41,11,11,350,36,13,47,168,35*7D,1
1778777975039003925,$GPGSV,3,3,12,44,42,284,47,28,59,150,,26,45,137,,23,33,073,*76,1
1778777975206298363,$GPRMC,165934.000,A,1206.0087,S,07701.4384,W,10.74,114.74,140526,,,A*5C,1
1778777975450502867,$GPGGA,165935.000,1206.0099,S,07701.4355,W,1,07,0.9,145.2,M,8.4,M,,0000*6D,1
1778777975571947901,$GPGSA,M,3,05,21,17,14,24,30,11,,,,,,1.9,0.9,1.6*38,1
1778777975739249376,$GPRMC,165935.000,A,1206.0099,S,07701.4355,W,10.61,113.69,140526,,,A*51,1
1778777976451575838,$GPGGA,165936.000,1206.0110,S,07701.4326,W,1,07,0.9,145.1,M,8.4,M,,0000*69,1
