Unix_time,GPS_data,flagStop
1778778529505861493,$GPGGA,170849.000,1205.9926,S,07701.4547,W,1,07,0.9,145.1,M,8.4,M,,0000*62,0
1778778567130925393,$GPGSA,M,3,05,21,17,14,24,30,11,,,,,,1.9,0.9,1.7*39,0
1778778567131462240,$GPGSV,3,1,12,05,55,290,44,21,51,345,45,17,30,090,45,14,26,147,38*77,0
1778778567132164379,$GPGSV,3,2,12,24,17,241,37,30,13,124,29,11,10,354,23,13,49,163,40*78,0
1778778567132888224,$GPGSV,3,3,12,44,42,284,35,28,55,153,,26,47,131,,23,31,068,*70,0
1778778567133526024,$GPRMC,170849.000,A,1205.9926,S,07701.4547,W,0.01,289.29,140526,,,A*6E,0
1778778567134242109,$GPGGA,170850.000,1205.9926,S,07701.4547,W,1,07,0.9,145.1,M,8.4,M,,0000*6A,0
1778778567135000346,$GPGSA,M,3,05,21,17,14,24,30,11,,,,,,1.9,0.9,1.7*39,0
1778778567135527673,$GPRMC,170850.000,A,1205.9926,S,07701.4547,W,0.00,289.29,140526,,,A*67,0
1778778567136243850,$GPGGA,170851.000,1205.9926,S,07701.4547,W,1,07,0.9,145.0,M,8.4,M,,0000*6A,0
1778778567137012662,$GPGSA,M,3,05,21,17,14,24,30,11,,,,,,1.9,0.9,1.7*39,0
1778778567137539878,$GPRMC,170851.000,A,1205.9926,S,07701.4547,W,0.00,289.29,140526,,,A*66,0
1778778567138257593,$GPGGA,170852.000,1205.9926,S,07701.4547,W,1,07,0.9,145.0,M,8.4,M,,0000*69,0
1778778567139018348,$GPGSA,M,3,05,21,17,14,24,30,11,,,,,,1.9,0.9,1.7*39,0
1778778567139539138,$GPRMC,170852.000,A,1205.9926,S,07701.4547,W,0.00,289.29,140526,,,A*65,0
1778778567140243166,$GPGGA,170853.000,1205.9926,S,07701.4547,W,1,07,0.9,145.0,M,8.4,M,,0000*68,0
1778778567140994643,$GPGSA,M,3,05,21,17,14,24,30,11,,,,,,1.9,0.9,1.7*39,0
1778778567141511321,$GPRMC,170853.000,A,1205.9926,S,07701.4547,W,0.00,289.29,140526,,,A*64,0
1778778567142213460,$GPGGA,170854.000,1205.9926,S,07701.4547,W,1,07,0.9,145.0,M,8.4,M,,0000*6F,0
1778778567142954658,$GPGSA,M,3,05,21,17,14,24,30,11,,,,,,1.9,0.9,1.7*39,0
1778778567143469558,$GPGSV,3,1,12,05,55,290,43,21,51,345,45,17,30,090,45,14,26,147,41*7E,0
1778778567144150751,$GPGSV,3,2,12,24,17,241,37,30,13,124,31,11,10,354,23,13,49,163,41*70,0
1778778567144839241,$GPGSV,3,3,12,44,42,284,36,28,55,153,,26,47,131,,23,31,068,*73,0
1778778567145460465,$GPRMC,170854.000,A,1205.9926,S,07701.4547,W,0.00,289.29,140526,,,A*63,0
1778778567146160752,$GPGGA,170855.000,1205.9926,S,07701.4547,W,1,07,0.9,145.0,M,8.4,M,,0000*6E,0
1778778567146897284,$GPGSA,M,3,05,21,17,14,24,30,11,,,,,,1.9,0.9,1.7*39,0
1778778567147411442,$GPRMC,170855.000,A,1205.9926,S,07701.4547,W,0.00,289.29,140526,,,A*62,0
1778778567148107470,$GPGGA,170856.000,1205.9926,S,07701.4547,W,1,07,0.9,145.0,M,8.4,M,,0000*6D,0
1778778567148387126,$GPGSA,M,3,05,21,17,14,24,30,11,,,,,,1.9,0.9,1.7*39,0
1778778567148487783,$GPRMC,170856.000,A,1205.9926,S,07701.4547,W,0.00,289.29,140526,,,A*61,0
1778778567148623610,$GPGGA,170857.000,1205.9926,S,07701.4547,W,1,07,0.9,145.0,M,8.4,M,,0000*6C,0
1778778567148766364,$GPGSA,M,3,05,21,17,14,24,30,11,,,,,,1.9,0.9,1.7*39,0
1778778567148866244,$GPRMC,170857.000,A,1205.9926,S,07701.4547,W,0.00,289.29,140526,,,A*60,0
1778778567149001572,$GPGGA,170858.000,1205.9926,S,07701.4547,W,1,07,0.9,145.0,M,8.4,M,,0000*63,0
1778778567149144492,$GPGSA,M,3,05,21,17,14,24,30,11,,,,,,1.9,0.9,1.7*39,0
1778778567149244279,$GPRMC,170858.000,A,1205.9926,S,07701.4547,W,0.00,289.29,140526,,,A*6F,0
1778778567149379181,$GPGGA,170859.000,1205.9926,S,07701.4547,W,1,07,0.9,145.0,M,8.4,M,,0000*62,0
1778778567149521824,$GPGSA,M,3,05,21,17,14,24,30,11,,,,,,1.9,0.9,1.7*39,0
1778778567149621814,$GPGSV,3,1,12,05,55,290,42,21,51,345,45,17,30,090,45,14,26,147,41*7F,0
1778778567149753364,$GPGSV,3,2,12,24,17,241,37,30,13,124,31,11,10,354,22,13,49,163,41*71,0
1778778567149884672,$GPGSV,3,3,12,44,42,284,35,28,55,153,,26,47,131,,23,31,068,*70,0
1778778567150004905,$GPRMC,170859.000,A,1205.9926,S,07701.4547,W,0.00,289.29,140526,,,A*6E,0
1778778567150140196,$GPGGA,170900.000,1205.9926,S,07701.4547,W,1,07,0.9,145.0,M,8.4,M,,0000*6F,0
1778778567150282913,$GPGSA,M,3,05,21,17,14,24,30,11,,,,,,1.9,0.9,1.7*39,0
1778778567150382811,$GPRMC,170900.000,A,1205.9926,S,07701.4547,W,0.00,289.29,140526,,,A*63,0
1778778567150518064,$GPGGA,170901.000,1205.9926,S,07701.4547,W,1,07,0.9,145.0,M,8.4,M,,0000*6E,0
1778778567150660966,$GPGSA,M,3,05,21,17,14,24,30,11,,,,,,1.9,0.9,1.7*39,0
1778778567151692877,$GPRMC,170901.000,A,1205.9926,S,07701.4547,W,0.00,289.29,140526,,,A*62,0
1778778567152417518,$GPGGA,170902.000,1205.9926,S,07701.4547,W,1,07,0.9,145.0,M,8.4,M,,0000*6D,0
1778778567153163810,$GPGSA,M,3,05,21,17,14,24,30,11,,,,,,1.9,0.9,1.7*39,0
1778778567153683006,$GPRMC,170902.000,A,1205.9926,S,07701.4547,W,0.00,289.29,140526,,,A*61,0
1778778567154387220,$GPGGA,170903.000,1205.9926,S,07701.4547,W,1,07,0.9,145.0,M,8.4,M,,0000*6C,0
1778778567155132363,$GPGSA,M,3,05,21,17,14,24,30,11,,,,,,1.9,0.9,1.7*39,0
1778778567155651763,$GPRMC,170903.000,A,1205.9926,S,07701.4547,W,0.00,289.29,140526,,,A*60,0
1778778567156365144,$GPGGA,170904.000,1205.9926,S,07701.4547,W,1,07,0.9,145.1,M,8.4,M,,0000*6A,0
1778778567157110509,$GPGSA,M,3,05,21,17,14,24,30,11,,,,,,1.9,0.9,1.7*39,0
1778778567157628613,$GPGSV,3,1,12,05,55,290,42,21,51,345,45,17,30,090,45,14,26,147,41*7F,0
1778778567158312417,$GPGSV,3,2,12,24,17,241,37,30,13,124,31,11,10,354,28,13,49,163,42*78,0
1778778567159000703,$GPGSV,3,3,12,44,42,284,35,28,55,153,,26,47,131,,23,31,068,*70,0
1778778567159626002,$GPRMC,170904.000,A,1205.9926,S,07701.4547,W,0.00,289.29,140526,,,A*67,0
1778778567160337679,$GPGGA,170905.000,1205.9926,S,07701.4547,W,1,07,0.9,145.1,M,8.4,M,,0000*6B,0
1778778567161082249,$GPGSA,M,3,05,21,17,14,24,30,11,,,,,,1.9,0.9,1.7*39,0
1778778567161591148,$GPRMC,170905.000,A,1205.9926,S,07701.4547,W,0.00,289.29,140526,,,A*66,0
1778778567162281860,$GPGGA,170906.000,1205.9926,S,07701.4547,W,1,07,0.9,145.1,M,8.4,M,,0000*68,0
1778778567163011280,$GPGSA,M,3,05,21,17,14,24,30,11,,,,,,1.9,0.9,1.7*39,0
1778778567163518938,$GPRMC,170906.000,A,1205.9926,S,07701.4547,W,0.00,289.29,140526,,,A*65,0
1778778567164208557,$GPGGA,170907.000,1205.9926,S,07701.4546,W,1,07,0.9,144.7,M,8.4,M,,0000*6F,0
1778778567164942996,$GPGSA,M,3,05,21,17,14,24,30,11,,,,,,1.9,0.9,1.7*39,0
1778778567165448839,$GPRMC,170907.000,A,1205.9926,S,07701.4546,W,0.03,289.29,140526,,,A*66,0
1778778567166140237,$GPGGA,170908.000,1205.9926,S,07701.4546,W,1,07,0.9,144.7,M,8.4,M,,0000*60,0
1778778567166868638,$GPGSA,M,3,05,21,17,14,24,30,11,,,,,,1.9,0.9,1.7*39,0
1778778567167359350,$GPRMC,170908.000,A,1205.9926,S,07701.4546,W,0.00,289.29,140526,,,A*6A,0
1778778567168012355,$GPGGA,170909.000,1205.9926,S,07701.4545,W,1,07,0.9,144.6,M,8.4,M,,0000*63,0
1778778567168719958,$GPGSA,M,3,05,21,17,14,24,30,11,,,,,,1.9,0.9,1.7*39,0
1778778567169202428,$GPGSV,3,1,12,05,55,290,42,21,51,345,45,17,30,090,45,14,26,147,41*7F,0
1778778567169842247,$GPGSV,3,2,12,24,17,241,37,30,13,124,32,11,10,354,27,13,49,163,42*74,0
1778778567170482843,$GPGSV,3,3,12,44,42,284,35,28,55,153,,26,47,131,,23,31,068,*70,0
1778778567171065898,$GPRMC,170909.000,A,1205.9926,S,07701.4545,W,0.04,289.29,140526,,,A*6C,0
1778778567171244636,$GPGGA,170910.000,1205.9926,S,07701.4545,W,1,07,0.9,144.6,M,8.4,M,,0000*6B,0
1778778567171385798,$GPGSA,M,3,05,21,17,14,24,30,11,,,,,,1.9,0.9,1.7*39,0
1778778567171485140,$GPRMC,170910.000,A,1205.9926,S,07701.4545,W,0.00,289.29,140526,,,A*60,0
1778778567171620097,$GPGGA,170911.000,1205.9926,S,07701.4545,W,1,07,0.9,144.6,M,8.4,M,,0000*6A,0
1778778567171762833,$GPGSA,M,3,05,21,17,14,24,30,11,,,,,,1.9,0.9,1.7*39,0
1778778567171862435,$GPRMC,170911.000,A,1205.9926,S,07701.4545,W,0.00,289.29,140526,,,A*61,0
1778778567171997503,$GPGGA,170912.000,1205.9926,S,07701.4545,W,1,07,0.9,144.6,M,8.4,M,,0000*69,0
1778778567172140405,$GPGSA,M,3,05,21,17,14,24,30,11,,,,,,1.9,0.9,1.7*39,0
1778778567172240007,$GPRMC,170912.000,A,1205.9926,S,07701.4545,W,0.00,289.29,140526,,,A*62,0
1778778567172383020,$GPGGA,170913.000,1205.9926,S,07701.4545,W,1,07,0.9,144.6,M,8.4,M,,0000*68,0
1778778567172524792,$GPGSA,M,3,05,21,17,14,24,30,11,,,,,,1.9,0.9,1.7*39,0
1778778567172623616,$GPRMC,170913.000,A,1205.9926,S,07701.4545,W,0.00,289.29,140526,,,A*63,0
1778778567172757592,$GPGGA,170914.000,1205.9926,S,07701.4545,W,1,07,0.9,144.6,M,8.4,M,,0000*6F,0
1778778567172899716,$GPGSA,M,3,05,21,17,14,24,30,11,,,,,,1.9,0.9,1.7*39,0
1778778567172999114,$GPGSV,3,1,12,05,55,290,41,21,51,345,45,17,30,090,45,14,26,147,41*7C,0
1778778567173303161,$GPGSV,3,2,12,24,17,241,38,30,13,124,32,11,10,354,28,13,49,163,42*74,0
1778778567173434895,$GPGSV,3,3,12,44,42,284,36,28,55,153,,26,47,131,,23,31,068,*73,0
1778778567173555407,$GPRMC,170914.000,A,1205.9926,S,07701.4545,W,0.00,289.29,140526,,,A*64,0
1778778567173689475,$GPGGA,170915.000,1205.9925,S,07701.4545,W,1,07,0.9,144.2,M,8.4,M,,0000*69,0
1778778567173830951,$GPGSA,M,3,05,21,17,14,24,30,11,,,,,,1.9,0.9,1.7*39,0
1778778567173929867,$GPRMC,170915.000,A,1205.9925,S,07701.4545,W,0.05,289.29,140526,,,A*63,0
1778778567174063713,$GPGGA,170916.000,1205.9925,S,07701.4545,W,1,07,0.9,144.3,M,8.4,M,,0000*6B,0
1778778567174204504,$GPGSA,M,3,05,21,17,14,24,30,11,,,,,,1.9,0.9,1.7*39,0
1778778567174304106,$GPRMC,170916.000,A,1205.9925,S,07701.4545,W,0.00,289.29,140526,,,A*65,0
1778778567174439211,$GPGGA,170917.000,1205.9925,S,07701.4544,W,1,07,0.9,144.0,M,8.4,M,,0000*68,0
1778778567174580928,$GPGSA,M,3,05,21,17,14,24,30,11,,,,,,1.9,0.9,1.7*39,0
1778778567174679437,$GPRMC,170917.000,A,1205.9925,S,07701.4544,W,0.04,289.29,140526,,,A*61,0
1778778567174813653,$GPGGA,170918.000,1205.9925,S,07701.4544,W,1,07,0.9,144.0,M,8.4,M,,0000*67,0
1778778567174955296,$GPGSA,M,3,05,21,17,14,24,30,11,,,,,,1.9,0.9,1.7*39,0
1778778567175054323,$GPRMC,170918.000,A,1205.9925,S,07701.4544,W,0.00,289.29,140526,,,A*6A,0
1778778567175188336,$GPGGA,170919.000,1205.9925,S,07701.4544,W,1,07,0.9,144.0,M,8.4,M,,0000*66,0
1778778567175329812,$GPGSA,M,3,05,21,17,14,24,30,11,,,,,,1.9,0.9,1.7*39,0
1778778567175428747,$GPGSV,3,1,12,05,55,290,41,21,51,345,45,17,30,090,46,14,26,147,41*7F,0
1778778567175558963,$GPGSV,3,2,12,24,17,241,39,30,13,124,32,11,10,354,28,13,49,163,42*75,0
1778778567175689290,$GPGSV,3,3,12,44,42,284,36,28,55,153,,26,47,131,,23,31,068,*73,0
1778778567175808634,$GPRMC,170919.000,A,1205.9925,S,07701.4544,W,0.00,289.29,140526,,,A*6B,0
1778778567175942684,$GPGGA,170920.000,1205.9925,S,07701.4544,W,1,07,0.9,144.0,M,8.4,M,,0000*6C,0
1778778567176084271,$GPGSA,M,3,05,21,17,14,24,30,11,,,,,,1.9,0.9,1.7*39,0
1778778567176183947,$GPRMC,170920.000,A,1205.9925,S,07701.4544,W,0.00,289.29,140526,,,A*61,0
1778778567176329034,$GPGGA,170921.000,1205.9925,S,07701.4544,W,1,07,0.9,143.8,M,8.4,M,,0000*62,0
1778778567176471511,$GPGSA,M,3,05,21,17,14,24,30,11,,,,,,1.9,0.9,1.7*39,0
1778778567176570909,$GPRMC,170921.000,A,1205.9925,S,07701.4544,W,0.04,289.29,140526,,,A*64,0
1778778567176705884,$GPGGA,170922.000,1205.9925,S,07701.4544,W,1,07,0.9,143.8,M,8.4,M,,0000*61,0
1778778567176848064,$GPGSA,M,3,05,21,17,14,24,30,11,,,,,,1.9,0.9,1.7*39,0
1778778567176947666,$GPRMC,170922.000,A,1205.9925,S,07701.4544,W,0.00,289.29,140526,,,A*63,0
1778778567177082530,$GPGGA,170923.000,1205.9925,S,07701.4544,W,1,07,0.9,143.8,M,8.4,M,,0000*60,0
1778778567177224969,$GPGSA,M,3,05,21,17,14,24,30,11,,,,,,1.9,0.9,1.7*39,0
1778778567177324423,$GPRMC,170923.000,A,1205.9925,S,07701.4544,W,0.03,289.29,140526,,,A*61,0
1778778567177459565,$GPGGA,170924.000,1205.9925,S,07701.4544,W,1,07,0.9,143.8,M,8.4,M,,0000*67,0
1778778567177602078,$GPGSA,M,3,05,21,17,14,24,30,11,,,,,,1.9,0.9,1.7*39,0
1778778567177701662,$GPGSV,3,1,12,05,55,290,41,21,51,345,44,17,30,090,45,14,26,147,40*7C,0
1778778567177832915,$GPGSV,3,2,12,24,17,241,38,30,13,124,32,11,10,354,27,13,49,163,41*78,0
1778778567177964131,$GPGSV,3,3,12,44,42,284,35,28,55,153,,26,47,131,,23,31,068,*70,0
1778778567178084271,$GPRMC,170924.000,A,1205.9925,S,07701.4544,W,0.00,289.29,140526,,,A*65,0
1778778567178219043,$GPGGA,170925.000,1205.9925,S,07701.4543,W,1,07,0.9,143.8,M,8.4,M,,0000*61,0
1778778567178361742,$GPGSA,M,3,05,21,17,14,24,30,11,,,,,,1.9,0.9,1.7*39,0
1778778567178461918,$GPRMC,170925.000,A,1205.9925,S,07701.4543,W,0.04,289.29,140526,,,A*67,0
1778778567178596319,$GPGGA,170926.000,1205.9925,S,07701.4543,W,1,07,0.9,143.8,M,8.4,M,,0000*62,0
1778778567178739277,$GPGSA,M,3,05,21,17,14,24,30,11,,,,,,1.9,0.9,1.7*39,0
1778778567178841731,$GPRMC,170926.000,A,1205.9925,S,07701.4543,W,0.00,289.29,140526,,,A*60,0
1778778567510175119,$GPGGA,170927.000,1205.9925,S,07701.4543,W,1,07,0.9,143.8,M,8.4,M,,0000*63,0
1778778567631645748,$GPGSA,M,3,05,21,17,14,24,30,11,,,,,,1.9,0.9,1.7*39,0
1778778567796618082,$GPRMC,170927.000,A,1205.9925,S,07701.4543,W,0.05,289.29,140526,,,A*64,0
1778778568511034515,$GPGGA,170928.000,1205.9925,S,07701.4543,W,1,07,0.9,143.8,M,8.4,M,,0000*6C,0
1778778568632570761,$GPGSA,M,3,05,21,17,14,24,30,11,,,,,,1.9,0.9,1.7*39,0
1778778568797621453,$GPRMC,170928.000,A,1205.9925,S,07701.4543,W,0.00,289.29,140526,,,A*6E,0
1778778569514663446,$GPGGA,170929.000,1205.9925,S,07701.4543,W,1,07,0.9,143.8,M,8.4,M,,0000*6D,0
1778778569636129240,$GPGSA,M,3,05,21,17,14,24,30,11,,,,,,1.9,0.9,1.7*39,0
1778778569796566579,$GPGSV,3,1,12,05,55,292,42,21,50,346,44,17,30,091,46,14,24,147,41*7E,0
1778778569956970322,$GPGSV,3,2,12,24,17,240,38,30,12,123,33,11,10,355,27,13,50,162,41*76,0
1778778570103601101,$GPGSV,3,3,12,44,42,284,35,28,53,153,,26,47,129,,23,30,067,*71,0
1778778570268701594,$GPRMC,170929.000,A,1205.9925,S,07701.4543,W,0.00,289.29,140526,,,A*6F,0
1778778570514899154,$GPGGA,170930.000,1205.9925,S,07701.4543,W,1,07,0.9,143.8,M,8.4,M,,0000*65,0
1778778570636369393,$GPGSA,M,3,05,21,17,14,24,30,11,,,,,,1.9,0.9,1.7*39,0
1778778570801356765,$GPRMC,170930.000,A,1205.9925,S,07701.4543,W,0.00,289.29,140526,,,A*67,0
1778778571515597942,$GPGGA,170931.000,1205.9925,S,07701.4543,W,1,07,0.9,143.8,M,8.4,M,,0000*64,1
1778778571637043438,$GPGSA,M,3,05,21,17,14,24,30,11,,,,,,1.9,0.9,1.7*39,1
1778778571802031903,$GPRMC,170931.000,A,1205.9925,S,07701.4543,W,0.00,289.29,140526,,,A*66,1
1778778572511531399,$GPGGA,170932.000,1205.9925,S,07701.4543,W,1,07,0.9,143.7,M,8.4,M,,0000*68,1
1778778572632909352,$GPGSA,M,3,05,21,17,14,24,30,11,,,,,,1.9,0.9,1.7*39,1
1778778572797903114,$GPRMC,170932.000,A,1205.9925,S,07701.4543,W,0.05,289.29,140526,,,A*60,1
1778778573511766144,$GPGGA,170933.000,1205.9925,S,07701.4543,W,1,07,0.9,143.7,M,8.4,M,,0000*69,1
1778778573633208325,$GPGSA,M,3,05,21,17,14,24,30,11,,,,,,1.9,0.9,1.7*39,1
1778778573798203828,$GPRMC,170933.000,A,1205.9925,S,07701.4543,W,0.00,289.29,140526,,,A*64,1
1778778574512018205,$GPGGA,170934.000,1205.9925,S,07701.4543,W,1,07,0.9,143.7,M,8.4,M,,0000*6E,1
1778778574633452794,$GPGSA,M,3,05,21,17,14,24,30,11,,,,,,1.9,0.9,1.7*39,1
1778778574793859703,$GPGSV,3,1,12,05,55,292,42,21,50,346,44,17,30,091,46,14,24,147,41*7E,1
1778778574954307247,$GPGSV,3,2,12,24,17,240,38,30,12,123,33,11,10,355,27,13,50,162,42*75,1
1778778575100939711,$GPGSV,3,3,12,44,42,284,34,28,53,153,,26,47,129,,23,30,067,*70,1
1778778575265987237,$GPRMC,170934.000,A,1205.9925,S,07701.4543,W,0.00,289.29,140526,,,A*63,1
1778778575510373832,$GPGGA,170935.000,1205.9925,S,07701.4543,W,1,07,0.9,143.6,M,8.4,M,,0000*6E,1
1778778575631834459,$GPGSA,M,3,05,21,17,14,24,30,11,,,,,,1.9,0.9,1.7*39,1
1778778575796811108,$GPRMC,170935.000,A,1205.9925,S,07701.4543,W,0.04,289.29,140526,,,A*66,1
1778778576512052266,$GPGGA,170936.000,1205.9925,S,07701.4543,W,1,07,0.9,143.6,M,8.4,M,,0000*6D,1
1778778576633519469,$GPGSA,M,3,05,21,17,14,24,30,11,,,,,,1.9,0.9,1.7*39,1
1778778576798562420,$GPRMC,170936.000,A,1205.9925,S,07701.4543,W,0.00,289.29,140526,,,A*61,1
1778778577511281400,$GPGGA,170937.000,1205.9925,S,07701.4543,W,1,07,0.9,143.6,M,8.4,M,,0000*6C,1
1778778577632757232,$GPGSA,M,3,05,21,17,14,24,30,11,,,,,,1.9,0.9,1.7*39,1
1778778577797808518,$GPRMC,170937.000,A,1205.9925,S,07701.4543,W,0.05,289.29,140526,,,A*65,1
1778778578511989892,$GPGGA,170938.000,1205.9925,S,07701.4543,W,1,07,0.9,143.6,M,8.4,M,,0000*63,1
1778778578633428851,$GPGSA,M,3,05,21,17,14,24,30,11,,,,,,1.9,0.9,1.7*39,1
1778778578798421853,$GPRMC,170938.000,A,1205.9925,S,07701.4543,W,0.00,289.29,140526,,,A*6F,1
1778778579511760891,$GPGGA,170939.000,1205.9925,S,07701.4543,W,1,07,0.9,143.6,M,8.4,M,,0000*62,1
1778778579633255151,$GPGSA,M,3,05,21,17,14,24,30,11,,,,,,1.9,0.9,1.7*39,1
1778778579793663505,$GPGSV,3,1,12,05,55,292,42,21,50,346,44,17,30,091,46,14,24,147,40*7F,1
1778778579954119049,$GPGSV,3,2,12,24,17,240,37,30,12,123,34,11,10,355,26,13,50,162,42*7C,1
1778778580100780961,$GPGSV,3,3,12,44,42,284,34,28,53,153,,26,47,129,,23,30,067,*70,1
1778778580265780445,$GPRMC,170939.000,A,1205.9925,S,07701.4543,W,0.00,289.29,140526,,,A*6E,1
1778778580511883885,$GPGGA,170940.000,1205.9925,S,07701.4543,W,1,07,0.9,143.6,M,8.4,M,,0000*6C,1
1778778580633289414,$GPGSA,M,3,05,21,17,14,24,30,11,,,,,,1.9,0.9,1.7*39,1
1778778580798334662,$GPRMC,170940.000,A,1205.9925,S,07701.4543,W,0.00,289.29,140526,,,A*60,1
1778778581511264680,$GPGGA,170941.000,1205.9925,S,07701.4543,W,1,07,0.9,143.6,M,8.4,M,,0000*6D,1
1778778581632731567,$GPGSA,M,3,05,21,17,14,24,30,11,,,,,,1.9,0.9,1.7*39,1
1778778581797779223,$GPRMC,170941.000,A,1205.9925,S,07701.4543,W,0.00,289.29,140526,,,A*61,1
1778778582512374340,$GPGGA,170942.000,1205.9925,S,07701.4543,W,1,07,0.9,143.6,M,8.4,M,,0000*6E,0
1778778582633783963,$GPGSA,M,3,05,21,17,14,24,30,11,,,,,,1.9,0.9,1.7*39,0
1778778582798818506,$GPRMC,170942.000,A,1205.9925,S,07701.4543,W,0.00,289.29,140526,,,A*62,0
1778778583512991676,$GPGGA,170943.000,1205.9925,S,07701.4543,W,1,07,0.9,143.6,M,8.4,M,,0000*6F,0
1778778583634484973,$GPGSA,M,3,05,21,17,14,24,30,11,,,,,,1.9,0.9,1.7*39,0
1778778583799510849,$GPRMC,170943.000,A,1205.9925,S,07701.4543,W,0.00,289.29,140526,,,A*63,0
1778778584512437570,$GPGGA,170944.000,1205.9925,S,07701.4543,W,1,07,0.9,143.6,M,8.4,M,,0000*68,0
1778778584633892308,$GPGSA,M,3,05,21,17,14,24,30,11,,,,,,1.9,0.9,1.7*39,0
1778778584794350019,$GPGSV,3,1,12,05,55,292,42,21,50,346,44,17,30,091,46,14,24,147,40*7F,0
1778778584954777783,$GPGSV,3,2,12,24,17,240,37,30,12,123,34,11,10,355,26,13,50,162,41*7F,0
1778778585101441750,$GPGSV,3,3,12,44,42,284,35,28,53,153,,26,47,129,,23,30,067,*71,0
1778778585266419047,$GPRMC,170944.000,A,1205.9925,S,07701.4543,W,0.00,289.29,140526,,,A*64,0
1778778585514803624,$GPGGA,170945.000,1205.9924,S,07701.4545,W,1,07,0.9,143.6,M,8.4,M,,0000*6E,0
1778778585636268048,$GPGSA,M,3,05,21,17,14,24,30,11,,,,,,1.9,0.9,1.7*39,0
1778778585801293628,$GPRMC,170945.000,A,1205.9924,S,07701.4545,W,1.81,294.53,140526,,,A*6B,0
1778778586511931062,$GPGGA,170946.000,1205.9920,S,07701.4554,W,1,07,0.9,143.7,M,8.4,M,,0000*68,0
1778778586633385504,$GPGSA,M,3,05,21,17,14,24,30,11,,,,,,1.9,0.9,1.7*39,0
1778778586798367376,$GPRMC,170946.000,A,1205.9920,S,07701.4554,W,5.09,297.48,140526,,,A*61,0
1778778587510704931,$GPGGA,170947.000,1205.9911,S,07701.4570,W,1,07,0.9,143.8,M,8.4,M,,0000*62,0
1778778587632198821,$GPGSA,M,3,05,21,17,14,24,30,11,,,,,,1.9,0.9,1.7*39,0
1778778587797237216,$GPRMC,170947.000,A,1205.9911,S,07701.4570,W,7.59,298.82,140526,,,A*6A,0
1778778588512070466,$GPGGA,170948.000,1205.9900,S,07701.4589,W,1,07,0.9,144.0,M,8.4,M,,0000*64,0
1778778588633442178,$GPGSA,M,3,05,21,17,14,24,30,11,,,,,,1.9,0.9,1.7*39,0
1778778588798488444,$GPRMC,170948.000,A,1205.9900,S,07701.4589,W,7.82,300.90,140526,,,A*66,0
1778778589512446669,$GPGGA,170949.000,1205.9889,S,07701.4606,W,1,07,0.9,144.0,M,8.4,M,,0000*61,0
1778778589633899240,$GPGSA,M,3,05,21,17,14,24,30,11,,,,,,1.9,0.9,1.7*39,0
1778778589794343876,$GPGSV,3,1,12,05,55,292,43,21,50,346,44,17,30,091,43,14,24,147,35*79,0
1778778589954769546,$GPGSV,3,2,12,24,17,240,33,30,12,123,24,11,10,355,31,13,50,162,42*7F,0
1778778590101427458,$GPGSV,3,3,12,44,42,284,43,28,53,153,,26,47,129,,23,30,067,*70,0
1778778590266441832,$GPRMC,170949.000,A,1205.9889,S,07701.4606,W,6.48,303.52,140526,,,A*69,0
1778778590513127307,$GPGGA,170950.000,1205.9879,S,07701.4620,W,1,07,0.9,143.6,M,8.4,M,,0000*63,0
1778778590634580897,$GPGSA,M,3,05,21,17,14,24,30,11,,,,,,1.9,0.9,1.7*39,0
1778778590799592660,$GPRMC,170950.000,A,1205.9879,S,07701.4620,W,5.18,310.28,140526,,,A*63,0
1778778591514423836,$GPGGA,170951.000,1205.9869,S,07701.4630,W,1,07,0.9,143.6,M,8.4,M,,0000*62,0
1778778591635885556,$GPGSA,M,3,05,21,17,14,24,30,11,,,,,,1.9,0.9,1.7*39,0
1778778591800903672,$GPRMC,170951.000,A,1205.9869,S,07701.4630,W,4.73,318.83,140526,,,A*67,0
1778778592514052340,$GPGGA,170952.000,1205.9857,S,07701.4638,W,1,07,0.9,143.6,M,8.4,M,,0000*64,0
1778778592635524968,$GPGSA,M,3,05,21,17,14,24,30,11,,,,,,1.9,0.9,1.7*39,0
1778778592800514266,$GPRMC,170952.000,A,1205.9857,S,07701.4638,W,5.30,327.74,140526,,,A*63,0
1778778593514926403,$GPGGA,170953.000,1205.9841,S,07701.4643,W,1,07,0.9,143.6,M,8.4,M,,0000*6E,0
1778778593636403958,$GPGSA,M,3,05,21,17,14,24,30,11,,,,,,1.9,0.9,1.7*39,0
1778778593801441483,$GPRMC,170953.000,A,1205.9841,S,07701.4643,W,6.59,344.01,140526,,,A*62,0
1778778594512057842,$GPGGA,170954.000,1205.9820,S,07701.4643,W,1,07,0.9,143.5,M,8.4,M,,0000*6D,0
1778778594633523951,$GPGSA,M,3,05,21,17,14,24,30,11,,,,,,1.9,0.9,1.7*39,0
1778778594793950789,$GPGSV,3,1,12,05,55,292,42,21,50,346,44,17,30,091,39,14,24,147,34*74,0
1778778594954361440,$GPGSV,3,2,12,24,17,240,28,30,12,123,22,11,10,355,25,06,00,031,15*72,0
1778778595105621260,$GPGSV,3,3,12,13,50,162,35,44,42,284,41,28,53,153,,26,47,129,*75,0
1778778595266051468,$GPRMC,170954.000,A,1205.9820,S,07701.4643,W,8.07,3.59,140526,,,A*6A,0
1778778595515650584,$GPGGA,170955.000,1205.9796,S,07701.4635,W,1,07,0.9,143.5,M,8.4,M,,0000*6F,0
1778778595637143159,$GPGSA,M,3,05,21,17,14,24,30,11,,,,,,1.9,0.9,1.7*39,0
1778778595802185184,$GPRMC,170955.000,A,1205.9796,S,07701.4635,W,10.12,20.52,140526,,,A*6F,0
1778778596513609395,$GPGGA,170956.000,1205.9767,S,07701.4621,W,1,07,0.9,143.4,M,8.4,M,,0000*66,0
1778778596635081635,$GPGSA,M,3,05,21,17,14,24,30,11,,,,,,1.9,0.9,1.7*39,0
1778778596800077656,$GPRMC,170956.000,A,1205.9767,S,07701.4621,W,12.11,25.57,140526,,,A*66,0
1778778597520754782,$GPGGA,170957.000,1205.9733,S,07701.4604,W,1,07,0.9,143.5,M,8.4,M,,0000*60,0
1778778597642213261,$GPGSA,M,3,05,21,17,14,24,30,11,,,,,,1.9,0.9,1.7*39,0
1778778597807208856,$GPRMC,170957.000,A,1205.9733,S,07701.4604,W,14.26,25.86,140526,,,A*6F,0
1778778598515384636,$GPGGA,170958.000,1205.9695,S,07701.4584,W,1,07,0.9,144.0,M,8.4,M,,0000*6B,0
1778778598636866970,$GPGSA,M,3,05,21,17,14,24,30,11,,,,,,1.9,0.9,1.7*39,0
1778778598801915292,$GPRMC,170958.000,A,1205.9695,S,07701.4584,W,16.35,24.82,140526,,,A*63,0
1778778599512500703,$GPGGA,170959.000,1205.9649,S,07701.4562,W,1,07,0.9,144.1,M,8.4,M,,0000*62,0
1778778599633977943,$GPGSA,M,3,05,21,17,14,24,30,11,,,,,,1.9,0.9,1.7*39,0
1778778599794407189,$GPGSV,3,1,12,05,55,292,43,21,50,346,43,17,30,091,43,14,24,147,35*7E,0
1778778599954812895,$GPGSV,3,2,12,24,17,240,30,30,12,123,25,11,10,355,29,06,00,031,23*75,0
1778778600106067881,$GPGSV,3,3,12,13,50,162,32,44,42,284,42,28,53,153,,26,47,129,*71,0
1778778600271083570,$GPRMC,170959.000,A,1205.9649,S,07701.4562,W,18.49,25.25,140526,,,A*62,0
1778778600516951543,$GPGGA,171000.000,1205.9599,S,07701.4537,W,1,07,0.9,144.2,M,8.4,M,,0000*6B,0
1778778600638393058,$GPGSA,M,3,05,21,17,14,24,30,11,,,,,,1.9,0.9,1.7*39,0
1778778600803394320,$GPRMC,171000.000,A,1205.9599,S,07701.4537,W,20.61,25.36,140526,,,A*6B,0
1778778601515116781,$GPGGA,171001.000,1205.9544,S,07701.4509,W,1,07,0.9,145.0,M,8.4,M,,0000*64,0
1778778601636604597,$GPGSA,M,3,05,21,17,14,24,30,11,,,,,,1.9,0.9,1.7*39,0
1778778601801642603,$GPRMC,171001.000,A,1205.9544,S,07701.4509,W,21.90,25.79,140526,,,A*63,0
1778778602513699521,$GPGGA,171002.000,1205.9486,S,07701.4482,W,1,07,0.9,145.2,M,8.4,M,,0000*68,0
1778778602635148500,$GPGSA,M,3,05,21,17,14,24,30,11,,,,,,1.9,0.9,1.7*39,0
1778778602800167412,$GPRMC,171002.000,A,1205.9486,S,07701.4482,W,23.02,24.85,140526,,,A*66,0
1778778603515609255,$GPGGA,171003.000,1205.9425,S,07701.4453,W,1,07,0.9,145.4,M,8.4,M,,0000*6A,0
1778778603637086051,$GPGSA,M,3,05,21,17,14,24,30,11,,,,,,1.9,0.9,1.7*39,0
1778778603802122168,$GPRMC,171003.000,A,1205.9425,S,07701.4453,W,23.59,25.37,140526,,,A*64,0
1778778604515671577,$GPGGA,171004.000,1205.9364,S,07701.4423,W,1,07,0.9,145.8,M,8.4,M,,0000*64,0
1778778604637118463,$GPGSA,M,3,05,21,17,14,24,30,11,,,,,,1.9,0.9,1.7*39,0
1778778604797537577,$GPGSV,3,1,12,05,55,292,44,21,50,346,41,17,30,091,40,14,24,147,36*7B,0
1778778604957974027,$GPGSV,3,2,12,24,17,240,37,30,12,123,23,11,10,355,12,06,00,031,18*74,0
1778778605109225198,$GPGSV,3,3,12,13,50,162,32,44,42,284,38,28,53,153,,26,47,129,*7C,0
1778778605274232535,$GPRMC,171004.000,A,1205.9364,S,07701.4423,W,24.37,25.09,140526,,,A*64,0
1778778605512170549,$GPGGA,171005.000,1205.9302,S,07701.4393,W,1,06,1.8,145.8,M,8.4,M,,0000*68,0
1778778605629052141,$GPGSA,M,3,05,21,17,14,24,30,,,,,,,4.1,1.8,3.7*36,0
1778778605794051421,$GPRMC,171005.000,A,1205.9302,S,07701.4393,W,23.99,25.51,140526,,,A*67,0
1778778606513258077,$GPGGA,171006.000,1205.9240,S,07701.4365,W,1,07,0.9,145.9,M,8.4,M,,0000*65,0
1778778606634708500,$GPGSA,M,3,05,21,17,14,24,30,11,,,,,,1.9,0.9,1.7*39,0
1778778606799724560,$GPRMC,171006.000,A,1205.9240,S,07701.4365,W,24.12,25.19,140526,,,A*62,0
1778778607512685673,$GPGGA,171007.000,1205.9178,S,07701.4337,W,1,07,0.9,145.8,M,8.4,M,,0000*6A,0
1778778607634138985,$GPGSA,M,3,05,21,17,14,24,30,11,,,,,,1.9,0.9,1.7*39,0
1778778607799161805,$GPRMC,171007.000,A,1205.9178,S,07701.4337,W,23.22,25.45,140526,,,A*61,0
1778778608514190425,$GPGGA,171008.000,1205.9120,S,07701.4310,W,1,07,0.9,145.8,M,8.4,M,,0000*6D,0
1778778608635647182,$GPGSA,M,3,05,21,17,14,24,30,11,,,,,,1.9,0.9,1.7*39,0
1778778608800658760,$GPRMC,171008.000,A,1205.9120,S,07701.4310,W,22.02,25.32,140526,,,A*65,0
1778778609515267174,$GPGGA,171009.000,1205.9064,S,07701.4288,W,1,07,0.9,146.0,M,8.4,M,,0000*66,0
1778778609636735784,$GPGSA,M,3,05,21,17,14,24,30,11,,,,,,1.9,0.9,1.7*39,0
1778778609797149676,$GPGSV,3,1,12,05,55,292,44,21,50,346,42,17,30,091,43,14,24,147,32*7F,0
1778778609957626037,$GPGSV,3,2,12,24,17,240,36,30,12,123,21,11,10,355,20,06,00,031,22*7F,0
1778778610108846909,$GPGSV,3,3,12,13,50,162,14,44,42,284,38,28,53,153,,26,47,129,*78,0
1778778610273851338,$GPRMC,171009.000,A,1205.9064,S,07701.4288,W,20.89,25.12,140526,,,A*66,0
1778778610512616781,$GPGGA,171010.000,1205.9013,S,07701.4265,W,1,07,0.9,146.1,M,8.4,M,,0000*6C,0
1778778610634070371,$GPGSA,M,3,05,21,17,14,24,30,11,,,,,,1.9,0.9,1.7*39,0
1778778610799078319,$GPRMC,171010.000,A,1205.9013,S,07701.4265,W,19.46,25.26,140526,,,A*63,0
1778778611516820413,$GPGGA,171011.000,1205.8965,S,07701.4242,W,1,07,0.9,146.4,M,8.4,M,,0000*64,0
1778778611638279541,$GPGSA,M,3,05,21,17,14,24,30,11,,,,,,1.9,0.9,1.7*39,0
1778778611803287452,$GPRMC,171011.000,A,1205.8965,S,07701.4242,W,19.12,24.22,140526,,,A*6A,0
1778778612514154667,$GPGGA,171012.000,1205.8916,S,07701.4219,W,1,07,0.9,146.5,M,8.4,M,,0000*6C,0
1778778612635638723,$GPGSA,M,3,05,21,17,14,24,30,11,,,,,,1.9,0.9,1.7*39,0
1778778612800632892,$GPRMC,171012.000,A,1205.8916,S,07701.4219,W,18.84,25.00,140526,,,A*6C,0
1778778613512966891,$GPGGA,171013.000,1205.8868,S,07701.4200,W,1,07,0.9,146.7,M,8.4,M,,0000*6F,0
1778778613634411221,$GPGSA,M,3,05,21,17,14,24,30,11,,,,,,1.9,0.9,1.7*39,0
1778778613799430651,$GPRMC,171013.000,A,1205.8868,S,07701.4200,W,17.85,19.57,140526,,,A*6E,0
1778778614514729241,$GPGGA,171014.000,1205.8823,S,07701.4185,W,1,07,0.9,146.4,M,8.4,M,,0000*6A,0
1778778614636131456,$GPGSA,M,3,05,21,17,14,24,30,11,,,,,,1.9,0.9,1.7*39,0
1778778614796568554,$GPGSV,3,1,12,05,55,292,45,21,50,346,43,17,30,091,34,14,24,147,27*7B,0
1778778614956994706,$GPGSV,3,2,12,24,17,240,27,30,12,123,17,11,10,355,28,06,00,031,15*76,0
1778778615108238191,$GPGSV,3,3,12,13,50,162,29,44,42,284,43,28,53,153,,26,47,129,*7A,0
1778778615273247306,$GPRMC,171014.000,A,1205.8823,S,07701.4185,W,15.52,18.94,140526,,,A*6E,0
1778778615516806546,$GPGGA,171015.000,1205.8784,S,07701.4174,W,1,07,0.9,146.1,M,8.4,M,,0000*62,0
1778778615638268137,$GPGSA,M,3,05,21,17,14,24,30,11,,,,,,1.9,0.9,1.7*39,0
1778778615803285882,$GPRMC,171015.000,A,1205.8784,S,07701.4174,W,12.01,19.81,140526,,,A*67,0
1778778616514983304,$GPGGA,171016.000,1205.8755,S,07701.4165,W,1,06,1.8,146.1,M,8.4,M,,0000*6C,0
1778778616631863802,$GPGSA,M,3,05,21,17,14,24,30,,,,,,,4.1,1.8,3.7*36,0
1778778616794583631,$GPRMC,171016.000,A,1205.8755,S,07701.4165,W,9.40,19.08,140526,,,A*56,0
1778778617514203918,$GPGGA,171017.000,1205.8730,S,07701.4158,W,1,06,1.8,146.0,M,8.4,M,,0000*61,0
1778778617631070748,$GPGSA,M,3,05,21,17,14,24,30,,,,,,,4.1,1.8,3.7*36,0
1778778617793782946,$GPRMC,171017.000,A,1205.8730,S,07701.4158,W,8.39,19.74,140526,,,A*5E,0
1778778618514704465,$GPGGA,171018.000,1205.8709,S,07701.4151,W,1,06,1.8,145.9,M,8.4,M,,0000*67,0
1778778618631521514,$GPGSA,M,3,05,21,17,14,24,30,,,,,,,4.1,1.8,3.7*36,0
1778778618794260918,$GPRMC,171018.000,A,1205.8709,S,07701.4151,W,6.88,21.75,140526,,,A*5C,0
1778778619513995530,$GPGGA,171019.000,1205.8693,S,07701.4145,W,1,06,1.8,145.9,M,8.4,M,,0000*61,0
1778778619630758925,$GPGSA,M,3,05,21,17,14,24,30,,,,,,,4.1,1.8,3.7*36,0
1778778619791182003,$GPGSV,3,1,12,05,55,292,45,21,50,346,43,17,30,091,34,14,24,147,28*74,0
1778778619951596451,$GPGSV,3,2,12,24,17,240,36,30,12,123,25,13,50,162,37,44,42,284,41*74,0
1778778620093679160,$GPGSV,3,3,12,28,53,153,,26,47,129,,23,30,067,,16,22,147,*7A,0
1778778620256399617,$GPRMC,171019.000,A,1205.8693,S,07701.4145,W,5.95,20.18,140526,,,A*5F,0
1778778620510582048,$GPGGA,171020.000,1205.8684,S,07701.4135,W,1,06,1.8,146.1,M,8.4,M,,0000*61,0
1778778620627458157,$GPGSA,M,3,05,21,17,14,24,30,,,,,,,4.1,1.8,3.7*36,0
1778778620787889069,$GPRMC,171020.000,A,1205.8684,S,07701.4135,W,4.07,4.57,140526,,,A*63,0
1778778621515224572,$GPGGA,171021.000,1205.8679,S,07701.4132,W,1,06,1.8,146.1,M,8.4,M,,0000*65,0
1778778621632093607,$GPGSA,M,3,05,21,17,14,24,30,,,,,,,4.1,1.8,3.7*36,0
1778778621797108130,$GPRMC,171021.000,A,1205.8679,S,07701.4132,W,1.77,359.55,140526,,,A*6C,0
1778778622516314841,$GPGGA,171022.000,1205.8676,S,07701.4131,W,1,06,1.8,146.1,M,8.4,M,,0000*6A,0
1778778622633181320,$GPGSA,M,3,05,21,17,14,24,30,,,,,,,4.1,1.8,3.7*36,0
1778778622798196158,$GPRMC,171022.000,A,1205.8676,S,07701.4131,W,1.75,352.27,140526,,,A*6F,0
1778778623518036854,$GPGGA,171023.000,1205.8670,S,07701.4133,W,1,06,1.8,146.1,M,8.4,M,,0000*6F,0
1778778623634937188,$GPGSA,M,3,05,21,17,14,24,30,,,,,,,4.1,1.8,3.7*36,0
1778778623799907577,$GPRMC,171023.000,A,1205.8670,S,07701.4133,W,4.35,339.74,140526,,,A*60,0
1778778624515562440,$GPGGA,171024.000,1205.8657,S,07701.4143,W,1,06,1.8,146.0,M,8.4,M,,0000*6B,0
1778778624632438346,$GPGSA,M,3,05,21,17,14,24,30,,,,,,,4.1,1.8,3.7*36,0
1778778624792877611,$GPGSV,3,1,12,05,55,292,44,21,50,346,44,17,30,091,42,14,24,147,36*7C,0
1778778624953281094,$GPGSV,3,2,12,24,17,240,36,30,12,123,29,11,10,355,21,13,50,162,40*74,0
1778778625099956674,$GPGSV,3,3,12,44,42,284,42,28,53,153,,26,47,129,,23,30,067,*71,0
1778778625264973030,$GPRMC,171024.000,A,1205.8657,S,07701.4143,W,7.37,324.44,140526,,,A*6B,0
1778778625514151107,$GPGGA,171025.000,1205.8646,S,07701.4168,W,1,06,1.8,145.9,M,8.4,M,,0000*69,0
1778778625631039495,$GPGSA,M,3,05,21,17,14,24,30,,,,,,,4.1,1.8,3.7*36,0
1778778625798335581,$GPRMC,171025.000,A,1205.8646,S,07701.4168,W,11.09,297.80,140526,,,A*58,0
1778778626515663748,$GPGGA,171026.000,1205.8643,S,07701.4206,W,1,06,1.8,146.4,M,8.4,M,,0000*6A,0
1778778626632554433,$GPGSA,M,3,05,21,17,14,24,30,,,,,,,4.1,1.8,3.7*36,0
1778778626799842556,$GPRMC,171026.000,A,1205.8643,S,07701.4206,W,13.33,279.34,140526,,,A*51,0
1778778627515917013,$GPGGA,171027.000,1205.8640,S,07701.4245,W,1,06,1.8,147.0,M,8.4,M,,0000*6A,0
1778778627632794419,$GPGSA,M,3,05,21,17,14,24,30,,,,,,,4.1,1.8,3.7*36,0
1778778627800090394,$GPRMC,171027.000,A,1205.8640,S,07701.4245,W,13.75,276.50,140526,,,A*5B,0
1778778628517629711,$GPGGA,171028.000,1205.8637,S,07701.4287,W,1,06,1.8,147.5,M,8.4,M,,0000*6E,0
1778778628634499690,$GPGSA,M,3,05,21,17,14,24,30,,,,,,,4.1,1.8,3.7*36,0
1778778628801810185,$GPRMC,171028.000,A,1205.8637,S,07701.4287,W,15.20,276.25,140526,,,A*5E,0
1778778629515391504,$GPGGA,171029.000,1205.8633,S,07701.4331,W,1,06,1.8,148.0,M,8.4,M,,0000*6D,0
1778778629632273429,$GPGSA,M,3,05,21,17,14,24,30,,,,,,,4.1,1.8,3.7*36,0
1778778629792690710,$GPGSV,3,1,12,05,55,292,46,21,50,346,44,17,30,091,45,14,24,147,38*77,0
1778778629953113751,$GPGSV,3,2,12,24,17,240,27,30,12,123,30,06,00,031,14,13,50,162,34*7F,0
1778778630099786385,$GPGSV,3,3,12,44,42,284,47,28,53,153,,26,47,129,,23,30,067,*74,0
1778778630267079583,$GPRMC,171029.000,A,1205.8633,S,07701.4331,W,15.16,276.28,140526,,,A*5F,0
1778778630511675827,$GPGGA,171030.000,1205.8629,S,07701.4374,W,1,06,1.8,147.9,M,8.4,M,,0000*69,0
1778778630628556659,$GPGSA,M,3,05,21,17,14,24,30,,,,,,,4.1,1.8,3.7*36,0
1778778630795856079,$GPRMC,171030.000,A,1205.8629,S,07701.4374,W,14.51,275.38,140526,,,A*5D,0
1778778631516937038,$GPGGA,171031.000,1205.8626,S,07701.4413,W,1,06,1.8,147.8,M,8.4,M,,0000*60,0
1778778631633891192,$GPGSA,M,3,05,21,17,14,24,30,,,,,,,4.1,1.8,3.7*36,0
1778778631801111438,$GPRMC,171031.000,A,1205.8626,S,07701.4413,W,12.71,276.61,140526,,,A*5E,0
1778778632516145651,$GPGGA,171032.000,1205.8622,S,07701.4445,W,1,06,1.8,147.4,M,8.4,M,,0000*68,0
1778778632633030669,$GPGSA,M,3,05,21,17,14,24,30,,,,,,,4.1,1.8,3.7*36,0
1778778632800330811,$GPRMC,171032.000,A,1205.8622,S,07701.4445,W,10.03,277.38,140526,,,A*50,0
1778778633515576840,$GPGGA,171033.000,1205.8622,S,07701.4469,W,1,06,1.8,147.2,M,8.4,M,,0000*61,0
1778778633632453246,$GPGSA,M,3,05,21,17,14,24,30,,,,,,,4.1,1.8,3.7*36,0
1778778633797457768,$GPRMC,171033.000,A,1205.8622,S,07701.4469,W,7.33,276.78,140526,,,A*6F,0
1778778634515628698,$GPGGA,171034.000,1205.8622,S,07701.4488,W,1,06,1.8,147.0,M,8.4,M,,0000*6B,0
1778778634632502807,$GPGSA,M,3,05,21,17,14,24,30,,,,,,,4.1,1.8,3.7*36,0
1778778634792931497,$GPGSV,3,1,12,05,55,292,46,21,50,346,44,17,30,091,46,14,24,147,42*79,0
1778778634953354723,$GPGSV,3,2,12,24,17,240,20,30,12,123,41,13,50,162,22,44,42,284,46*72,0
1778778635095442876,$GPGSV,3,3,12,28,53,153,,26,47,129,,23,30,067,,16,22,147,*7A,0
1778778635260451176,$GPRMC,171034.000,A,1205.8622,S,07701.4488,W,6.52,276.87,140526,,,A*61,0
1778778635516494298,$GPGGA,171035.000,1205.8623,S,07701.4503,W,1,06,1.8,147.8,M,8.4,M,,0000*61,0
1778778635633378575,$GPGSA,M,3,05,21,17,14,24,30,,,,,,,4.1,1.8,3.7*36,0
1778778635798393227,$GPRMC,171035.000,A,1205.8623,S,07701.4503,W,4.46,276.47,140526,,,A*68,0
1778778636514258851,$GPGGA,171036.000,1205.8624,S,07701.4513,W,1,06,1.8,148.5,M,8.4,M,,0000*66,0
1778778636631145924,$GPGSA,M,3,05,21,17,14,24,30,,,,,,,4.1,1.8,3.7*36,0
1778778636796140778,$GPRMC,171036.000,A,1205.8624,S,07701.4513,W,3.08,274.85,140526,,,A*6C,0
1778778637517015941,$GPGGA,171037.000,1205.8625,S,07701.4522,W,1,06,1.8,149.3,M,8.4,M,,0000*63,0
1778778637633893125,$GPGSA,M,3,05,21,17,14,24,30,,,,,,,4.1,1.8,3.7*36,0
1778778637798913018,$GPRMC,171037.000,A,1205.8625,S,07701.4522,W,3.84,272.46,140526,,,A*63,0
1778778638519145214,$GPGGA,171038.000,1205.8629,S,07701.4535,W,1,06,1.8,150.3,M,8.4,M,,0000*6E,0
1778778638636028102,$GPGSA,M,3,05,21,17,14,24,30,,,,,,,4.1,1.8,3.7*36,0
1778778638801023326,$GPRMC,171038.000,A,1205.8629,S,07701.4535,W,6.52,259.65,140526,,,A*60,0
1778778639514612831,$GPGGA,171039.000,1205.8637,S,07701.4553,W,1,06,1.8,151.4,M,8.4,M,,0000*66,0
1778778639631496460,$GPGSA,M,3,05,21,17,14,24,30,,,,,,,4.1,1.8,3.7*36,0
1778778639791904203,$GPGSV,3,1,12,05,55,292,47,21,50,346,45,17,30,091,47,14,24,147,32*7F,0
1778778639952333504,$GPGSV,3,2,12,24,17,240,21,30,12,123,36,06,00,031,12,13,50,162,23*7F,0
1778778640099013010,$GPGSV,3,3,12,44,42,284,27,28,53,153,,26,47,129,,23,30,067,*72,0
1778778640264017680,$GPRMC,171039.000,A,1205.8637,S,07701.4553,W,7.57,248.90,140526,,,A*60,0
1778778640514242205,$GPGGA,171040.000,1205.8653,S,07701.4568,W,1,06,1.8,152.1,M,8.4,M,,0000*64,0
1778778640631114055,$GPGSA,M,3,05,21,17,14,24,30,,,,,,,4.1,1.8,3.7*36,0
1778778640796128133,$GPRMC,171040.000,A,1205.8653,S,07701.4568,W,7.90,227.91,140526,,,A*67,0
1778778641513688488,$GPGGA,171041.000,1205.8671,S,07701.4578,W,1,06,1.8,153.0,M,8.4,M,,0000*64,0
1778778641630560079,$GPGSA,M,3,05,21,17,14,24,30,,,,,,,4.1,1.8,3.7*36,0
1778778641795554840,$GPRMC,171041.000,A,1205.8671,S,07701.4578,W,8.44,215.58,140526,,,A*65,0
1778778642514547643,$GPGGA,171042.000,1205.8692,S,07701.4583,W,1,06,1.8,153.8,M,8.4,M,,0000*66,0
1778778642631441050,$GPGSA,M,3,05,21,17,14,24,30,,,,,,,4.1,1.8,3.7*36,0
1778778642796446295,$GPRMC,171042.000,A,1205.8692,S,07701.4583,W,8.84,207.66,140526,,,A*6D,0
1778778643515430115,$GPGGA,171043.000,1205.8716,S,07701.4586,W,1,06,1.8,153.7,M,8.4,M,,0000*60,0
1778778643632306391,$GPGSA,M,3,05,21,17,14,24,30,,,,,,,4.1,1.8,3.7*36,0
1778778643797309079,$GPRMC,171043.000,A,1205.8716,S,07701.4586,W,9.60,200.77,140526,,,A*68,0
1778778644518179297,$GPGGA,171044.000,1205.8743,S,07701.4595,W,1,06,1.8,153.4,M,8.4,M,,0000*66,0
1778778644635061055,$GPGSA,M,3,05,21,17,14,24,30,,,,,,,4.1,1.8,3.7*36,0
1778778644795489856,$GPGSV,3,1,12,05,55,292,26,21,50,346,45,17,30,091,34,14,24,147,31*7F,0
1778778644955910452,$GPGSV,3,2,12,24,17,240,27,30,12,123,26,11,10,355,16,13,50,162,23*7A,0
1778778645102578364,$GPGSV,3,3,12,44,42,284,25,28,53,153,,26,47,129,,23,30,067,*70,0
1778778645269878988,$GPRMC,171044.000,A,1205.8743,S,07701.4595,W,12.02,197.76,140526,,,A*5F,0
1778778645514073028,$GPGGA,171045.000,1205.8774,S,07701.4610,W,1,06,1.8,153.1,M,8.4,M,,0000*68,0
1778778645630931803,$GPGSA,M,3,05,21,17,14,24,30,,,,,,,4.1,1.8,3.7*36,0
1778778645798247150,$GPRMC,171045.000,A,1205.8774,S,07701.4610,W,12.18,193.36,140526,,,A*5F,0
1778778646515000541,$GPGGA,171046.000,1205.8815,S,07701.4633,W,1,06,1.8,153.2,M,8.4,M,,0000*61,0
1778778646631824109,$GPGSA,M,3,05,21,17,14,24,30,,,,,,,4.1,1.8,3.7*36,0
1778778646799118788,$GPRMC,171046.000,A,1205.8815,S,07701.4633,W,15.42,198.73,140526,,,A*57,0
1778778647514993431,$GPGGA,171047.000,1205.8867,S,07701.4671,W,1,06,1.8,153.6,M,8.4,M,,0000*67,0
1778778647631869911,$GPGSA,M,3,05,21,17,14,24,30,,,,,,,4.1,1.8,3.7*36,0
1778778647799176702,$GPRMC,171047.000,A,1205.8867,S,07701.4671,W,17.24,206.72,140526,,,A*52,0
1778778648514001618,$GPGGA,171048.000,1205.8924,S,07701.4706,W,1,06,1.8,153.1,M,8.4,M,,0000*68,0
1778778648630889117,$GPGSA,M,3,05,21,17,14,24,30,,,,,,,4.1,1.8,3.7*36,0
1778778648798180147,$GPRMC,171048.000,A,1205.8924,S,07701.4706,W,16.96,205.19,140526,,,A*5C,0
1778778649513626028,$GPGGA,171049.000,1205.8988,S,07701.4741,W,1,06,1.8,151.8,M,8.4,M,,0000*67,0
1778778649630496822,$GPGSA,M,3,05,21,17,14,24,30,,,,,,,4.1,1.8,3.7*36,0
1778778649790921011,$GPGSV,3,1,12,05,55,292,39,21,50,346,32,17,30,091,32,14,24,147,37*71,0
1778778649951354813,$GPGSV,3,2,12,24,17,240,40,30,12,123,26,11,10,355,21,44,42,284,29*7F,0
1778778650093450300,$GPGSV,3,3,12,28,53,153,,13,50,162,,26,47,129,,23,30,067,*7D,0
1778778650260742571,$GPRMC,171049.000,A,1205.8988,S,07701.4741,W,17.99,204.09,140526,,,A*56,0
1778778650513478886,$GPGGA,171050.000,1205.9050,S,07701.4770,W,1,06,1.8,150.0,M,8.4,M,,0000*69,0
1778778650630364959,$GPGSA,M,3,05,21,17,14,24,30,,,,,,,4.1,1.8,3.7*36,0
1778778650797655415,$GPRMC,171050.000,A,1205.9050,S,07701.4770,W,18.60,204.04,140526,,,A*55,0
1778778651516871035,$GPGGA,171051.000,1205.9114,S,07701.4806,W,1,06,1.8,148.9,M,8.4,M,,0000*67,0
1778778651633742718,$GPGSA,M,3,05,21,17,14,24,30,,,,,,,4.1,1.8,3.7*36,0
1778778651801032304,$GPRMC,171051.000,A,1205.9114,S,07701.4806,W,18.78,203.65,140526,,,A*52,0
1778778652518574695,$GPGGA,171052.000,1205.9166,S,07701.4831,W,1,06,1.8,147.1,M,8.4,M,,0000*62,0
1778778652635432950,$GPGSA,M,3,05,21,17,14,24,30,,,,,,,4.1,1.8,3.7*36,0
1778778652802751613,$GPRMC,171052.000,A,1205.9166,S,07701.4831,W,18.66,207.35,140526,,,A*5E,0
1778778653519236405,$GPGGA,171053.000,1205.9220,S,07701.4855,W,1,06,1.8,147.3,M,8.4,M,,0000*62,0
1778778653636106440,$GPGSA,M,3,05,21,17,14,24,30,,,,,,,4.1,1.8,3.7*36,0
1778778653803421936,$GPRMC,171053.000,A,1205.9220,S,07701.4855,W,19.64,206.09,140526,,,A*51,0
1778778654514696151,$GPGGA,171054.000,1205.9272,S,07701.4881,W,1,06,1.8,147.0,M,8.4,M,,0000*68,0
1778778654631591281,$GPGSA,M,3,05,21,17,14,24,30,,,,,,,4.1,1.8,3.7*36,0
1778778654792011433,$GPGSV,3,1,12,05,55,292,37,21,50,346,41,17,30,091,32,14,24,147,36*7A,0
1778778654952431474,$GPGSV,3,2,12,24,17,240,34,30,12,123,18,13,50,162,39,44,42,284,39*79,0
1778778655094497329,$GPGSV,3,3,12,28,53,153,,26,47,129,,23,30,067,,16,22,147,*7A,0
1778778655261813417,$GPRMC,171054.000,A,1205.9272,S,07701.4881,W,20.07,206.42,140526,,,A*58,0
1778778655514740268,$GPGGA,171055.000,1205.9328,S,07701.4905,W,1,06,1.8,147.4,M,8.4,M,,0000*6E,0
1778778655631623563,$GPGSA,M,3,05,21,17,14,24,30,,,,,,,4.1,1.8,3.7*36,0
1778778655798926483,$GPRMC,171055.000,A,1205.9328,S,07701.4905,W,19.05,206.94,140526,,,A*59,0
1778778656515004867,$GPGGA,171056.000,1205.9380,S,07701.4924,W,1,06,1.8,147.4,M,8.4,M,,0000*6C,0
1778778656631956576,$GPGSA,M,3,05,21,17,14,24,30,,,,,,,4.1,1.8,3.7*36,0
1778778656799184619,$GPRMC,171056.000,A,1205.9380,S,07701.4924,W,18.64,206.44,140526,,,A*50,0
1778778657514421963,$GPGGA,171057.000,1205.9425,S,07701.4944,W,1,06,1.8,147.2,M,8.4,M,,0000*65,0
1778778657631286237,$GPGSA,M,3,05,21,17,14,24,30,,,,,,,4.1,1.8,3.7*36,0
1778778657798605048,$GPRMC,171057.000,A,1205.9425,S,07701.4944,W,17.57,205.04,140526,,,A*57,0
1778778658514679858,$GPGGA,171058.000,1205.9468,S,07701.4961,W,1,06,1.8,147.1,M,8.4,M,,0000*67,0
1778778658631574784,$GPGSA,M,3,05,21,17,14,24,30,,,,,,,4.1,1.8,3.7*36,0
1778778658798868703,$GPRMC,171058.000,A,1205.9468,S,07701.4961,W,16.23,202.87,140526,,,A*58,0
1778778659513055264,$GPGGA,171059.000,1205.9507,S,07701.4979,W,1,05,3.1,147.2,M,8.4,M,,0000*6C,0
1778778659625347151,$GPGSA,M,3,05,21,17,24,30,,,,,,,,6.5,3.1,5.7*38,0
1778778659785780712,$GPGSV,3,1,12,05,55,292,40,21,50,346,38,17,30,091,24,24,17,240,14*74,0
1778778659941629365,$GPGSV,3,2,12,30,12,123,18,13,50,162,25,44,42,284,31,28,53,153,*76,0
1778778660083706777,$GPGSV,3,3,12,26,47,129,,23,30,067,,14,24,147,,16,22,147,*70,0
1778778660251017198,$GPRMC,171059.000,A,1205.9507,S,07701.4979,W,14.20,204.74,140526,,,A*53,0
1778778660500612147,$GPGGA,171100.000,1205.9543,S,07701.4996,W,0,00,,147.2,M,8.4,M,,0000*48,0
1778778660569358140,$GPGSA,M,1,,,,,,,,,,,,,,,*12,0
1778778660711445090,$GPRMC,171100.000,V,1205.9543,S,07701.4996,W,,,140526,,,N*75,0
1778778661513988908,$GPGGA,171101.000,1205.9570,S,07701.5008,W,1,05,1.2,147.4,M,8.4,M,,0000*69,0
1778778661626295704,$GPGSA,M,3,05,21,17,24,11,,,,,,,,2.2,1.2,1.8*32,0
1778778661793586161,$GPRMC,171101.000,A,1205.9570,S,07701.5008,W,10.50,204.41,140526,,,A*54,0
1778778662516536238,$GPGGA,171102.083,1205.9594,S,07701.5012,W,1,06,1.0,147.6,M,8.4,M,,0000*63,0
1778778662633412514,$GPGSA,M,3,05,21,17,14,24,11,,,,,,,2.0,1.0,1.8*37,0
1778778662798518601,$GPRMC,171102.083,A,1205.9594,S,07701.5012,W,7.62,200.42,140526,,,A*6D,0
1778778663515136998,$GPGGA,171103.000,1205.9602,S,07701.5011,W,1,06,1.0,148.0,M,8.4,M,,0000*6F,0
1778778663631994162,$GPGSA,M,3,05,21,17,14,24,11,,,,,,,2.0,1.0,1.8*37,0
1778778663797020852,$GPRMC,171103.000,A,1205.9602,S,07701.5011,W,4.04,195.20,140526,,,A*60,0
1778778664518095996,$GPGGA,171104.000,1205.9614,S,07701.5013,W,1,07,0.9,148.4,M,8.4,M,,0000*60,0
1778778664639548790,$GPGSA,M,3,05,21,17,14,24,30,11,,,,,,1.9,0.9,1.7*39,0
1778778664799989295,$GPGSV,3,1,12,05,55,292,37,21,50,346,36,17,30,091,17,14,24,147,30*7B,0
1778778664960391112,$GPGSV,3,2,12,24,17,240,15,30,12,123,13,11,10,355,26,13,50,162,25*78,0
1778778665107068210,$GPGSV,3,3,12,44,42,284,37,28,53,153,,26,47,129,,23,30,067,*73,0
1778778665272082400,$GPRMC,171104.000,A,1205.9614,S,07701.5013,W,3.97,197.61,140526,,,A*68,0
1778778665517126667,$GPGGA,171105.000,1205.9635,S,07701.5017,W,1,07,0.9,148.5,M,8.4,M,,0000*67,0
1778778665638563218,$GPGSA,M,3,05,21,17,14,24,30,11,,,,,,1.9,0.9,1.7*39,0
1778778665803575315,$GPRMC,171105.000,A,1205.9635,S,07701.5017,W,6.70,200.75,140526,,,A*6A,0
1778778666518015139,$GPGGA,171106.000,1205.9657,S,07701.5027,W,1,07,0.9,148.0,M,8.4,M,,0000*66,0
1778778666639440319,$GPGSA,M,3,05,21,17,14,24,30,11,,,,,,1.9,0.9,1.7*39,0
1778778666804451082,$GPRMC,171106.000,A,1205.9657,S,07701.5027,W,6.73,201.39,140526,,,A*64,0
1778778667521987490,$GPGGA,171107.000,1205.9672,S,07701.5041,W,1,07,0.9,147.9,M,8.4,M,,0000*66,0
1778778667643440914,$GPGSA,M,3,05,21,17,14,24,30,11,,,,,,1.9,0.9,1.7*39,0
1778778667808464363,$GPRMC,171107.000,A,1205.9672,S,07701.5041,W,6.33,205.17,140526,,,A*6E,0
1778778668518068165,$GPGGA,171108.000,1205.9687,S,07701.5052,W,1,07,0.9,147.1,M,8.4,M,,0000*69,0
1778778668639532663,$GPGSA,M,3,05,21,17,14,24,30,11,,,,,,1.9,0.9,1.7*39,0
1778778668804538055,$GPRMC,171108.000,A,1205.9687,S,07701.5052,W,6.70,208.46,140526,,,A*67,0
1778778669521463981,$GPGGA,171109.000,1205.9704,S,07701.5064,W,1,07,0.9,145.5,M,8.4,M,,0000*61,0
1778778669642920960,$GPGSA,M,3,05,21,17,14,24,30,11,,,,,,1.9,0.9,1.7*39,0
1778778669803344760,$GPGSV,3,1,12,05,55,292,44,21,50,346,43,17,30,091,40,14,24,147,34*7B,0
1778778669963769116,$GPGSV,3,2,12,24,17,240,17,30,12,123,25,11,10,355,35,13,50,162,21*79,0
1778778670110436306,$GPGSV,3,3,12,44,42,284,40,28,53,153,,26,47,129,,23,30,067,*73,0
1778778670275447440,$GPRMC,171109.000,A,1205.9704,S,07701.5064,W,7.30,199.70,140526,,,A*62,0
1778778670522957769,$GPGGA,171110.000,1205.9722,S,07701.5071,W,1,07,0.9,144.2,M,8.4,M,,0000*6F,0
1778778670644422971,$GPGSA,M,3,05,21,17,14,24,30,11,,,,,,1.9,0.9,1.7*39,0
1778778670809427215,$GPRMC,171110.000,A,1205.9722,S,07701.5071,W,7.36,196.74,140526,,,A*67,0
1778778671521969234,$GPGGA,171111.000,1205.9736,S,07701.5074,W,1,07,0.9,144.0,M,8.4,M,,0000*6C,0
1778778671643421194,$GPGSA,M,3,05,21,17,14,24,30,11,,,,,,1.9,0.9,1.7*39,0
1778778671808447292,$GPRMC,171111.000,A,1205.9736,S,07701.5074,W,6.07,190.88,140526,,,A*60,0
1778778672526604980,$GPGGA,171112.000,1205.9751,S,07701.5070,W,1,07,0.9,143.8,M,8.4,M,,0000*65,0
1778778672648054107,$GPGSA,M,3,05,21,17,14,24,30,11,,,,,,1.9,0.9,1.7*39,0
1778778672813064666,$GPRMC,171112.000,A,1205.9751,S,07701.5070,W,5.97,173.77,140526,,,A*61,0
1778778673516858095,$GPGGA,171113.000,1205.9766,S,07701.5058,W,1,07,0.9,143.6,M,8.4,M,,0000*64,0
1778778673638321741,$GPGSA,M,3,05,21,17,14,24,30,11,,,,,,1.9,0.9,1.7*39,0
1778778673803325207,$GPRMC,171113.000,A,1205.9766,S,07701.5058,W,7.42,146.80,140526,,,A*6A,0
1778778674519601499,$GPGGA,171114.000,1205.9781,S,07701.5038,W,1,07,0.9,143.0,M,8.4,M,,0000*6A,0
1778778674641067460,$GPGSA,M,3,05,21,17,14,24,30,11,,,,,,1.9,0.9,1.7*39,0
1778778674801502558,$GPGSV,3,1,12,05,55,292,41,21,50,346,30,17,30,091,33,14,24,147,41*7C,0
1778778674961929636,$GPGSV,3,2,12,24,17,240,18,30,12,123,35,11,10,355,38,13,50,162,28*73,0
1778778675108599493,$GPGSV,3,3,12,44,42,284,39,28,53,153,,26,47,129,,23,30,067,*7D,0
1778778675273602440,$GPRMC,171114.000,A,1205.9781,S,07701.5038,W,9.17,126.25,140526,,,A*65,0
1778778675519290230,$GPGGA,171115.000,1205.9794,S,07701.5010,W,1,07,0.9,142.8,M,8.4,M,,0000*6C,0
1778778675640699705,$GPGSA,M,3,05,21,17,14,24,30,11,,,,,,1.9,0.9,1.7*39,0
1778778675807993161,$GPRMC,171115.000,A,1205.9794,S,07701.5010,W,10.87,116.69,140526,,,A*50,0
1778778676522624078,$GPGGA,171116.000,1205.9809,S,07701.4976,W,1,07,0.9,142.9,M,8.4,M,,0000*6D,0
1778778676644077890,$GPGSA,M,3,05,21,17,14,24,30,11,,,,,,1.9,0.9,1.7*39,0
1778778676811391256,$GPRMC,171116.000,A,1205.9809,S,07701.4976,W,12.99,115.60,140526,,,A*57,0
1778778677522041266,$GPGGA,171117.000,1205.9825,S,07701.4936,W,1,07,0.9,143.5,M,8.4,M,,0000*6B,0
1778778677643511412,$GPGSA,M,3,05,21,17,14,24,30,11,,,,,,1.9,0.9,1.7*39,0
1778778677810839150,$GPRMC,171117.000,A,1205.9825,S,07701.4936,W,15.23,113.07,140526,,,A*5D,0
1778778678519369278,$GPGGA,171118.000,1205.9842,S,07701.4892,W,1,07,0.9,143.3,M,8.4,M,,0000*6C,0
1778778678640840684,$GPGSA,M,3,05,21,17,14,24,30,11,,,,,,1.9,0.9,1.7*39,0
1778778678808131103,$GPRMC,171118.000,A,1205.9842,S,07701.4892,W,16.83,110.87,140526,,,A*5E,0
1778778679523173632,$GPGGA,171119.000,1205.9859,S,07701.4843,W,1,07,0.9,143.4,M,8.4,M,,0000*6C,0
1778778679644638408,$GPGSA,M,3,05,21,17,14,24,30,11,,,,,,1.9,0.9,1.7*39,0
1778778679805053930,$GPGSV,3,1,12,05,55,292,44,21,50,346,37,17,30,091,34,14,24,147,41*79,0
1778778679965509603,$GPGSV,3,2,12,24,17,240,28,30,12,123,37,11,10,355,16,06,00,031,18*7B,0
1778778680116756052,$GPGSV,3,3,12,13,50,162,35,44,42,284,46,28,53,153,,26,47,129,*72,0
1778778680284038915,$GPRMC,171119.000,A,1205.9859,S,07701.4843,W,18.02,108.20,140526,,,A*5A,0
1778778680523018674,$GPGGA,171120.000,1205.9877,S,07701.4796,W,1,07,0.9,144.1,M,8.4,M,,0000*6F,0
1778778680644469579,$GPGSA,M,3,05,21,17,14,24,30,11,,,,,,1.9,0.9,1.7*39,0
1778778680811842746,$GPRMC,171120.000,A,1205.9877,S,07701.4796,W,16.00,113.67,140526,,,A*5E,0
1778778681522267606,$GPGGA,171121.000,1205.9895,S,07701.4757,W,1,07,0.9,144.8,M,8.4,M,,0000*66,0
1778778681643692823,$GPGSA,M,3,05,21,17,14,24,30,11,,,,,,1.9,0.9,1.7*39,0
1778778681810992409,$GPRMC,171121.000,A,1205.9895,S,07701.4757,W,13.26,117.50,140526,,,A*5F,0
1778778682528117613,$GPGGA,171122.000,1205.9912,S,07701.4723,W,1,07,0.9,145.9,M,8.4,M,,0000*68,0
1778778682649580629,$GPGSA,M,3,05,21,17,14,24,30,11,,,,,,1.9,0.9,1.7*39,0
1778778682816869771,$GPRMC,171122.000,A,1205.9912,S,07701.4723,W,12.01,123.12,140526,,,A*54,0
1778778683517121389,$GPGGA,171123.000,1205.9929,S,07701.4694,W,1,06,1.8,146.4,M,8.4,M,,0000*63,0
1778778683634003999,$GPGSA,M,3,05,21,17,14,24,30,,,,,,,4.1,1.8,3.7*36,0
1778778683801306753,$GPRMC,171123.000,A,1205.9929,S,07701.4694,W,11.10,123.27,140526,,,A*55,0
1778778684521331485,$GPGGA,171124.000,1205.9945,S,07701.4669,W,1,06,1.8,146.1,M,8.4,M,,0000*69,0
1778778684638213965,$GPGSA,M,3,05,21,17,14,24,30,,,,,,,4.1,1.8,3.7*36,0
1778778684798632950,$GPGSV,3,1,12,05,55,292,45,21,50,346,37,17,30,091,39,14,24,147,41*75,0
1778778684959053232,$GPGSV,3,2,12,24,17,240,34,30,12,123,37,13,50,162,32,44,42,284,44*75,0
1778778685101145793,$GPGSV,3,3,12,28,53,153,,26,47,129,,23,30,067,,16,22,147,*7A,0
1778778685268440324,$GPRMC,171124.000,A,1205.9945,S,07701.4669,W,10.67,120.51,140526,,,A*59,0
1778778685521210438,$GPGGA,171125.000,1205.9960,S,07701.4644,W,1,06,1.8,145.8,M,8.4,M,,0000*6A,0
1778778685638048729,$GPGSA,M,3,05,21,17,14,24,30,,,,,,,4.1,1.8,3.7*36,0
1778778685805347334,$GPRMC,171125.000,A,1205.9960,S,07701.4644,W,10.02,119.00,140526,,,A*5D,0
1778778686517675981,$GPGGA,171126.000,1205.9971,S,07701.4622,W,1,06,1.8,145.7,M,8.4,M,,0000*66,0
1778778686634552979,$GPGSA,M,3,05,21,17,14,24,30,,,,,,,4.1,1.8,3.7*36,0
1778778686799566706,$GPRMC,171126.000,A,1205.9971,S,07701.4622,W,8.20,117.31,140526,,,A*6B,0
1778778687522096448,$GPGGA,171127.000,1205.9981,S,07701.4603,W,1,06,1.8,145.2,M,8.4,M,,0000*6E,0
1778778687638983651,$GPGSA,M,3,05,21,17,14,24,30,,,,,,,4.2,1.8,3.7*35,0
1778778687803991581,$GPRMC,171127.000,A,1205.9981,S,07701.4603,W,7.26,118.28,140526,,,A*68,0
1778778688526521175,$GPGGA,171128.000,1205.9990,S,07701.4586,W,1,07,0.9,145.0,M,8.4,M,,0000*6C,0
1778778688647985414,$GPGSA,M,3,05,21,17,14,24,30,11,,,,,,1.9,0.9,1.7*39,0
1778778688813012030,$GPRMC,171128.000,A,1205.9990,S,07701.4586,W,6.50,118.61,140526,,,A*64,0
1778778689525536492,$GPGGA,171129.000,1205.9998,S,07701.4572,W,1,07,0.9,145.0,M,8.4,M,,0000*6E,0
1778778689646986655,$GPGSA,M,3,05,21,17,14,24,30,11,,,,,,1.9,0.9,1.7*39,0
1778778689807408807,$GPGSV,3,1,12,05,55,292,46,21,50,346,43,17,30,091,33,14,24,147,37*7E,0
1778778689967836960,$GPGSV,3,2,12,24,17,240,24,30,12,123,37,11,10,355,24,13,50,162,42*7F,0
1778778690114521596,$GPGSV,3,3,12,44,42,284,44,28,53,153,,26,47,129,,23,30,067,*77,0
1778778690279513894,$GPRMC,171129.000,A,1205.9998,S,07701.4572,W,5.11,117.57,140526,,,A*6A,0
1778778690520780922,$GPGGA,171130.000,1206.0003,S,07701.4563,W,1,06,1.6,145.1,M,8.4,M,,0000*69,0
1778778690637669292,$GPGSA,M,3,05,21,17,14,30,11,,,,,,,2.7,1.6,2.1*39,0
1778778690802670517,$GPRMC,171130.000,A,1206.0003,S,07701.4563,W,2.50,118.00,140526,,,A*6C,0
1778778691518965884,$GPGGA,171131.000,1206.0004,S,07701.4560,W,1,06,1.6,145.0,M,8.4,M,,0000*6D,0
1778778691635836252,$GPGSA,M,3,05,21,17,14,30,11,,,,,,,2.7,1.6,2.1*39,0
1778778691800848219,$GPRMC,171131.000,A,1206.0004,S,07701.4560,W,0.44,118.00,140526,,,A*6E,0
1778778692524001464,$GPGGA,171132.000,1206.0004,S,07701.4560,W,1,06,1.6,144.8,M,8.4,M,,0000*67,0
1778778692640879258,$GPGSA,M,3,05,21,17,14,30,11,,,,,,,2.7,1.6,2.1*39,0
1778778692805888151,$GPRMC,171132.000,A,1206.0004,S,07701.4560,W,0.02,118.00,140526,,,A*6F,1
1778778693524930125,$GPGGA,171133.000,1206.0004,S,07701.4560,W,1,06,1.6,144.8,M,8.4,M,,0000*66,1
1778778693641762916,$GPGSA,M,3,05,21,17,14,30,11,,,,,,,2.7,1.6,2.1*39,1
1778778693806771030,$GPRMC,171133.000,A,1206.0004,S,07701.4560,W,0.00,118.00,140526,,,A*6C,1
1778778694527841933,$GPGGA,171134.000,1206.0004,S,07701.4560,W,1,07,0.9,144.8,M,8.4,M,,0000*6E,1
1778778694649312766,$GPGSA,M,3,05,21,17,14,24,30,11,,,,,,1.9,0.9,1.7*39,1
1778778694809736603,$GPGSV,3,1,12,05,55,292,46,21,50,346,43,17,30,091,34,14,24,147,45*7C,1
1778778694970160162,$GPGSV,3,2,12,24,17,240,19,30,12,123,38,11,10,355,32,13,50,162,42*79,1
1778778695116816925,$GPGSV,3,3,12,44,42,284,44,28,53,153,,26,47,129,,23,30,067,*77,1
1778778695281833208,$GPRMC,171134.000,A,1206.0004,S,07701.4560,W,0.00,118.00,140526,,,A*6B,1
1778778695527276123,$GPGGA,171135.000,1206.0004,S,07701.4560,W,1,07,0.9,144.8,M,8.4,M,,0000*6F,1
1778778695648732343,$GPGSA,M,3,05,21,17,14,24,30,11,,,,,,1.9,0.9,1.7*39,1
1778778695813745310,$GPRMC,171135.000,A,1206.0004,S,07701.4560,W,0.00,118.00,140526,,,A*6A,1
1778778696527940963,$GPGGA,171136.000,1206.0004,S,07701.4560,W,1,07,0.9,144.8,M,8.4,M,,0000*6C,1
1778778696649407814,$GPGSA,M,3,05,21,17,14,24,30,11,,,,,,1.9,0.9,1.7*39,1
1778778696814420336,$GPRMC,171136.000,A,1206.0004,S,07701.4560,W,0.00,118.00,140526,,,A*69,1
1778778697526114943,$GPGGA,171137.000,1206.0004,S,07701.4560,W,1,07,0.9,144.8,M,8.4,M,,0000*6D,1
1778778697647572367,$GPGSA,M,3,05,21,17,14,24,30,11,,,,,,1.9,0.9,1.7*39,1
1778778697812585963,$GPRMC,171137.000,A,1206.0004,S,07701.4560,W,0.00,118.00,140526,,,A*68,1
1778778698526790470,$GPGGA,171138.000,1206.0004,S,07701.4560,W,1,07,0.9,144.8,M,8.4,M,,0000*62,1
1778778698648244226,$GPGSA,M,3,05,21,17,14,24,30,11,,,,,,1.9,0.9,1.7*39,1
1778778698813247433,$GPRMC,171138.000,A,1206.0004,S,07701.4560,W,0.00,118.00,140526,,,A*67,1
1778778699526633734,$GPGGA,171139.000,1206.0004,S,07701.4560,W,1,07,0.9,144.8,M,8.4,M,,0000*63,1
1778778699648084139,$GPGSA,M,3,05,21,17,14,24,30,11,,,,,,1.9,0.9,1.7*39,1
1778778699808517625,$GPGSV,3,1,12,05,55,292,46,21,50,346,43,17,30,091,35,14,24,147,45*7D,1
1778778699968940888,$GPGSV,3,2,12,24,17,240,21,30,12,123,39,11,10,355,30,13,50,162,42*71,1
1778778700115614486,$GPGSV,3,3,12,44,42,284,47,28,53,153,,26,47,129,,23,30,067,*74,1
1778778700280614470,$GPRMC,171139.000,A,1206.0004,S,07701.4560,W,0.00,118.00,140526,,,A*66,1
1778778700526880943,$GPGGA,171140.000,1206.0004,S,07701.4560,W,1,07,0.9,144.8,M,8.4,M,,0000*6D,1
1778778700648339348,$GPGSA,M,3,05,21,17,14,24,30,11,,,,,,1.9,0.9,1.7*39,1
1778778700813341148,$GPRMC,171140.000,A,1206.0004,S,07701.4560,W,0.00,118.00,140526,,,A*68,1
1778778701528394122,$GPGGA,171141.000,1206.0004,S,07701.4560,W,1,07,0.9,144.8,M,8.4,M,,0000*6C,1
1778778701649898717,$GPGSA,M,3,05,21,17,14,24,30,11,,,,,,1.9,0.9,1.7*39,1
1778778701814856456,$GPRMC,171141.000,A,1206.0004,S,07701.4560,W,0.00,118.00,140526,,,A*69,1
1778778702526358434,$GPGGA,171142.000,1206.0004,S,07701.4560,W,1,07,0.9,144.8,M,8.4,M,,0000*6F,1
1778778702647800967,$GPGSA,M,3,05,21,17,14,24,30,11,,,,,,1.9,0.9,1.7*39,1
1778778702812827510,$GPRMC,171142.000,A,1206.0004,S,07701.4560,W,0.00,118.00,140526,,,A*6A,1
1778778703526818885,$GPGGA,171143.000,1206.0004,S,07701.4560,W,1,07,0.9,144.8,M,8.4,M,,0000*6E,1
1778778703648275920,$GPGSA,M,3,05,21,17,14,24,30,11,,,,,,1.9,0.9,1.7*39,1
1778778703813288961,$GPRMC,171143.000,A,1206.0004,S,07701.4560,W,0.00,118.00,140526,,,A*6B,1
1778778704526236351,$GPGGA,171144.000,1206.0004,S,07701.4560,W,1,07,0.9,144.8,M,8.4,M,,0000*69,1
1778778704647686644,$GPGSA,M,3,05,21,17,14,24,30,11,,,,,,1.9,0.9,1.7*39,1
1778778704808354726,$GPGSV,3,1,12,05,55,292,47,21,50,346,43,17,30,091,35,14,24,147,45*7C,1
1778778704968540356,$GPGSV,3,2,12,24,17,240,23,30,12,123,40,11,10,355,25,13,50,162,42*79,1
1778778705115212084,$GPGSV,3,3,12,44,42,284,47,28,53,153,,26,47,129,,23,30,067,*74,1
1778778705280226106,$GPRMC,171144.000,A,1206.0004,S,07701.4560,W,0.00,118.00,140526,,,A*6C,1
1778778705526907136,$GPGGA,171145.000,1206.0004,S,07701.4560,W,1,07,0.9,144.8,M,8.4,M,,0000*68,1
1778778705648376487,$GPGSA,M,3,05,21,17,14,24,30,11,,,,,,1.9,0.9,1.7*39,1
1778778705813392417,$GPRMC,171145.000,A,1206.0004,S,07701.4560,W,0.00,118.00,140526,,,A*6D,1
1778778706527397720,$GPGGA,171146.000,1206.0004,S,07701.4560,W,1,07,0.9,144.8,M,8.4,M,,0000*6B,1
1778778706648825845,$GPGSA,M,3,05,21,17,14,24,30,11,,,,,,1.9,0.9,1.7*39,1
1778778706813846201,$GPRMC,171146.000,A,1206.0004,S,07701.4560,W,0.00,118.00,140526,,,A*6E,1
1778778707524922195,$GPGGA,171147.000,1206.0004,S,07701.4560,W,1,06,1.6,144.7,M,8.4,M,,0000*6A,1
1778778707641795545,$GPGSA,M,3,05,21,17,14,30,11,,,,,,,2.7,1.6,2.1*39,1
1778778707806813031,$GPRMC,171147.000,A,1206.0004,S,07701.4560,W,0.00,118.00,140526,,,A*6F,1
1778778708521637576,$GPGGA,171148.000,1206.0004,S,07701.4560,W,1,06,1.6,144.7,M,8.4,M,,0000*65,1
1778778708638597990,$GPGSA,M,3,05,21,17,14,30,11,,,,,,,2.7,1.6,2.1*39,1
1778778708803514318,$GPRMC,171148.000,A,1206.0004,S,07701.4560,W,0.00,118.00,140526,,,A*60,1
1778778709524815872,$GPGGA,171149.000,1206.0004,S,07701.4560,W,1,06,1.6,144.7,M,8.4,M,,0000*64,1
1778778709641694612,$GPGSA,M,3,05,21,17,14,30,11,,,,,,,2.7,1.6,2.1*39,1
1778778709802150915,$GPGSV,3,1,12,05,55,292,47,21,50,346,44,17,30,091,34,14,24,147,45*7A,1
1778778709962566381,$GPGSV,3,2,12,30,12,123,40,11,10,355,26,13,50,162,42,24,17,240,22*7B,1
1778778710109201586,$GPGSV,3,3,12,44,42,284,47,28,53,153,,26,47,129,,23,30,067,*74,1
1778778710274225758,$GPRMC,171149.000,A,1206.0004,S,07701.4560,W,0.00,118.00,140526,,,A*61,1
1778778710528171518,$GPGGA,171150.000,1206.0004,S,07701.4560,W,1,07,0.9,144.7,M,8.4,M,,0000*63,1
1778778710649633979,$GPGSA,M,3,05,21,17,14,24,30,11,,,,,,1.9,0.9,1.7*39,1
1778778710814652132,$GPRMC,171150.000,A,1206.0004,S,07701.4560,W,0.00,118.00,140526,,,A*69,1
1778778711527847434,$GPGGA,171151.000,1206.0004,S,07701.4560,W,1,07,0.9,144.8,M,8.4,M,,0000*6D,1
1778778711649332064,$GPGSA,M,3,05,21,17,14,24,30,11,,,,,,1.9,0.9,1.7*39,1
1778778711814288044,$GPRMC,171151.000,A,1206.0004,S,07701.4560,W,0.00,118.00,140526,,,A*68,1
1778778712527661584,$GPGGA,171152.000,1206.0004,S,07701.4560,W,1,07,0.9,144.8,M,8.4,M,,0000*6E,1
1778778712649118415,$GPGSA,M,3,05,21,17,14,24,30,11,,,,,,1.9,0.9,1.7*39,1
1778778712814132142,$GPRMC,171152.000,A,1206.0004,S,07701.4560,W,0.00,118.00,140526,,,A*6B,1
1778778713528124536,$GPGGA,171153.000,1206.0004,S,07701.4560,W,1,07,0.9,144.7,M,8.4,M,,0000*60,1
1778778713649583052,$GPGSA,M,3,05,21,17,14,24,30,11,,,,,,1.9,0.9,1.7*39,1
1778778713814597778,$GPRMC,171153.000,A,1206.0004,S,07701.4560,W,0.00,118.00,140526,,,A*6A,1
1778778714533373357,$GPGGA,171154.000,1206.0004,S,07701.4560,W,1,07,0.9,144.7,M,8.4,M,,0000*67,1
1778778714654833837,$GPGSA,M,3,05,21,17,14,24,30,11,,,,,,1.9,0.9,1.7*39,1
1778778714815256804,$GPGSV,3,1,12,05,55,292,47,21,50,346,43,17,30,091,33,14,24,147,45*7A,1
1778778714975684197,$GPGSV,3,2,12,24,17,240,22,30,12,123,39,11,10,355,28,06,00,031,22*7B,1
1778778715126943109,$GPGSV,3,3,12,13,50,162,42,44,42,284,47,28,53,153,,26,47,129,*73,1
1778778715291963707,$GPRMC,171154.000,A,1206.0004,S,07701.4560,W,0.00,118.00,140526,,,A*6D,1
1778778715525084107,$GPGGA,171155.000,1206.0004,S,07701.4560,W,1,07,0.9,144.7,M,8.4,M,,0000*66,1
1778778715646552736,$GPGSA,M,3,05,21,17,14,24,30,11,,,,,,1.9,0.9,1.7*39,1
1778778715811558128,$GPRMC,171155.000,A,1206.0004,S,07701.4560,W,0.00,118.00,140526,,,A*6C,1
1778778716525346133,$GPGGA,171156.000,1206.0004,S,07701.4560,W,1,07,0.9,144.7,M,8.4,M,,0000*65,1
1778778716646797611,$GPGSA,M,3,05,21,17,14,24,30,11,,,,,,1.9,0.9,1.7*39,1
1778778716811824858,$GPRMC,171156.000,A,1206.0004,S,07701.4560,W,0.00,118.00,140526,,,A*6F,1
1778778717528926540,$GPGGA,171157.000,1206.0003,S,07701.4561,W,1,07,0.9,144.6,M,8.4,M,,0000*63,1
1778778717650410170,$GPGSA,M,3,05,21,17,14,24,30,11,,,,,,1.9,0.9,1.7*39,1
1778778717815405061,$GPRMC,171157.000,A,1206.0003,S,07701.4561,W,0.03,118.00,140526,,,A*6B,1
