Unix_time,GPS_data,flagStop
1778778015572617210,$GPGSA,M,3,05,21,17,14,24,30,11,,,,,,1.9,0.9,1.6*38,0
1778778087584457794,$GPRMC,170015.000,A,1205.9932,S,07701.4543,W,0.00,287.00,140526,,,A*6A,0
1778778087585239070,$GPGGA,170016.000,1205.9932,S,07701.4543,W,1,07,0.9,144.6,M,8.4,M,,0000*67,0
1778778087586080370,$GPGSA,M,3,05,21,17,14,24,30,11,,,,,,1.9,0.9,1.6*38,0
1778778087586655387,$GPRMC,170016.000,A,1205.9932,S,07701.4543,W,0.00,287.00,140526,,,A*69,0
1778778087587417661,$GPGGA,170017.000,1205.9932,S,07701.4543,W,1,07,0.9,144.6,M,8.4,M,,0000*66,0
1778778087588158063,$GPGSA,M,3,05,21,17,14,24,30,11,,,,,,1.9,0.9,1.6*38,0
1778778087588367416,$GPRMC,170017.000,A,1205.9932,S,07701.4543,W,0.00,287.00,140526,,,A*68,0
1778778087589110781,$GPGGA,170018.000,1205.9932,S,07701.4543,W,1,07,0.9,144.6,M,8.4,M,,0000*69,0
1778778087589888205,$GPGSA,M,3,05,21,17,14,24,30,11,,,,,,1.9,0.9,1.6*38,0
1778778087590391882,$GPRMC,170018.000,A,1205.9932,S,07701.4543,W,0.00,287.00,140526,,,A*67,0
1778778087591099059,$GPGGA,170019.000,1205.9932,S,07701.4543,W,1,07,0.9,144.5,M,8.4,M,,0000*6B,0
1778778087591876575,$GPGSA,M,3,05,21,17,14,24,30,11,,,,,,1.9,0.9,1.6*38,0
1778778087592427812,$GPGSV,3,1,12,05,56,281,37,21,55,341,45,17,30,085,46,14,29,147,36*76,0
1778778087592998309,$GPGSV,3,2,12,24,16,245,40,30,14,128,32,11,11,350,21,13,47,168,36*7F,0
1778778087593714561,$GPGSV,3,3,12,44,42,284,32,28,59,150,,26,45,137,,23,33,073,*74,0
1778778087594366881,$GPRMC,170019.000,A,1205.9932,S,07701.4543,W,0.00,287.00,140526,,,A*66,0
1778778087595102412,$GPGGA,170020.000,1205.9932,S,07701.4543,W,1,07,0.9,144.5,M,8.4,M,,0000*61,0
1778778087595878206,$GPGSA,M,3,05,21,17,14,24,30,11,,,,,,1.9,0.9,1.6*38,0
1778778087596463483,$GPRMC,170020.000,A,1205.9932,S,07701.4543,W,0.00,287.00,140526,,,A*6C,0
1778778087597220497,$GPGGA,170021.000,1205.9932,S,07701.4543,W,1,07,0.9,144.5,M,8.4,M,,0000*60,0
1778778087597941490,$GPGSA,M,3,05,21,17,14,24,30,11,,,,,,1.9,0.9,1.6*38,0
1778778087598496912,$GPRMC,170021.000,A,1205.9932,S,07701.4543,W,0.00,287.00,140526,,,A*6D,0
1778778087599250649,$GPGGA,170022.000,1205.9932,S,07701.4543,W,1,07,0.9,144.5,M,8.4,M,,0000*63,0
1778778087599962159,$GPGSA,M,3,05,21,17,14,24,30,11,,,,,,1.9,0.9,1.6*38,0
1778778087600529453,$GPRMC,170022.000,A,1205.9932,S,07701.4543,W,0.00,287.00,140526,,,A*6E,0
1778778087601279096,$GPGGA,170023.000,1205.9932,S,07701.4543,W,1,07,0.9,144.5,M,8.4,M,,0000*62,0
1778778087601934972,$GPGSA,M,3,05,21,17,14,24,30,11,,,,,,1.9,0.9,1.6*38,0
1778778087602487986,$GPRMC,170023.000,A,1205.9932,S,07701.4543,W,0.00,287.00,140526,,,A*6F,0
1778778087603236500,$GPGGA,170024.000,1205.9932,S,07701.4543,W,1,07,0.9,144.5,M,8.4,M,,0000*65,0
1778778087604052539,$GPGSA,M,3,05,21,17,14,24,30,11,,,,,,1.9,0.9,1.6*38,0
1778778087604614573,$GPGSV,3,1,12,05,56,284,36,21,54,343,44,17,30,086,47,14,28,147,35*70,0
1778778087605344048,$GPGSV,3,2,12,24,16,243,40,30,14,127,31,11,11,351,20,13,47,167,35*79,0
1778778087606075004,$GPGSV,3,3,12,44,42,284,33,28,58,151,,26,46,135,,23,32,071,*77,0
1778778087606741307,$GPRMC,170024.000,A,1205.9932,S,07701.4543,W,0.00,287.00,140526,,,A*68,0
1778778087607489580,$GPGGA,170025.000,1205.9932,S,07701.4543,W,1,07,0.9,144.5,M,8.4,M,,0000*64,0
1778778087608290321,$GPGSA,M,3,05,21,17,14,24,30,11,,,,,,1.9,0.9,1.6*38,0
1778778087608856355,$GPRMC,170025.000,A,1205.9932,S,07701.4543,W,0.00,287.00,140526,,,A*69,0
1778778087609594183,$GPGGA,170026.000,1205.9932,S,07701.4543,W,1,07,0.9,144.5,M,8.4,M,,0000*67,0
1778778087610362958,$GPGSA,M,3,05,21,17,14,24,30,11,,,,,,1.9,0.9,1.6*38,0
1778778087610900527,$GPRMC,170026.000,A,1205.9932,S,07701.4543,W,0.00,287.00,140526,,,A*6A,0
1778778087611579627,$GPGGA,170027.000,1205.9932,S,07701.4543,W,1,07,0.9,144.5,M,8.4,M,,0000*66,0
1778778087612358551,$GPGSA,M,3,05,21,17,14,24,30,11,,,,,,1.9,0.9,1.6*38,0
1778778087612895953,$GPRMC,170027.000,A,1205.9932,S,07701.4543,W,0.00,287.00,140526,,,A*6B,0
1778778087613622038,$GPGGA,170028.000,1205.9932,S,07701.4543,W,1,07,0.9,144.5,M,8.4,M,,0000*69,0
1778778087614408167,$GPGSA,M,3,05,21,17,14,24,30,11,,,,,,1.9,0.9,1.6*38,0
1778778087614945532,$GPRMC,170028.000,A,1205.9932,S,07701.4543,W,0.00,287.00,140526,,,A*64,0
1778778087615762533,$GPGGA,170029.000,1205.9930,S,07701.4544,W,1,07,0.9,144.2,M,8.4,M,,0000*6A,0
1778778087616558774,$GPGSA,M,3,05,21,17,14,24,30,11,,,,,,1.9,0.9,1.6*38,0
1778778087617094083,$GPGSV,3,1,12,05,56,284,37,21,54,343,43,17,30,086,47,14,28,147,35*76,0
1778778087617799574,$GPGSV,3,2,12,24,16,243,40,30,14,127,32,11,11,351,20,13,47,167,35*7A,0
1778778087618458487,$GPGSV,3,3,12,44,42,284,33,28,58,151,,26,46,135,,23,32,071,*77,0
1778778087618579239,$GPRMC,170029.000,A,1205.9930,S,07701.4544,W,0.07,287.00,140526,,,A*67,0
1778778087618714363,$GPGGA,170030.000,1205.9930,S,07701.4544,W,1,07,0.9,144.2,M,8.4,M,,0000*62,0
1778778087618857358,$GPGSA,M,3,05,21,17,14,24,30,11,,,,,,1.9,0.9,1.6*38,0
1778778087618957182,$GPRMC,170030.000,A,1205.9930,S,07701.4544,W,0.01,287.00,140526,,,A*69,0
1778778087619092843,$GPGGA,170031.000,1205.9930,S,07701.4544,W,1,07,0.9,144.1,M,8.4,M,,0000*60,0
1778778087619235634,$GPGSA,M,3,05,21,17,14,24,30,11,,,,,,1.9,0.9,1.6*38,0
1778778087619335606,$GPRMC,170031.000,A,1205.9930,S,07701.4544,W,0.00,287.00,140526,,,A*69,0
1778778087619471081,$GPGGA,170032.000,1205.9930,S,07701.4544,W,1,06,1.7,144.1,M,8.4,M,,0000*6D,0
1778778087619614243,$GPGSA,M,3,05,21,17,14,24,30,,,,,,,3.4,1.7,3.0*3C,0
1778778087619710381,$GPRMC,170032.000,A,1205.9930,S,07701.4544,W,0.00,287.00,140526,,,A*6A,0
1778778087619845968,$GPGGA,170033.000,1205.9930,S,07701.4544,W,1,06,1.7,144.1,M,8.4,M,,0000*6C,0
1778778087619988629,$GPGSA,M,3,05,21,17,14,24,30,,,,,,,3.4,1.7,3.0*3C,0
1778778087620084916,$GPRMC,170033.000,A,1205.9930,S,07701.4544,W,0.00,287.00,140526,,,A*6B,0
1778778087620220336,$GPGGA,170034.000,1205.9930,S,07701.4544,W,1,06,1.7,144.1,M,8.4,M,,0000*6B,0
1778778087620408539,$GPGSA,M,3,05,21,17,14,24,30,,,,,,,3.4,1.7,3.0*3C,0
1778778087620512863,$GPGSV,3,1,12,05,56,284,36,21,54,343,43,17,30,086,47,14,28,147,35*77,0
1778778087620655265,$GPGSV,3,2,12,24,16,243,39,30,14,127,31,11,11,351,04,13,47,167,35*71,0
1778778087620799501,$GPGSV,3,3,12,44,42,284,32,28,58,151,,26,46,135,,23,32,071,*76,0
1778778087620919697,$GPRMC,170034.000,A,1205.9930,S,07701.4544,W,0.00,287.00,140526,,,A*6C,0
1778778087621055673,$GPGGA,170035.000,1205.9930,S,07701.4544,W,1,06,1.7,144.1,M,8.4,M,,0000*6A,0
1778778087621199223,$GPGSA,M,3,05,21,17,14,24,30,,,,,,,3.4,1.7,3.0*3C,0
1778778087621295899,$GPRMC,170035.000,A,1205.9930,S,07701.4544,W,0.00,287.00,140526,,,A*6D,0
1778778087621432115,$GPGGA,170036.000,1205.9930,S,07701.4544,W,1,06,1.7,144.1,M,8.4,M,,0000*69,0
1778778087621575740,$GPGSA,M,3,05,21,17,14,24,30,,,,,,,3.4,1.7,3.0*3C,0
1778778087621672323,$GPRMC,170036.000,A,1205.9930,S,07701.4544,W,0.00,287.00,140526,,,A*6E,0
1778778087621808224,$GPGGA,170037.000,1205.9930,S,07701.4544,W,1,06,1.7,144.1,M,8.4,M,,0000*68,0
1778778087621952164,$GPGSA,M,3,05,21,17,14,24,30,,,,,,,3.4,1.7,3.0*3C,0
1778778087622048932,$GPRMC,170037.000,A,1205.9930,S,07701.4544,W,0.00,287.00,140526,,,A*6F,0
1778778087622185074,$GPGGA,170038.000,1205.9930,S,07701.4544,W,1,06,1.7,144.1,M,8.4,M,,0000*67,0
1778778087622328976,$GPGSA,M,3,05,21,17,14,24,30,,,,,,,3.4,1.7,3.0*3C,0
1778778087622425689,$GPRMC,170038.000,A,1205.9930,S,07701.4544,W,0.00,287.00,140526,,,A*60,0
1778778087622561942,$GPGGA,170039.000,1205.9930,S,07701.4544,W,1,06,1.7,144.1,M,8.4,M,,0000*66,0
1778778087622705659,$GPGSA,M,3,05,21,17,14,24,30,,,,,,,3.4,1.7,3.0*3C,0
1778778087622802428,$GPGSV,3,1,12,05,56,284,35,21,54,343,43,17,30,086,47,14,28,147,34*75,0
1778778087622934996,$GPGSV,3,2,12,24,16,243,39,30,14,127,31,11,11,351,19,13,47,167,34*7C,0
1778778087623067489,$GPGSV,3,3,12,44,42,284,32,28,58,151,,26,46,135,,23,32,071,*76,0
1778778087623188852,$GPRMC,170039.000,A,1205.9930,S,07701.4544,W,0.00,287.00,140526,,,A*61,0
1778778087623325291,$GPGGA,170040.000,1205.9930,S,07701.4544,W,1,06,1.7,144.1,M,8.4,M,,0000*68,0
1778778087623468101,$GPGSA,M,3,05,21,17,14,24,30,,,,,,,3.5,1.7,3.0*3D,0
1778778087623564721,$GPRMC,170040.000,A,1205.9930,S,07701.4544,W,0.00,287.00,140526,,,A*6F,0
1778778087623700696,$GPGGA,170041.000,1205.9930,S,07701.4544,W,1,06,1.7,144.1,M,8.4,M,,0000*69,0
1778778087624199761,$GPGSA,M,3,05,21,17,14,24,30,,,,,,,3.5,1.7,3.0*3D,0
1778778087624738033,$GPRMC,170041.000,A,1205.9930,S,07701.4544,W,0.00,287.00,140526,,,A*6E,0
1778778087625443525,$GPGGA,170042.000,1205.9930,S,07701.4544,W,1,06,1.7,144.1,M,8.4,M,,0000*6A,0
1778778087626178297,$GPGSA,M,3,05,21,17,14,24,30,,,,,,,3.5,1.7,3.0*3D,0
1778778087626673972,$GPRMC,170042.000,A,1205.9930,S,07701.4544,W,0.00,287.00,140526,,,A*6D,0
1778778087627370000,$GPGGA,170043.000,1205.9929,S,07701.4544,W,1,06,1.7,143.9,M,8.4,M,,0000*6C,0
1778778087628103346,$GPGSA,M,3,05,21,17,14,24,30,,,,,,,3.5,1.7,3.0*3D,0
1778778087628604096,$GPRMC,170043.000,A,1205.9929,S,07701.4544,W,0.04,287.00,140526,,,A*60,0
1778778087629301253,$GPGGA,170044.000,1205.9929,S,07701.4544,W,1,06,1.7,143.9,M,8.4,M,,0000*6B,0
1778778087629985632,$GPGSA,M,3,05,21,17,14,24,30,,,,,,,3.5,1.7,3.0*3D,0
1778778087630479455,$GPGSV,3,1,12,05,56,284,36,21,54,343,43,17,30,086,47,14,28,147,33*71,0
1778778087631157611,$GPGSV,3,2,12,24,16,243,39,30,14,127,31,11,11,351,23,13,47,167,33*72,0
1778778087631733979,$GPGSV,3,3,12,44,42,284,33,28,58,151,,26,46,135,,23,32,071,*77,0
1778778087631855157,$GPRMC,170044.000,A,1205.9929,S,07701.4544,W,0.01,287.00,140526,,,A*62,0
1778778087631990910,$GPGGA,170045.000,1205.9929,S,07701.4544,W,1,06,1.7,143.9,M,8.4,M,,0000*6A,0
1778778087632133924,$GPGSA,M,3,05,21,17,14,24,30,,,,,,,3.5,1.7,3.0*3D,0
1778778087632230173,$GPRMC,170045.000,A,1205.9929,S,07701.4544,W,0.00,287.00,140526,,,A*62,0
1778778087632889142,$GPGGA,170046.000,1205.9929,S,07701.4544,W,1,06,1.7,143.9,M,8.4,M,,0000*69,0
1778778087633615987,$GPGSA,M,3,05,21,17,14,24,30,,,,,,,3.5,1.7,3.0*3D,0
1778778087634104996,$GPRMC,170046.000,A,1205.9929,S,07701.4544,W,0.00,287.00,140526,,,A*61,0
1778778087634787985,$GPGGA,170047.000,1205.9929,S,07701.4545,W,1,06,1.7,143.8,M,8.4,M,,0000*68,0
1778778087635495976,$GPGSA,M,3,05,21,17,14,24,30,,,,,,,3.5,1.7,3.0*3D,0
1778778087635971835,$GPRMC,170047.000,A,1205.9929,S,07701.4545,W,0.07,287.00,140526,,,A*66,0
1778778087636610061,$GPGGA,170048.000,1205.9929,S,07701.4545,W,1,06,1.7,143.8,M,8.4,M,,0000*67,0
1778778087637320479,$GPGSA,M,3,05,21,17,14,24,30,,,,,,,3.5,1.7,3.0*3D,0
1778778087637798190,$GPRMC,170048.000,A,1205.9929,S,07701.4545,W,0.01,287.00,140526,,,A*6F,0
1778778087638469864,$GPGGA,170049.000,1205.9929,S,07701.4545,W,1,06,1.7,143.8,M,8.4,M,,0000*66,0
1778778087639180152,$GPGSA,M,3,05,21,17,14,24,30,,,,,,,3.5,1.7,3.0*3D,0
1778778087639657529,$GPGSV,3,1,12,05,56,284,36,21,54,343,43,17,30,086,47,14,28,147,33*71,0
1778778087640317924,$GPGSV,3,2,12,24,16,243,39,30,14,127,31,11,11,351,22,13,47,167,33*73,0
1778778087640972892,$GPGSV,3,3,12,44,42,284,33,28,58,151,,26,46,135,,23,32,071,*77,0
1778778087641568837,$GPRMC,170049.000,A,1205.9929,S,07701.4545,W,0.00,287.00,140526,,,A*6F,0
1778778087642241177,$GPGGA,170050.000,1205.9929,S,07701.4545,W,1,06,1.7,143.8,M,8.4,M,,0000*6E,0
1778778087642952465,$GPGSA,M,3,05,21,17,14,24,30,,,,,,,3.5,1.7,3.0*3D,0
1778778087643428287,$GPRMC,170050.000,A,1205.9929,S,07701.4545,W,0.00,287.00,140526,,,A*67,0
1778778087644101349,$GPGGA,170051.000,1205.9929,S,07701.4545,W,1,06,1.7,143.8,M,8.4,M,,0000*6F,0
1778778087644817101,$GPGSA,M,3,05,21,17,14,24,30,,,,,,,3.5,1.7,3.0*3D,0
1778778087645309647,$GPRMC,170051.000,A,1205.9929,S,07701.4545,W,0.00,287.00,140526,,,A*66,0
1778778087645953633,$GPGGA,170052.000,1205.9929,S,07701.4545,W,1,07,0.9,143.7,M,8.4,M,,0000*6D,0
1778778087646683219,$GPGSA,M,3,05,21,17,14,24,30,11,,,,,,1.9,0.9,1.6*38,0
1778778087647189784,$GPRMC,170052.000,A,1205.9929,S,07701.4545,W,0.00,287.00,140526,,,A*65,0
1778778087647876033,$GPGGA,170053.000,1205.9929,S,07701.4545,W,1,07,0.9,143.7,M,8.4,M,,0000*6C,0
1778778087648606564,$GPGSA,M,3,05,21,17,14,24,30,11,,,,,,1.9,0.9,1.6*38,0
1778778087649112370,$GPRMC,170053.000,A,1205.9929,S,07701.4545,W,0.00,287.00,140526,,,A*64,0
1778778087649798378,$GPGGA,170054.000,1205.9929,S,07701.4545,W,1,07,0.9,143.7,M,8.4,M,,0000*6B,0
1778778087650522427,$GPGSA,M,3,05,21,17,14,24,30,11,,,,,,1.9,0.9,1.6*38,0
1778778087651028511,$GPGSV,3,1,12,05,56,284,35,21,54,343,43,17,30,086,47,14,28,147,33*72,0
1778778087651809139,$GPGSV,3,2,12,24,16,243,38,30,14,127,31,11,11,351,23,13,47,167,33*73,0
1778778087652474145,$GPGSV,3,3,12,44,42,284,32,28,58,151,,26,46,135,,23,32,071,*76,0
1778778087653081294,$GPRMC,170054.000,A,1205.9929,S,07701.4545,W,0.00,287.00,140526,,,A*63,0
1778778087653754283,$GPGGA,170055.000,1205.9929,S,07701.4545,W,1,07,0.9,143.7,M,8.4,M,,0000*6A,0
1778778087654465034,$GPGSA,M,3,05,21,17,14,24,30,11,,,,,,1.9,0.9,1.6*38,0
1778778087654958320,$GPRMC,170055.000,A,1205.9929,S,07701.4545,W,0.00,287.00,140526,,,A*62,0
1778778087655628475,$GPGGA,170056.000,1205.9928,S,07701.4545,W,1,07,0.9,143.7,M,8.4,M,,0000*68,0
1778778087656342745,$GPGSA,M,3,05,21,17,14,24,30,11,,,,,,1.9,0.9,1.6*38,0
1778778087656837310,$GPRMC,170056.000,A,1205.9928,S,07701.4545,W,0.00,287.00,140526,,,A*60,0
1778778087657508853,$GPGGA,170057.000,1205.9928,S,07701.4545,W,1,07,0.9,143.7,M,8.4,M,,0000*69,0
1778778087658217123,$GPGSA,M,3,05,21,17,14,24,30,11,,,,,,1.9,0.9,1.6*38,0
1778778087658711613,$GPRMC,170057.000,A,1205.9928,S,07701.4545,W,0.00,287.00,140526,,,A*61,0
1778778087659339153,$GPGGA,170058.000,1205.9928,S,07701.4545,W,1,07,0.9,143.7,M,8.4,M,,0000*66,0
1778778087660046848,$GPGSA,M,3,05,21,17,14,24,30,11,,,,,,1.9,0.9,1.6*38,0
1778778087660546821,$GPRMC,170058.000,A,1205.9928,S,07701.4545,W,0.00,287.00,140526,,,A*6E,0
1778778087661218235,$GPGGA,170059.000,1205.9928,S,07701.4545,W,1,07,0.9,143.7,M,8.4,M,,0000*67,0
1778778087661927264,$GPGSA,M,3,05,21,17,14,24,30,11,,,,,,1.9,0.9,1.6*38,0
1778778087662422013,$GPGSV,3,1,12,05,56,284,35,21,54,343,44,17,30,086,47,14,28,147,33*75,0
1778778087663074722,$GPGSV,3,2,12,24,16,243,38,30,14,127,31,11,11,351,25,13,47,167,33*75,0
1778778087663727801,$GPGSV,3,3,12,44,42,284,32,28,58,151,,26,46,135,,23,32,071,*76,0
1778778087664275759,$GPRMC,170059.000,A,1205.9928,S,07701.4545,W,0.00,287.00,140526,,,A*6F,0
1778778087664945266,$GPGGA,170100.000,1205.9928,S,07701.4545,W,1,07,0.9,143.7,M,8.4,M,,0000*6A,0
1778778087665653554,$GPGSA,M,3,05,21,17,14,24,30,11,,,,,,1.9,0.9,1.6*38,0
1778778087666111911,$GPRMC,170100.000,A,1205.9928,S,07701.4545,W,0.00,287.00,140526,,,A*62,0
1778778087666778381,$GPGGA,170101.000,1205.9928,S,07701.4545,W,1,07,0.9,143.7,M,8.4,M,,0000*6B,0
1778778087667481464,$GPGSA,M,3,05,21,17,14,24,30,11,,,,,,1.9,0.9,1.6*38,0
1778778087667973399,$GPRMC,170101.000,A,1205.9928,S,07701.4545,W,0.00,287.00,140526,,,A*63,0
1778778087668598087,$GPGGA,170102.000,1205.9928,S,07701.4545,W,1,07,0.9,143.7,M,8.4,M,,0000*68,0
1778778087669302967,$GPGSA,M,3,05,21,17,14,24,30,11,,,,,,1.9,0.9,1.6*38,0
1778778087669793642,$GPRMC,170102.000,A,1205.9928,S,07701.4545,W,0.00,287.00,140526,,,A*60,0
1778778087670459667,$GPGGA,170103.000,1205.9928,S,07701.4545,W,1,07,0.9,143.7,M,8.4,M,,0000*69,0
1778778087671115228,$GPGSA,M,3,05,21,17,14,24,30,11,,,,,,1.9,0.9,1.6*38,0
1778778087671602588,$GPRMC,170103.000,A,1205.9928,S,07701.4545,W,0.00,287.00,140526,,,A*61,0
1778778087672272835,$GPGGA,170104.000,1205.9928,S,07701.4545,W,1,07,0.9,143.7,M,8.4,M,,0000*6E,0
1778778087672975715,$GPGSA,M,3,05,21,17,14,24,30,11,,,,,,1.9,0.9,1.6*38,0
1778778087673466594,$GPGSV,3,1,12,05,56,284,35,21,54,343,44,17,30,086,47,14,28,147,32*74,0
1778778087674113173,$GPGSV,3,2,12,24,16,243,38,30,14,127,31,11,11,351,19,13,47,167,34*7D,0
1778778087674762751,$GPGSV,3,3,12,44,42,284,33,28,58,151,,26,46,135,,23,32,071,*77,0
1778778087675326211,$GPRMC,170104.000,A,1205.9928,S,07701.4545,W,0.00,287.00,140526,,,A*66,0
1778778087675988439,$GPGGA,170105.000,1205.9928,S,07701.4545,W,1,07,0.9,143.7,M,8.4,M,,0000*6F,0
1778778087676698209,$GPGSA,M,3,05,21,17,14,24,30,11,,,,,,1.9,0.9,1.6*38,0
1778778087677186976,$GPRMC,170105.000,A,1205.9928,S,07701.4545,W,0.00,287.00,140526,,,A*67,0
1778778087677850779,$GPGGA,170106.000,1205.9928,S,07701.4545,W,1,07,0.9,143.7,M,8.4,M,,0000*6C,0
1778778087678551085,$GPGSA,M,3,05,21,17,14,24,30,11,,,,,,1.9,0.9,1.6*38,0
1778778087679040297,$GPRMC,170106.000,A,1205.9928,S,07701.4545,W,0.00,287.00,140526,,,A*64,0
1778778087679704025,$GPGGA,170107.000,1205.9928,S,07701.4545,W,1,07,0.9,143.6,M,8.4,M,,0000*6C,0
1778778087680487209,$GPGSA,M,3,05,21,17,14,24,30,11,,,,,,1.9,0.9,1.6*38,0
1778778087680993978,$GPRMC,170107.000,A,1205.9928,S,07701.4545,W,0.08,287.00,140526,,,A*6D,0
1778778087681656077,$GPGGA,170108.000,1205.9928,S,07701.4545,W,1,07,0.9,143.6,M,8.4,M,,0000*63,0
1778778087682353475,$GPGSA,M,3,05,21,17,14,24,30,11,,,,,,1.9,0.9,1.6*38,0
1778778087682842279,$GPRMC,170108.000,A,1205.9928,S,07701.4545,W,0.01,287.00,140526,,,A*6B,0
1778778087683501766,$GPGGA,170109.000,1205.9928,S,07701.4545,W,1,07,0.9,143.6,M,8.4,M,,0000*62,0
1778778087684200739,$GPGSA,M,3,05,21,17,14,24,30,11,,,,,,1.9,0.9,1.6*38,0
1778778087684663078,$GPGSV,3,1,12,05,56,284,34,21,54,343,45,17,30,086,47,14,28,147,31*77,0
1778778087685303323,$GPGSV,3,2,12,24,16,243,38,30,14,127,31,11,11,351,21,13,47,167,34*76,0
1778778087685945086,$GPGSV,3,3,12,44,42,284,34,28,58,151,,26,46,135,,23,32,071,*70,0
1778778087686529825,$GPRMC,170109.000,A,1205.9928,S,07701.4545,W,0.00,287.00,140526,,,A*6B,0
1778778087687187257,$GPGGA,170110.000,1205.9928,S,07701.4545,W,1,07,0.9,143.6,M,8.4,M,,0000*6A,0
1778778087687881488,$GPGSA,M,3,05,21,17,14,24,30,11,,,,,,1.9,0.9,1.6*38,0
1778778087688163125,$GPRMC,170110.000,A,1205.9928,S,07701.4545,W,0.00,287.00,140526,,,A*63,0
1778778087688305138,$GPGGA,170111.000,1205.9928,S,07701.4545,W,1,07,0.9,143.6,M,8.4,M,,0000*6B,0
1778778087688447244,$GPGSA,M,3,05,21,17,14,24,30,11,,,,,,1.9,0.9,1.6*38,0
1778778087688546087,$GPRMC,170111.000,A,1205.9928,S,07701.4545,W,0.00,287.00,140526,,,A*62,0
1778778087688681914,$GPGGA,170112.000,1205.9928,S,07701.4545,W,1,07,0.9,143.6,M,8.4,M,,0000*68,0
1778778087688825761,$GPGSA,M,3,05,21,17,14,24,30,11,,,,,,1.9,0.9,1.6*38,0
1778778087688926437,$GPRMC,170112.000,A,1205.9928,S,07701.4545,W,0.00,287.00,140526,,,A*61,0
1778778087689061746,$GPGGA,170113.000,1205.9928,S,07701.4545,W,1,07,0.9,143.6,M,8.4,M,,0000*69,0
1778778087689205074,$GPGSA,M,3,05,21,17,14,24,30,11,,,,,,1.9,0.9,1.6*38,0
1778778087689304546,$GPRMC,170113.000,A,1205.9928,S,07701.4545,W,0.00,287.00,140526,,,A*60,0
1778778087689439781,$GPGGA,170114.000,1205.9928,S,07701.4545,W,1,07,0.9,143.6,M,8.4,M,,0000*6E,0
1778778087689581497,$GPGSA,M,3,05,21,17,14,24,30,11,,,,,,1.9,0.9,1.6*38,0
1778778087689680803,$GPGSV,3,1,12,05,56,284,34,21,54,343,45,17,30,086,46,14,28,147,30*77,0
1778778087689813093,$GPGSV,3,2,12,24,16,243,38,30,14,127,31,11,11,351,18,13,47,167,34*7C,0
1778778087689945087,$GPGSV,3,3,12,44,42,284,33,28,58,151,,26,46,135,,23,32,071,*77,0
1778778087690065302,$GPRMC,170114.000,A,1205.9928,S,07701.4545,W,0.00,287.00,140526,,,A*67,0
1778778087690199629,$GPGGA,170115.000,1205.9928,S,07701.4545,W,1,07,0.9,143.6,M,8.4,M,,0000*6F,0
1778778087690341475,$GPGSA,M,3,05,21,17,14,24,30,11,,,,,,1.9,0.9,1.6*38,0
1778778087690440596,$GPRMC,170115.000,A,1205.9928,S,07701.4545,W,0.00,287.00,140526,,,A*66,0
1778778087690575090,$GPGGA,170116.000,1205.9928,S,07701.4545,W,1,07,0.9,143.6,M,8.4,M,,0000*6C,0
1778778087690716862,$GPGSA,M,3,05,21,17,14,24,30,11,,,,,,1.9,0.9,1.6*38,0
1778778087690816001,$GPRMC,170116.000,A,1205.9928,S,07701.4545,W,0.00,287.00,140526,,,A*65,0
1778778087690950458,$GPGGA,170117.000,1205.9928,S,07701.4545,W,1,07,0.9,143.6,M,8.4,M,,0000*6D,0
1778778087691092230,$GPGSA,M,3,05,21,17,14,24,30,11,,,,,,1.9,0.9,1.6*38,0
1778778087691528067,$GPRMC,170117.000,A,1205.9928,S,07701.4545,W,0.00,287.00,140526,,,A*64,0
1778778087691663746,$GPGGA,170118.000,1205.9928,S,07701.4545,W,1,07,0.9,143.6,M,8.4,M,,0000*62,0
1778778087691806426,$GPGSA,M,3,05,21,17,14,24,30,11,,,,,,1.9,0.9,1.6*38,0
1778778087691906380,$GPRMC,170118.000,A,1205.9928,S,07701.4545,W,0.00,287.00,140526,,,A*6B,0
1778778087692042615,$GPGGA,170119.000,1205.9928,S,07701.4545,W,1,07,0.9,143.6,M,8.4,M,,0000*63,0
1778778087692185369,$GPGSA,M,3,05,21,17,14,24,30,11,,,,,,1.9,0.9,1.6*38,0
1778778087692309399,$GPGSV,3,1,12,05,56,284,34,21,54,343,45,17,30,086,45,14,28,147,29*7C,0
1778778087692440967,$GPGSV,3,2,12,24,16,243,38,30,14,127,32,11,11,351,20,13,47,167,33*73,0
1778778087692573775,$GPGSV,3,3,12,44,42,284,33,28,58,151,,26,46,135,,23,32,071,*77,0
1778778087692695435,$GPRMC,170119.000,A,1205.9928,S,07701.4545,W,0.00,287.00,140526,,,A*6A,0
1778778087693063061,$GPGGA,170120.000,1205.9928,S,07701.4545,W,1,06,1.7,143.6,M,8.4,M,,0000*67,0
1778778087693211723,$GPGSA,M,3,05,21,17,14,24,30,,,,,,,3.5,1.7,3.1*3C,0
1778778087693308103,$GPRMC,170120.000,A,1205.9928,S,07701.4545,W,0.00,287.00,140526,,,A*60,0
1778778087693442782,$GPGGA,170121.000,1205.9928,S,07701.4545,W,1,06,1.7,143.6,M,8.4,M,,0000*66,0
1778778087693584962,$GPGSA,M,3,05,21,17,14,24,30,,,,,,,3.5,1.7,3.1*3C,0
1778778087693680897,$GPRMC,170121.000,A,1205.9928,S,07701.4545,W,0.00,287.00,140526,,,A*61,0
1778778087693815557,$GPGGA,170122.000,1205.9928,S,07701.4545,W,1,06,1.7,143.6,M,8.4,M,,0000*65,0
1778778087693957663,$GPGSA,M,3,05,21,17,14,24,30,,,,,,,3.5,1.7,3.1*3C,0
1778778087694053061,$GPRMC,170122.000,A,1205.9928,S,07701.4545,W,0.00,287.00,140526,,,A*62,0
1778778087694187721,$GPGGA,170123.000,1205.9928,S,07701.4545,W,1,06,1.7,143.6,M,8.4,M,,0000*64,0
1778778087694329790,$GPGSA,M,3,05,21,17,14,24,30,,,,,,,3.5,1.7,3.1*3C,0
1778778087694425355,$GPRMC,170123.000,A,1205.9928,S,07701.4545,W,0.00,287.00,140526,,,A*63,0
1778778087694559774,$GPGGA,170124.000,1205.9928,S,07701.4545,W,1,07,0.9,143.6,M,8.4,M,,0000*6D,0
1778778087694701343,$GPGSA,M,3,05,21,17,14,24,30,11,,,,,,1.9,0.9,1.6*38,0
1778778087694800186,$GPGSV,3,1,12,05,56,284,35,21,54,343,45,17,30,086,45,14,28,147,29*7D,0
1778778087694930513,$GPGSV,3,2,12,24,16,243,38,30,14,127,33,11,11,351,20,13,47,167,34*75,0
1778778087695060839,$GPGSV,3,3,12,44,42,284,32,28,58,151,,26,46,135,,23,32,071,*76,0
1778778087695179980,$GPRMC,170124.000,A,1205.9928,S,07701.4545,W,0.00,287.00,140526,,,A*64,0
1778778087695313937,$GPGGA,170125.000,1205.9928,S,07701.4545,W,1,07,0.9,143.6,M,8.4,M,,0000*6C,0
1778778087695455302,$GPGSA,M,3,05,21,17,14,24,30,11,,,,,,1.9,0.9,1.6*38,0
1778778087695554015,$GPRMC,170125.000,A,1205.9928,S,07701.4545,W,0.00,287.00,140526,,,A*65,0
1778778087695688027,$GPGGA,170126.000,1205.9928,S,07701.4545,W,1,07,0.9,143.6,M,8.4,M,,0000*6F,0
1778778087695829355,$GPGSA,M,3,05,21,17,14,24,30,11,,,,,,1.9,0.9,1.6*38,0
1778778087695928179,$GPRMC,170126.000,A,1205.9928,S,07701.4545,W,0.00,287.00,140526,,,A*66,0
1778778087696063118,$GPGGA,170127.000,1205.9928,S,07701.4545,W,1,06,1.7,143.6,M,8.4,M,,0000*60,0
1778778087696208298,$GPGSA,M,3,05,21,17,14,24,30,,,,,,,3.5,1.7,3.1*3C,0
1778778087739395603,$GPRMC,170127.000,A,1205.9928,S,07701.4545,W,0.00,287.00,140526,,,A*67,0
1778778088458166645,$GPGGA,170128.000,1205.9928,S,07701.4545,W,1,06,1.7,143.6,M,8.4,M,,0000*6F,0
1778778088575056682,$GPGSA,M,3,05,21,17,14,24,30,,,,,,,3.5,1.7,3.1*3C,0
1778778088740043905,$GPRMC,170128.000,A,1205.9928,S,07701.4545,W,0.00,287.00,140526,,,A*68,0
1778778089460534829,$GPGGA,170129.000,1205.9928,S,07701.4546,W,1,07,0.9,143.6,M,8.4,M,,0000*63,0
1778778089581965546,$GPGSA,M,3,05,21,17,14,24,30,11,,,,,,1.9,0.9,1.6*38,0
1778778089742405885,$GPGSV,3,1,12,05,56,284,35,21,54,343,44,17,30,086,45,14,28,147,29*7C,0
1778778089902823796,$GPGSV,3,2,12,24,16,243,37,30,14,127,34,11,11,351,11,13,47,167,33*78,0
1778778090049539379,$GPGSV,3,3,12,44,42,284,31,28,58,151,,26,46,135,,23,32,071,*75,0
1778778090214525899,$GPRMC,170129.000,A,1205.9928,S,07701.4546,W,0.00,287.00,140526,,,A*6A,0
1778778090461593539,$GPGGA,170130.000,1205.9928,S,07701.4546,W,1,07,0.9,143.6,M,8.4,M,,0000*6B,0
1778778090583100597,$GPGSA,M,3,05,21,17,14,24,30,11,,,,,,1.9,0.9,1.6*38,0
1778778090748074672,$GPRMC,170130.000,A,1205.9928,S,07701.4546,W,0.00,287.00,140526,,,A*62,0
1778778091461015839,$GPGGA,170131.000,1205.9928,S,07701.4546,W,1,07,0.9,143.6,M,8.4,M,,0000*6A,1
1778778091582474096,$GPGSA,M,3,05,21,17,14,24,30,11,,,,,,1.9,0.9,1.6*38,1
1778778091747514806,$GPRMC,170131.000,A,1205.9928,S,07701.4546,W,0.00,287.00,140526,,,A*63,1
1778778092458621377,$GPGGA,170132.000,1205.9928,S,07701.4546,W,1,06,1.7,143.7,M,8.4,M,,0000*66,1
1778778092575472965,$GPGSA,M,3,05,21,17,14,24,30,,,,,,,3.5,1.7,3.1*3C,1
1778778092740445021,$GPRMC,170132.000,A,1205.9928,S,07701.4546,W,0.03,287.00,140526,,,A*63,1
1778778093461314628,$GPGGA,170133.000,1205.9928,S,07701.4546,W,1,07,0.9,143.7,M,8.4,M,,0000*69,1
1778778093582823260,$GPGSA,M,3,05,21,17,14,24,30,11,,,,,,1.9,0.9,1.6*38,1
1778778093747814873,$GPRMC,170133.000,A,1205.9928,S,07701.4546,W,0.00,287.00,140526,,,A*61,1
1778778094463684052,$GPGGA,170134.000,1205.9928,S,07701.4546,W,1,06,1.7,143.7,M,8.4,M,,0000*60,1
1778778094580590554,$GPGSA,M,3,05,21,17,14,24,30,,,,,,,3.5,1.7,3.1*3C,1
1778778094740992648,$GPGSV,3,1,12,05,56,284,36,21,54,343,45,17,30,086,45,14,28,147,29*7E,1
1778778094896931347,$GPGSV,3,2,12,24,16,243,36,30,14,127,35,06,01,027,,11,11,351,05*7E,1
1778778095048111641,$GPGSV,3,3,12,13,47,167,34,44,42,284,31,28,58,151,,26,46,135,*75,1
1778778095213100995,$GPRMC,170134.000,A,1205.9928,S,07701.4546,W,0.00,287.00,140526,,,A*66,1
1778778095458290979,$GPGGA,170135.000,1205.9928,S,07701.4546,W,1,06,1.7,143.7,M,8.4,M,,0000*61,1
1778778095575194183,$GPGSA,M,3,05,21,17,14,24,30,,,,,,,3.5,1.7,3.1*3C,1
1778778095740181815,$GPRMC,170135.000,A,1205.9928,S,07701.4546,W,0.00,287.00,140526,,,A*67,1
1778778096460861200,$GPGGA,170136.000,1205.9928,S,07701.4546,W,1,07,0.9,143.8,M,8.4,M,,0000*63,1
1778778096582317401,$GPGSA,M,3,05,21,17,14,24,30,11,,,,,,1.9,0.9,1.6*38,1
1778778096747360093,$GPRMC,170136.000,A,1205.9928,S,07701.4546,W,0.06,287.00,140526,,,A*62,1
1778778097460290481,$GPGGA,170137.000,1205.9928,S,07701.4546,W,1,07,0.9,143.8,M,8.4,M,,0000*62,1
1778778097581747886,$GPGSA,M,3,05,21,17,14,24,30,11,,,,,,1.9,0.9,1.6*38,1
1778778097746732406,$GPRMC,170137.000,A,1205.9928,S,07701.4546,W,0.00,287.00,140526,,,A*65,1
1778778098459888853,$GPGGA,170138.000,1205.9928,S,07701.4546,W,1,07,0.9,143.8,M,8.4,M,,0000*6D,0
1778778098581375742,$GPGSA,M,3,05,21,17,14,24,30,11,,,,,,1.9,0.9,1.6*38,0
1778778098746423008,$GPRMC,170138.000,A,1205.9928,S,07701.4546,W,0.00,287.00,140526,,,A*6A,0
1778778099460599975,$GPGGA,170139.000,1205.9928,S,07701.4546,W,1,07,0.9,143.8,M,8.4,M,,0000*6C,0
1778778099582047213,$GPGSA,M,3,05,21,17,14,24,30,11,,,,,,1.9,0.9,1.6*38,0
1778778099742452882,$GPGSV,3,1,12,05,56,284,36,21,54,343,44,17,30,086,46,14,28,147,29*7C,0
1778778099902880071,$GPGSV,3,2,12,24,16,243,37,30,14,127,35,11,11,351,17,13,47,167,34*78,0
1778778100049600766,$GPGSV,3,3,12,44,42,284,32,28,58,151,,26,46,135,,23,32,071,*76,0
1778778100214578526,$GPRMC,170139.000,A,1205.9928,S,07701.4546,W,0.00,287.00,140526,,,A*6B,0
1778778100460635924,$GPGGA,170140.000,1205.9929,S,07701.4547,W,1,07,0.9,143.9,M,8.4,M,,0000*63,0
1778778100582112090,$GPGSA,M,3,05,21,17,14,24,30,11,,,,,,1.9,0.9,1.6*38,0
1778778100747094851,$GPRMC,170140.000,A,1205.9929,S,07701.4547,W,0.35,287.00,140526,,,A*63,0
1778778101460499672,$GPGGA,170141.000,1205.9927,S,07701.4552,W,1,07,0.9,144.0,M,8.4,M,,0000*66,0
1778778101581963966,$GPGSA,M,3,05,21,17,14,24,30,11,,,,,,1.9,0.9,1.6*38,0
1778778101746953228,$GPRMC,170141.000,A,1205.9927,S,07701.4552,W,2.66,295.35,140526,,,A*69,0
1778778102459693376,$GPGGA,170142.000,1205.9922,S,07701.4559,W,1,07,0.9,144.1,M,8.4,M,,0000*6A,0
1778778102581149096,$GPGSA,M,3,05,21,17,14,24,30,11,,,,,,1.9,0.9,1.6*38,0
1778778102746200344,$GPRMC,170142.000,A,1205.9922,S,07701.4559,W,3.36,297.20,140526,,,A*66,0
1778778103459933177,$GPGGA,170143.000,1205.9915,S,07701.4570,W,1,07,0.9,144.1,M,8.4,M,,0000*64,0
1778778103581387045,$GPGSA,M,3,05,21,17,14,24,30,11,,,,,,1.9,0.9,1.6*38,0
1778778103746430903,$GPRMC,170143.000,A,1205.9915,S,07701.4570,W,4.85,302.05,140526,,,A*6D,0
1778778104461429206,$GPGGA,170144.000,1205.9905,S,07701.4584,W,1,07,0.9,144.2,M,8.4,M,,0000*6A,0
1778778104582898556,$GPGSA,M,3,05,21,17,14,24,30,11,,,,,,1.9,0.9,1.6*38,0
1778778104743369787,$GPGSV,3,1,12,05,56,284,43,21,54,343,45,17,30,086,45,14,28,147,35*71,0
1778778104903770196,$GPGSV,3,2,12,24,16,243,31,30,14,127,28,11,11,351,23,13,47,167,40*76,0
1778778105050436997,$GPGSV,3,3,12,44,42,284,43,28,58,151,,26,46,135,,23,32,071,*70,0
1778778105215421128,$GPRMC,170144.000,A,1205.9905,S,07701.4584,W,5.99,302.27,140526,,,A*6C,0
1778778105461924308,$GPGGA,170145.000,1205.9894,S,07701.4599,W,1,07,0.9,144.1,M,8.4,M,,0000*6D,0
1778778105583389733,$GPGSA,M,3,05,21,17,14,24,30,11,,,,,,1.9,0.9,1.6*38,0
1778778105748373086,$GPRMC,170145.000,A,1205.9894,S,07701.4599,W,6.39,303.73,140526,,,A*61,0
1778778106463420985,$GPGGA,170146.000,1205.9882,S,07701.4615,W,1,07,0.9,143.9,M,8.4,M,,0000*61,0
1778778106584876816,$GPGSA,M,3,05,21,17,14,24,30,11,,,,,,1.9,0.9,1.6*38,0
1778778106749915156,$GPRMC,170146.000,A,1205.9882,S,07701.4615,W,5.82,307.78,140526,,,A*6E,0
1778778107464548165,$GPGGA,170147.000,1205.9871,S,07701.4626,W,1,07,0.9,143.9,M,8.4,M,,0000*6C,0
1778778107586003496,$GPGSA,M,3,05,21,17,14,24,30,11,,,,,,1.9,0.9,1.6*38,0
1778778107750982645,$GPRMC,170147.000,A,1205.9871,S,07701.4626,W,5.09,313.04,140526,,,A*6E,0
1778778108461624025,$GPGGA,170148.000,1205.9859,S,07701.4636,W,1,07,0.9,144.0,M,8.4,M,,0000*66,0
1778778108583121748,$GPGSA,M,3,05,21,17,14,24,30,11,,,,,,1.9,0.9,1.6*38,0
1778778108748103083,$GPRMC,170148.000,A,1205.9859,S,07701.4636,W,5.29,321.45,140526,,,A*6C,0
1778778109461275678,$GPGGA,170149.000,1205.9844,S,07701.4643,W,1,07,0.9,143.9,M,8.4,M,,0000*67,0
1778778109582738565,$GPGSA,M,3,05,21,17,14,24,30,11,,,,,,1.9,0.9,1.6*38,0
1778778109743156384,$GPGSV,3,1,12,05,56,284,43,21,54,343,44,17,30,086,29,14,28,147,34*7B,0
1778778109903555163,$GPGSV,3,2,12,24,16,243,24,30,14,127,27,11,11,351,21,06,01,027,20*7A,0
1778778110054840059,$GPGSV,3,3,12,13,47,167,41,44,42,284,41,28,58,151,,26,46,135,*70,0
1778778110219929219,$GPRMC,170149.000,A,1205.9844,S,07701.4643,W,6.37,332.53,140526,,,A*6A,0
1778778110461137556,$GPGGA,170150.000,1205.9824,S,07701.4646,W,1,07,0.9,143.9,M,8.4,M,,0000*6C,0
1778778110582614907,$GPGSA,M,3,05,21,17,14,24,30,11,,,,,,1.9,0.9,1.6*38,0
1778778110747580684,$GPRMC,170150.000,A,1205.9824,S,07701.4646,W,6.84,346.59,140526,,,A*60,0
1778778111466380284,$GPGGA,170151.000,1205.9799,S,07701.4641,W,1,07,0.9,143.7,M,8.4,M,,0000*6D,0
1778778111587852079,$GPGSA,M,3,05,21,17,14,24,30,11,,,,,,1.9,0.9,1.6*38,0
1778778111748265934,$GPRMC,170151.000,A,1205.9799,S,07701.4641,W,8.53,2.40,140526,,,A*60,0
1778778112466010881,$GPGGA,170152.000,1205.9768,S,07701.4628,W,1,07,0.9,143.7,M,8.4,M,,0000*6F,0
1778778112587463137,$GPGSA,M,3,05,21,17,14,24,30,11,,,,,,1.9,0.9,1.6*38,0
1778778112752499310,$GPRMC,170152.000,A,1205.9768,S,07701.4628,W,12.60,21.06,140526,,,A*6A,0
1778778113465430180,$GPGGA,170153.000,1205.9729,S,07701.4608,W,1,07,0.9,144.5,M,8.4,M,,0000*6C,0
1778778113586890252,$GPGSA,M,3,05,21,17,14,24,30,11,,,,,,1.9,0.9,1.6*38,0
1778778113751864919,$GPRMC,170153.000,A,1205.9729,S,07701.4608,W,15.60,25.17,140526,,,A*6F,0
1778778114466303243,$GPGGA,170154.000,1205.9684,S,07701.4585,W,1,07,0.9,145.1,M,8.4,M,,0000*6E,0
1778778114587765278,$GPGSA,M,3,05,21,17,14,24,30,11,,,,,,1.9,0.9,1.6*38,0
1778778114748173707,$GPGSV,3,1,12,05,56,284,44,21,54,343,43,17,30,086,43,14,28,147,42*76,0
1778778114908586191,$GPGSV,3,2,12,24,16,243,25,30,14,127,28,11,11,351,28,13,47,167,29*77,0
1778778115055392060,$GPGSV,3,3,12,44,42,284,39,28,58,151,,26,46,135,,23,32,071,*7D,0
1778778115220317612,$GPRMC,170154.000,A,1205.9684,S,07701.4585,W,17.83,24.71,140526,,,A*66,0
1778778115462491761,$GPGGA,170155.000,1205.9632,S,07701.4560,W,1,07,0.9,145.2,M,8.4,M,,0000*6A,0
1778778115583891457,$GPGSA,M,3,05,21,17,14,24,30,11,,,,,,1.9,0.9,1.6*38,0
1778778115748864216,$GPRMC,170155.000,A,1205.9632,S,07701.4560,W,20.05,24.83,140526,,,A*66,0
1778778116464511857,$GPGGA,170156.000,1205.9577,S,07701.4535,W,1,07,0.9,145.4,M,8.4,M,,0000*6D,0
1778778116586004543,$GPGSA,M,3,05,21,17,14,24,30,11,,,,,,1.9,0.9,1.6*38,0
1778778116750977543,$GPRMC,170156.000,A,1205.9577,S,07701.4535,W,21.55,24.42,140526,,,A*6E,0
1778778117461244147,$GPGGA,170157.000,1205.9518,S,07701.4507,W,1,06,1.7,145.8,M,8.4,M,,0000*66,0
1778778117578123498,$GPGSA,M,3,05,21,17,14,24,30,,,,,,,3.5,1.7,3.1*3C,0
1778778117743104036,$GPRMC,170157.000,A,1205.9518,S,07701.4507,W,22.57,24.69,140526,,,A*6F,0
1778778118462783680,$GPGGA,170158.000,1205.9459,S,07701.4478,W,1,06,1.7,146.5,M,8.4,M,,0000*6A,0
1778778118579605655,$GPGSA,M,3,05,21,17,14,24,30,,,,,,,3.5,1.7,3.1*3C,0
1778778118744653958,$GPRMC,170158.000,A,1205.9459,S,07701.4478,W,23.22,23.98,140526,,,A*67,0
1778778119461779569,$GPGGA,170159.000,1205.9398,S,07701.4449,W,1,06,1.7,147.0,M,8.4,M,,0000*67,0
1778778119578609878,$GPGSA,M,3,05,21,17,14,24,30,,,,,,,3.5,1.7,3.1*3C,0
1778778119739083516,$GPGSV,3,1,12,05,56,284,43,21,54,343,40,17,30,086,43,14,28,147,37*70,0
1778778119899565452,$GPGSV,3,2,12,24,16,243,33,30,14,127,25,13,47,167,29,44,42,284,38*73,0
1778778120041603082,$GPGSV,3,3,12,28,58,151,,26,46,135,,23,32,071,,16,26,147,*7E,0
1778778120206632791,$GPRMC,170159.000,A,1205.9398,S,07701.4449,W,23.24,24.01,140526,,,A*6F,0
1778778120459320509,$GPGGA,170200.000,1205.9337,S,07701.4422,W,1,06,1.7,147.5,M,8.4,M,,0000*65,0
1778778120576162726,$GPGSA,M,3,05,21,17,14,24,30,,,,,,,3.5,1.7,3.1*3C,0
1778778120741209641,$GPRMC,170200.000,A,1205.9337,S,07701.4422,W,23.37,21.73,140526,,,A*6A,0
1778778121457943901,$GPGGA,170201.000,1205.9274,S,07701.4393,W,1,06,1.7,148.1,M,8.4,M,,0000*64,0
1778778121574761597,$GPGSA,M,3,05,21,17,14,24,30,,,,,,,3.5,1.7,3.1*3C,0
1778778121739748321,$GPRMC,170201.000,A,1205.9274,S,07701.4393,W,25.01,24.46,140526,,,A*60,0
1778778122462327642,$GPGGA,170202.000,1205.9207,S,07701.4364,W,1,05,1.7,148.5,M,8.4,M,,0000*6C,0
1778778122574633105,$GPGSA,M,3,05,21,17,14,24,,,,,,,,3.8,1.7,3.4*37,0
1778778122739612958,$GPRMC,170202.000,A,1205.9207,S,07701.4364,W,26.69,22.86,140526,,,A*68,0
1778778123457809001,$GPGGA,170203.000,1205.9144,S,07701.4334,W,1,06,1.7,149.0,M,8.4,M,,0000*6B,0
1778778123574654534,$GPGSA,M,3,05,21,17,14,24,30,,,,,,,3.5,1.7,3.1*3C,0
1778778123739640072,$GPRMC,170203.000,A,1205.9144,S,07701.4334,W,25.24,27.01,140526,,,A*68,0
1778778124461339997,$GPGGA,170204.000,1205.9084,S,07701.4303,W,1,06,1.7,149.4,M,8.4,M,,0000*61,0
1778778124578227793,$GPGSA,M,3,05,21,17,14,24,30,,,,,,,3.5,1.7,3.1*3C,0
1778778124738641592,$GPGSV,3,1,12,05,56,284,42,21,54,343,42,17,30,086,41,14,28,147,38*7E,0
1778778124894492486,$GPGSV,3,2,12,24,16,243,36,30,14,127,23,44,42,284,36,28,58,151,*76,0
1778778125036587714,$GPGSV,3,3,12,13,47,167,,26,46,135,,23,32,071,,16,26,147,*7D,0
1778778125201592144,$GPRMC,170204.000,A,1205.9084,S,07701.4303,W,23.81,26.87,140526,,,A*60,0
1778778125461841785,$GPGGA,170205.000,1205.9027,S,07701.4274,W,1,07,0.9,149.5,M,8.4,M,,0000*67,0
1778778125583263372,$GPGSA,M,3,05,21,17,14,24,30,11,,,,,,1.9,0.9,1.6*38,0
1778778125748272450,$GPRMC,170205.000,A,1205.9027,S,07701.4274,W,22.32,26.48,140526,,,A*63,0
1778778126461860325,$GPGGA,170206.000,1205.8973,S,07701.4245,W,1,07,0.9,149.5,M,8.4,M,,0000*6F,0
1778778126583315582,$GPGSA,M,3,05,21,17,14,24,30,11,,,,,,1.9,0.9,1.6*38,0
1778778126748315362,$GPRMC,170206.000,A,1205.8973,S,07701.4245,W,21.52,26.67,140526,,,A*63,0
1778778127466496960,$GPGGA,170207.000,1205.8920,S,07701.4220,W,1,07,0.9,149.9,M,8.4,M,,0000*67,0
1778778127587959107,$GPGSA,M,3,05,21,17,14,24,30,11,,,,,,1.9,0.9,1.6*38,0
1778778127752978056,$GPRMC,170207.000,A,1205.8920,S,07701.4220,W,20.24,24.75,140526,,,A*66,0
1778778128466544558,$GPGGA,170208.000,1205.8872,S,07701.4198,W,1,07,0.9,150.2,M,8.4,M,,0000*6D,0
1778778128587985351,$GPGSA,M,3,05,21,17,14,24,30,11,,,,,,1.9,0.9,1.6*38,0
1778778128753001189,$GPRMC,170208.000,A,1205.8872,S,07701.4198,W,17.96,24.54,140526,,,A*61,0
1778778129468051885,$GPGGA,170209.000,1205.8827,S,07701.4180,W,1,07,0.9,149.2,M,8.4,M,,0000*6D,0
1778778129589490195,$GPGSA,M,3,05,21,17,14,24,30,11,,,,,,1.9,0.9,1.6*38,0
1778778129749954981,$GPGSV,3,1,12,05,56,284,43,21,54,343,42,17,30,086,30,14,28,147,30*71,0
1778778129910376948,$GPGSV,3,2,12,24,16,243,27,30,14,127,21,11,11,351,30,06,01,027,12*7E,0
1778778130057030007,$GPGSV,3,3,12,44,42,284,42,28,58,151,,13,47,167,,26,46,135,*76,0
1778778130222121962,$GPRMC,170209.000,A,1205.8827,S,07701.4180,W,15.08,24.58,140526,,,A*60,0
1778778130467268776,$GPGGA,170210.000,1205.8790,S,07701.4164,W,1,07,0.9,148.4,M,8.4,M,,0000*6B,0
1778778130588717643,$GPGSA,M,3,05,21,17,14,24,30,11,,,,,,1.9,0.9,1.6*38,0
1778778130753728369,$GPRMC,170210.000,A,1205.8790,S,07701.4164,W,12.98,26.73,140526,,,A*64,0
1778778131468384770,$GPGGA,170211.000,1205.8759,S,07701.4153,W,1,07,0.9,147.9,M,8.4,M,,0000*69,0
1778778131589798337,$GPGSA,M,3,05,21,17,14,24,30,11,,,,,,1.9,0.9,1.6*38,0
1778778131754827380,$GPRMC,170211.000,A,1205.8759,S,07701.4153,W,10.34,26.05,140526,,,A*61,0
1778778132464029700,$GPGGA,170212.000,1205.8734,S,07701.4145,W,1,07,0.9,148.1,M,8.4,M,,0000*61,0
1778778132585483512,$GPGSA,M,3,05,21,17,14,24,30,11,,,,,,1.9,0.9,1.6*38,0
1778778132748194506,$GPRMC,170212.000,A,1205.8734,S,07701.4145,W,8.44,24.40,140526,,,A*53,0
1778778133467209848,$GPGGA,170213.000,1205.8712,S,07701.4139,W,1,07,0.9,148.1,M,8.4,M,,0000*6F,0
1778778133588662104,$GPGSA,M,3,05,21,17,14,24,30,11,,,,,,1.9,0.9,1.6*38,0
1778778133751378117,$GPRMC,170213.000,A,1205.8712,S,07701.4139,W,7.06,21.51,140526,,,A*51,0
1778778134467461780,$GPGGA,170214.000,1205.8692,S,07701.4136,W,1,07,0.9,148.0,M,8.4,M,,0000*6F,0
1778778134588908424,$GPGSA,M,3,05,21,17,14,24,30,11,,,,,,1.9,0.9,1.6*38,0
1778778134749343818,$GPGSV,3,1,12,05,56,284,44,21,54,343,43,17,30,086,40,14,28,147,28*79,0
1778778134909766193,$GPGSV,3,2,12,24,16,243,37,30,14,127,29,11,11,351,23,13,47,167,39*7F,0
1778778135056425900,$GPGSV,3,3,12,44,42,284,43,28,58,151,,26,46,135,,23,32,071,*70,0
1778778135216856183,$GPRMC,170214.000,A,1205.8692,S,07701.4136,W,6.57,8.85,140526,,,A*67,0
1778778135472100693,$GPGGA,170215.000,1205.8678,S,07701.4135,W,1,07,0.9,148.0,M,8.4,M,,0000*69,0
1778778135593550227,$GPGSA,M,3,05,21,17,14,24,30,11,,,,,,1.9,0.9,1.6*38,0
1778778135758546470,$GPRMC,170215.000,A,1205.8678,S,07701.4135,W,5.87,346.42,140526,,,A*6D,0
1778778136467151068,$GPGGA,170216.000,1205.8666,S,07701.4141,W,1,07,0.9,148.1,M,8.4,M,,0000*67,0
1778778136588619566,$GPGSA,M,3,05,21,17,14,24,30,11,,,,,,1.9,0.9,1.6*38,0
1778778136753667111,$GPRMC,170216.000,A,1205.8666,S,07701.4141,W,5.82,323.77,140526,,,A*62,0
1778778137466569107,$GPGGA,170217.000,1205.8657,S,07701.4156,W,1,07,0.9,148.4,M,8.4,M,,0000*67,0
1778778137588002714,$GPGSA,M,3,05,21,17,14,24,30,11,,,,,,1.9,0.9,1.6*38,0
1778778137753034368,$GPRMC,170217.000,A,1205.8657,S,07701.4156,W,7.09,298.32,140526,,,A*66,0
1778778138467235448,$GPGGA,170218.000,1205.8653,S,07701.4176,W,1,07,0.9,148.8,M,8.4,M,,0000*62,0
1778778138588679352,$GPGSA,M,3,05,21,17,14,24,30,11,,,,,,1.9,0.9,1.6*38,0
1778778138753697653,$GPRMC,170218.000,A,1205.8653,S,07701.4176,W,7.54,281.38,140526,,,A*65,0
1778778139468948238,$GPGGA,170219.000,1205.8652,S,07701.4198,W,1,07,0.9,149.2,M,8.4,M,,0000*69,0
1778778139590399809,$GPGSA,M,3,05,21,17,14,24,30,11,,,,,,1.9,0.9,1.6*38,0
1778778139750829480,$GPGSV,3,1,12,05,56,284,45,21,54,343,45,17,30,086,44,14,28,147,42*76,0
1778778139911259577,$GPGSV,3,2,12,24,16,243,31,30,14,127,31,11,11,351,22,13,47,167,31*79,0
1778778140057922471,$GPGSV,3,3,12,44,42,284,45,28,58,151,,26,46,135,,23,32,071,*76,0
1778778140222974460,$GPRMC,170219.000,A,1205.8652,S,07701.4198,W,8.43,277.91,140526,,,A*66,0
1778778140464608484,$GPGGA,170220.000,1205.8651,S,07701.4223,W,1,07,0.9,150.1,M,8.4,M,,0000*68,0
1778778140586078205,$GPGSA,M,3,05,21,17,14,24,30,11,,,,,,1.9,0.9,1.6*38,0
1778778140751075319,$GPRMC,170220.000,A,1205.8651,S,07701.4223,W,9.72,277.51,140526,,,A*63,0
1778778141474689921,$GPGGA,170221.000,1205.8648,S,07701.4250,W,1,07,0.9,150.6,M,8.4,M,,0000*62,0
1778778141596136344,$GPGSA,M,3,05,21,17,14,24,30,11,,,,,,1.9,0.9,1.6*38,0
1778778141761123605,$GPRMC,170221.000,A,1205.8648,S,07701.4250,W,9.78,277.20,140526,,,A*62,0
1778778142468072345,$GPGGA,170222.000,1205.8645,S,07701.4279,W,1,07,0.9,150.5,M,8.4,M,,0000*64,0
1778778142589490876,$GPGSA,M,3,05,21,17,14,24,30,11,,,,,,1.9,0.9,1.6*38,0
1778778142756800408,$GPRMC,170222.000,A,1205.8645,S,07701.4279,W,10.19,276.35,140526,,,A*5D,0
1778778143468090774,$GPGGA,170223.000,1205.8644,S,07701.4308,W,1,07,0.9,150.6,M,8.4,M,,0000*60,0
1778778143589553939,$GPGSA,M,3,05,21,17,14,24,30,11,,,,,,1.9,0.9,1.6*38,0
1778778143756867990,$GPRMC,170223.000,A,1205.8644,S,07701.4308,W,10.16,275.41,140526,,,A*55,0
1778778144467937446,$GPGGA,170224.000,1205.8641,S,07701.4336,W,1,07,0.9,151.0,M,8.4,M,,0000*68,0
1778778144589387609,$GPGSA,M,3,05,21,17,14,24,30,11,,,,,,1.9,0.9,1.6*38,0
1778778144749825318,$GPGSV,3,1,12,05,56,284,46,21,54,343,45,17,30,086,46,14,28,147,37*75,0
1778778144910227117,$GPGSV,3,2,12,24,16,243,26,30,14,127,30,11,11,351,11,13,47,167,30*7F,0
1778778145056905919,$GPGSV,3,3,12,44,42,284,47,28,58,151,,26,46,135,,23,32,071,*74,0
1778778145224225581,$GPRMC,170224.000,A,1205.8641,S,07701.4336,W,10.40,275.77,140526,,,A*5C,0
1778778145467346985,$GPGGA,170225.000,1205.8637,S,07701.4366,W,1,07,0.9,151.3,M,8.4,M,,0000*6E,0
1778778145588820058,$GPGSA,M,3,05,21,17,14,24,30,11,,,,,,1.9,0.9,1.6*38,0
1778778145756112440,$GPRMC,170225.000,A,1205.8637,S,07701.4366,W,10.84,276.79,140526,,,A*5C,0
1778778146463654328,$GPGGA,170226.000,1205.8634,S,07701.4397,W,1,07,0.9,151.3,M,8.4,M,,0000*60,0
1778778146585102695,$GPGSA,M,3,05,21,17,14,24,30,11,,,,,,1.9,0.9,1.6*38,0
1778778146752403152,$GPRMC,170226.000,A,1205.8634,S,07701.4397,W,11.27,277.92,140526,,,A*5E,0
1778778147467644922,$GPGGA,170227.000,1205.8631,S,07701.4429,W,1,07,0.9,151.1,M,8.4,M,,0000*64,0
1778778147589111124,$GPGSA,M,3,05,21,17,14,24,30,11,,,,,,1.9,0.9,1.6*38,0
1778778147756416508,$GPRMC,170227.000,A,1205.8631,S,07701.4429,W,11.47,278.14,140526,,,A*5F,0
1778778148468335191,$GPGGA,170228.000,1205.8628,S,07701.4460,W,1,07,0.9,150.9,M,8.4,M,,0000*67,0
1778778148589785447,$GPGSA,M,3,05,21,17,14,24,30,11,,,,,,1.9,0.9,1.6*38,0
1778778148757086219,$GPRMC,170228.000,A,1205.8628,S,07701.4460,W,10.55,277.90,140526,,,A*54,0
1778778149467134025,$GPGGA,170229.000,1205.8626,S,07701.4487,W,1,07,0.9,151.3,M,8.4,M,,0000*6A,0
1778778149588591393,$GPGSA,M,3,05,21,17,14,24,30,11,,,,,,1.9,0.9,1.6*38,0
1778778149749016934,$GPGSV,3,1,12,05,56,284,46,21,54,343,45,17,30,086,46,14,28,147,37*75,0
1778778149909433159,$GPGSV,3,2,12,24,16,243,17,30,14,127,41,11,11,351,22,13,47,167,23*79,0
1778778150056113721,$GPGSV,3,3,12,44,42,284,46,28,58,151,,26,46,135,,23,32,071,*75,0
1778778150221162858,$GPRMC,170229.000,A,1205.8626,S,07701.4487,W,8.83,277.83,140526,,,A*62,0
1778778150468633776,$GPGGA,170230.000,1205.8625,S,07701.4508,W,1,07,0.9,151.9,M,8.4,M,,0000*6D,0
1778778150590090126,$GPGSA,M,3,05,21,17,14,24,30,11,,,,,,1.9,0.9,1.6*38,0
1778778150755100740,$GPRMC,170230.000,A,1205.8625,S,07701.4508,W,6.75,277.14,140526,,,A*66,0
1778778151465974382,$GPGGA,170231.000,1205.8628,S,07701.4525,W,1,07,0.9,152.6,M,8.4,M,,0000*62,0
1778778151587433065,$GPGSA,M,3,05,21,17,14,24,30,11,,,,,,1.9,0.9,1.6*38,0
1778778151752432975,$GPRMC,170231.000,A,1205.8628,S,07701.4525,W,6.29,272.62,140526,,,A*68,0
1778778152466014961,$GPGGA,170232.000,1205.8634,S,07701.4543,W,1,07,0.9,153.6,M,8.4,M,,0000*6D,0
1778778152587513481,$GPGSA,M,3,05,21,17,14,24,30,11,,,,,,1.9,0.9,1.6*38,0
1778778152752551469,$GPRMC,170232.000,A,1205.8634,S,07701.4543,W,7.16,255.68,140526,,,A*64,0
1778778153464605165,$GPGGA,170233.000,1205.8645,S,07701.4562,W,1,07,0.9,154.1,M,8.4,M,,0000*69,0
1778778153586072515,$GPGSA,M,3,05,21,17,14,24,30,11,,,,,,1.9,0.9,1.6*38,0
1778778153751083463,$GPRMC,170233.000,A,1205.8645,S,07701.4562,W,8.90,234.63,140526,,,A*6D,0
1778778154470503491,$GPGGA,170234.000,1205.8668,S,07701.4578,W,1,07,0.9,154.7,M,8.4,M,,0000*6C,0
1778778154591999400,$GPGSA,M,3,05,21,17,14,24,30,11,,,,,,1.9,0.9,1.6*38,0
1778778154752391253,$GPGSV,3,1,12,05,56,284,35,21,54,343,45,17,30,086,46,14,28,147,36*70,0
1778778154908259167,$GPGSV,3,2,12,24,16,243,22,30,14,127,33,11,11,351,22,06,01,027,*78,0
1778778155059482428,$GPGSV,3,3,12,13,47,167,25,44,42,284,23,28,58,151,,26,46,135,*76,0
1778778155226773273,$GPRMC,170234.000,A,1205.8668,S,07701.4578,W,10.17,221.01,140526,,,A*58,0
1778778155465746625,$GPGGA,170235.000,1205.8702,S,07701.4591,W,1,07,0.9,155.1,M,8.4,M,,0000*60,0
1778778155587248534,$GPGSA,M,3,05,21,17,14,24,30,11,,,,,,1.9,0.9,1.6*38,0
1778778155754515692,$GPRMC,170235.000,A,1205.8702,S,07701.4591,W,12.66,204.98,140526,,,A*50,0
1778778156466001094,$GPGGA,170236.000,1205.8734,S,07701.4598,W,1,07,0.9,155.4,M,8.4,M,,0000*6A,0
1778778156587494521,$GPGSA,M,3,05,21,17,14,24,30,11,,,,,,1.9,0.9,1.6*38,0
1778778156754771068,$GPRMC,170236.000,A,1205.8734,S,07701.4598,W,12.03,196.51,140526,,,A*51,0
1778778157465468694,$GPGGA,170237.000,1205.8758,S,07701.4598,W,1,07,0.9,155.9,M,8.4,M,,0000*6C,0
1778778157586888132,$GPGSA,M,3,05,21,17,14,24,30,11,,,,,,1.9,0.9,1.6*38,0
1778778157754186126,$GPRMC,170237.000,A,1205.8758,S,07701.4598,W,11.90,193.16,140526,,,A*55,0
1778778158466093604,$GPGGA,170238.000,1205.8778,S,07701.4598,W,1,07,0.9,156.2,M,8.4,M,,0000*69,0
1778778158587557381,$GPGSA,M,3,05,21,17,14,24,30,11,,,,,,1.9,0.9,1.6*38,0
1778778158754842910,$GPRMC,170238.000,A,1205.8778,S,07701.4598,W,10.55,190.84,140526,,,A*58,0
1778778159466190485,$GPGGA,170239.000,1205.8802,S,07701.4613,W,1,07,0.9,156.3,M,8.4,M,,0000*6B,0
1778778159587617517,$GPGSA,M,3,05,21,17,14,24,30,11,,,,,,1.9,0.9,1.6*38,0
1778778159748019185,$GPGSV,3,1,12,05,56,284,33,21,54,343,46,17,30,086,29,14,28,147,31*7B,0
1778778159908457024,$GPGSV,3,2,12,24,16,243,22,30,14,127,25,11,11,351,17,44,42,284,31*71,0
1778778160050549974,$GPGSV,3,3,12,28,58,151,,13,47,167,,26,46,135,,23,32,071,*7E,0
1778778160218173591,$GPRMC,170239.000,A,1205.8802,S,07701.4613,W,11.39,191.80,140526,,,A*55,0
1778778160466612784,$GPGGA,170240.000,1205.8866,S,07701.4679,W,1,07,0.9,155.9,M,8.4,M,,0000*62,0
1778778160588069967,$GPGSA,M,3,05,21,17,14,24,30,11,,,,,,1.9,0.9,1.6*38,0
1778778160755380870,$GPRMC,170240.000,A,1205.8866,S,07701.4679,W,20.05,205.57,140526,,,A*5C,0
1778778161466686274,$GPGGA,170241.000,1205.8926,S,07701.4725,W,1,07,0.9,156.1,M,8.4,M,,0000*65,0
1778778161588116973,$GPGSA,M,3,05,21,17,14,24,30,11,,,,,,1.9,0.9,1.6*38,0
1778778161755420060,$GPRMC,170241.000,A,1205.8926,S,07701.4725,W,20.26,207.26,140526,,,A*55,0
1778778162464423250,$GPGGA,170242.000,1205.8999,S,07701.4762,W,1,06,1.7,155.7,M,8.4,M,,0000*6A,0
1778778162581298915,$GPGSA,M,3,05,21,17,14,24,30,,,,,,,3.6,1.7,3.2*3C,0
1778778162748588334,$GPRMC,170242.000,A,1205.8999,S,07701.4762,W,20.98,207.73,140526,,,A*54,0
1778778163465504259,$GPGGA,170243.000,1205.9059,S,07701.4793,W,1,06,1.7,155.8,M,8.4,M,,0000*6E,0
1778778163582375442,$GPGSA,M,3,05,21,17,14,24,30,,,,,,,3.6,1.7,3.2*3C,0
1778778163749679085,$GPRMC,170243.000,A,1205.9059,S,07701.4793,W,19.57,207.18,140526,,,A*5B,0
1778778164462636623,$GPGGA,170244.000,1205.9126,S,07701.4828,W,1,06,1.7,156.6,M,8.4,M,,0000*62,0
1778778164579515733,$GPGSA,M,3,05,21,17,14,24,30,,,,,,,3.6,1.7,3.2*3C,0
1778778164739931051,$GPGSV,3,1,12,05,56,284,42,21,54,343,32,17,30,086,42,14,28,147,42*77,0
1778778164895779667,$GPGSV,3,2,12,24,16,243,38,30,14,127,26,44,42,284,43,28,58,151,*7F,0
1778778165037866099,$GPGSV,3,3,12,13,47,167,,26,46,135,,23,32,071,,16,26,147,*7D,0
1778778165205160796,$GPRMC,170244.000,A,1205.9126,S,07701.4828,W,19.24,206.46,140526,,,A*54,0
1778778165466226161,$GPGGA,170245.000,1205.9173,S,07701.4853,W,1,06,1.7,156.0,M,8.4,M,,0000*69,0
1778778165583110790,$GPGSA,M,3,05,21,17,14,24,30,,,,,,,3.6,1.7,3.2*3C,0
1778778165750409451,$GPRMC,170245.000,A,1205.9173,S,07701.4853,W,18.71,205.97,140526,,,A*57,0
1778778166474198495,$GPGGA,170246.000,1205.9220,S,07701.4875,W,1,06,1.7,155.1,M,8.4,M,,0000*69,0
1778778166591074327,$GPGSA,M,3,05,21,17,14,24,30,,,,,,,3.6,1.7,3.2*3C,0
1778778166758353652,$GPRMC,170246.000,A,1205.9220,S,07701.4875,W,18.36,205.29,140526,,,A*53,0
1778778167470497393,$GPGGA,170247.000,1205.9267,S,07701.4897,W,1,07,0.9,154.7,M,8.4,M,,0000*6E,0
1778778167591952539,$GPGSA,M,3,05,21,17,14,24,30,11,,,,,,1.9,0.9,1.6*38,0
1778778167759242347,$GPRMC,170247.000,A,1205.9267,S,07701.4897,W,18.04,205.25,140526,,,A*50,0
1778778168467194551,$GPGGA,170248.000,1205.9314,S,07701.4918,W,1,07,0.9,154.2,M,8.4,M,,0000*67,0
1778778168588656141,$GPGSA,M,3,05,21,17,14,24,30,11,,,,,,1.9,0.9,1.6*38,0
1778778168755943357,$GPRMC,170248.000,A,1205.9314,S,07701.4918,W,17.29,203.79,140526,,,A*53,0
1778778169466447408,$GPGGA,170249.000,1205.9361,S,07701.4936,W,1,07,0.9,154.6,M,8.4,M,,0000*6C,0
1778778169587875792,$GPGSA,M,3,05,21,17,14,24,30,11,,,,,,1.9,0.9,1.6*38,0
1778778169748301352,$GPGSV,3,1,12,05,56,284,37,21,54,343,40,17,30,086,28,14,28,147,38*71,0
1778778169908723689,$GPGSV,3,2,12,24,16,243,37,30,14,127,22,11,11,351,24,13,47,167,36*7C,0
1778778170055404510,$GPGSV,3,3,12,44,42,284,38,28,58,151,,26,46,135,,23,32,071,*7C,0
1778778170222734748,$GPRMC,170249.000,A,1205.9361,S,07701.4936,W,15.88,204.74,140526,,,A*5F,0
1778778170469385386,$GPGGA,170250.000,1205.9400,S,07701.4952,W,1,07,0.9,154.8,M,8.4,M,,0000*68,0
1778778170590889092,$GPGSA,M,3,05,21,17,14,24,30,11,,,,,,1.9,0.9,1.6*38,0
1778778170758148786,$GPRMC,170250.000,A,1205.9400,S,07701.4952,W,13.63,204.37,140526,,,A*51,0
1778778171470888230,$GPGGA,170251.000,1205.9431,S,07701.4964,W,1,07,0.9,154.5,M,8.4,M,,0000*63,0
1778778171592344876,$GPGSA,M,3,05,21,17,14,24,30,11,,,,,,1.9,0.9,1.6*38,0
1778778171759660816,$GPRMC,170251.000,A,1205.9431,S,07701.4964,W,11.66,205.43,140526,,,A*52,0
1778778172467606297,$GPGGA,170252.000,1205.9460,S,07701.4975,W,1,07,0.9,154.2,M,8.4,M,,0000*63,0
1778778172589056776,$GPGSA,M,3,05,21,17,14,24,30,11,,,,,,1.9,0.9,1.6*38,0
1778778172756417942,$GPRMC,170252.000,A,1205.9460,S,07701.4975,W,11.20,203.98,140526,,,A*57,0
1778778173465353885,$GPGGA,170253.000,1205.9488,S,07701.4987,W,1,06,1.0,154.3,M,8.4,M,,0000*61,0
1778778173582235310,$GPGSA,M,3,05,21,17,14,24,11,,,,,,,2.0,1.0,1.7*38,0
1778778173749535193,$GPRMC,170253.000,A,1205.9488,S,07701.4987,W,11.07,204.47,140526,,,A*5D,0
1778778174465837172,$GPGGA,170254.000,1205.9514,S,07701.4998,W,1,06,1.0,154.5,M,8.4,M,,0000*6A,0
1778778174582703169,$GPGSA,M,3,05,21,17,14,24,11,,,,,,,2.0,1.0,1.7*38,0
1778778174743133526,$GPGSV,3,1,12,05,56,284,35,21,54,343,33,17,30,086,36,14,28,147,20*71,0
1778778174903567531,$GPGSV,3,2,12,24,16,243,17,11,11,351,18,13,47,167,31,30,14,127,04*72,0
1778778175050211385,$GPGSV,3,3,12,44,42,284,32,28,58,151,,26,46,135,,23,32,071,*76,0
1778778175215223389,$GPRMC,170254.000,A,1205.9514,S,07701.4998,W,9.55,207.14,140526,,,A*6B,0
1778778175467322626,$GPGGA,170255.000,1205.9536,S,07701.5011,W,1,06,1.0,154.5,M,8.4,M,,0000*62,0
1778778175584214403,$GPGSA,M,3,05,21,17,14,24,11,,,,,,,2.0,1.0,1.7*38,0
1778778175749211869,$GPRMC,170255.000,A,1205.9536,S,07701.5011,W,9.07,209.27,140526,,,A*6A,0
1778778176466539610,$GPGGA,170256.000,1205.9557,S,07701.5024,W,1,06,1.0,154.6,M,8.4,M,,0000*63,0
1778778176583419127,$GPGSA,M,3,05,21,17,14,24,11,,,,,,,2.0,1.0,1.7*38,0
1778778176748422871,$GPRMC,170256.000,A,1205.9557,S,07701.5024,W,8.99,209.74,140526,,,A*68,0
1778778177465757075,$GPGGA,170257.000,1205.9576,S,07701.5035,W,1,06,1.0,154.5,M,8.4,M,,0000*62,0
1778778177582637370,$GPGSA,M,3,05,21,17,14,24,11,,,,,,,2.0,1.0,1.7*38,0
1778778177747637836,$GPRMC,170257.000,A,1205.9576,S,07701.5035,W,7.41,209.82,140526,,,A*69,0
1778778178466648029,$GPGGA,170258.000,1205.9588,S,07701.5042,W,1,06,1.0,153.6,M,8.4,M,,0000*68,0
1778778178583505118,$GPGSA,M,3,05,21,17,14,24,11,,,,,,,2.0,1.0,1.7*38,0
1778778178748519493,$GPRMC,170258.000,A,1205.9588,S,07701.5042,W,4.81,206.90,140526,,,A*64,0
1778778179473975896,$GPGGA,170259.000,1205.9596,S,07701.5047,W,1,07,0.9,152.7,M,8.4,M,,0000*6A,0
1778778179595442913,$GPGSA,M,3,05,21,17,14,24,30,11,,,,,,1.9,0.9,1.6*38,0
1778778179755870806,$GPGSV,3,1,12,05,56,284,36,21,54,343,36,17,30,086,20,14,28,147,34*75,0
1778778179916291736,$GPGSV,3,2,12,24,16,243,14,30,14,127,16,11,11,351,32,13,47,167,19*70,0
1778778180062945295,$GPGSV,3,3,12,44,42,284,36,28,58,151,,26,46,135,,23,32,071,*72,0
1778778180227991209,$GPRMC,170259.000,A,1205.9596,S,07701.5047,W,3.60,203.81,140526,,,A*62,0
1778778180467572506,$GPGGA,170300.000,1205.9606,S,07701.5050,W,1,06,1.5,152.0,M,8.4,M,,0000*60,0
1778778180584439300,$GPGSA,M,3,05,21,17,14,30,11,,,,,,,2.6,1.5,2.1*3B,0
1778778180749467491,$GPRMC,170300.000,A,1205.9606,S,07701.5050,W,4.48,198.69,140526,,,A*69,0
1778778181468662331,$GPGGA,170301.000,1205.9622,S,07701.5052,W,1,07,0.9,151.5,M,8.4,M,,0000*6F,0
1778778181590123607,$GPGSA,M,3,05,21,17,14,24,30,11,,,,,,1.9,0.9,1.6*38,0
1778778181755126332,$GPRMC,170301.000,A,1205.9622,S,07701.5052,W,6.76,195.25,140526,,,A*66,0
1778778182471625440,$GPGGA,170302.000,1205.9642,S,07701.5055,W,1,07,0.9,150.5,M,8.4,M,,0000*6C,0
1778778182593073067,$GPGSA,M,3,05,21,17,14,24,30,11,,,,,,1.9,0.9,1.6*38,0
1778778182758093016,$GPRMC,170302.000,A,1205.9642,S,07701.5055,W,7.24,195.75,140526,,,A*67,0
1778778183472301856,$GPGGA,170303.000,1205.9663,S,07701.5061,W,1,07,0.9,150.0,M,8.4,M,,0000*6C,0
1778778183593746260,$GPGSA,M,3,05,21,17,14,24,30,11,,,,,,1.9,0.9,1.6*38,0
1778778183758761301,$GPRMC,170303.000,A,1205.9663,S,07701.5061,W,8.34,201.70,140526,,,A*67,0
1778778184467760565,$GPGGA,170304.000,1205.9686,S,07701.5068,W,1,07,0.9,149.6,M,8.4,M,,0000*67,0
1778778184589292403,$GPGSA,M,3,05,21,17,14,24,30,11,,,,,,1.9,0.9,1.6*38,0
1778778184749640196,$GPGSV,3,1,12,05,56,284,44,21,54,343,44,17,30,086,35,14,28,147,37*72,0
1778778184910066145,$GPGSV,3,2,12,24,16,243,12,30,14,127,26,11,11,351,34,13,47,167,19*73,0
1778778185056733724,$GPGSV,3,3,12,44,42,284,41,28,58,151,,26,46,135,,23,32,071,*72,0
1778778185221795102,$GPRMC,170304.000,A,1205.9686,S,07701.5068,W,8.75,202.89,140526,,,A*62,0
1778778185472389144,$GPGGA,170305.000,1205.9707,S,07701.5073,W,1,07,0.9,149.4,M,8.4,M,,0000*66,0
1778778185593839993,$GPGSA,M,3,05,21,17,14,24,30,11,,,,,,1.9,0.9,1.6*38,0
1778778185758862739,$GPRMC,170305.000,A,1205.9707,S,07701.5073,W,7.98,200.46,140526,,,A*6C,0
1778778186472647002,$GPGGA,170306.000,1205.9725,S,07701.5079,W,1,07,0.9,149.2,M,8.4,M,,0000*69,0
1778778186594106982,$GPGSA,M,3,05,21,17,14,24,30,11,,,,,,1.9,0.9,1.6*38,0
1778778186759111985,$GPRMC,170306.000,A,1205.9725,S,07701.5079,W,6.64,195.20,140526,,,A*68,0
1778778187468544586,$GPGGA,170307.000,1205.9744,S,07701.5078,W,1,07,0.9,148.9,M,8.4,M,,0000*64,0
1778778187590022122,$GPGSA,M,3,05,21,17,14,24,30,11,,,,,,1.9,0.9,1.6*38,0
1778778187755065536,$GPRMC,170307.000,A,1205.9744,S,07701.5078,W,6.82,176.81,140526,,,A*61,0
1778778188467540808,$GPGGA,170308.000,1205.9765,S,07701.5066,W,1,07,0.9,147.6,M,8.4,M,,0000*67,0
1778778188589000714,$GPGSA,M,3,05,21,17,14,24,30,11,,,,,,1.9,0.9,1.6*38,0
1778778188754006069,$GPRMC,170308.000,A,1205.9765,S,07701.5066,W,8.77,152.72,140526,,,A*6C,0
1778778188799836416,$PSRF156,23,1,0*09,0
1778778189470712233,$GPGGA,170309.000,1205.9783,S,07701.5043,W,1,07,0.9,146.4,M,8.4,M,,0000*6A,0
1778778189592161452,$GPGSA,M,3,05,21,17,14,24,30,11,,,,,,1.9,0.9,1.6*38,0
1778778189752585345,$GPGSV,3,1,12,05,56,284,44,21,54,343,36,17,30,086,36,14,28,147,43*77,0
1778778189913022388,$GPGSV,3,2,12,24,16,243,10,30,14,127,37,11,11,351,38,13,47,167,21*76,0
1778778190059682373,$GPGSV,3,3,12,44,42,284,43,28,58,151,,26,46,135,,23,32,071,*70,0
1778778190226993979,$GPRMC,170309.000,A,1205.9783,S,07701.5043,W,10.02,127.38,140526,,,A*55,0
1778778190471607206,$GPGGA,170310.000,1205.9798,S,07701.5015,W,1,06,1.6,145.4,M,8.4,M,,0000*67,0
1778778190588465666,$GPGSA,M,3,05,21,17,14,30,11,,,,,,,2.6,1.6,2.1*38,0
1778778190755792829,$GPRMC,170310.000,A,1205.9798,S,07701.5015,W,10.89,119.91,140526,,,A*59,0
1778778191471642174,$GPGGA,170311.000,1205.9813,S,07701.4985,W,1,06,1.6,144.9,M,8.4,M,,0000*67,0
1778778191588524821,$GPGSA,M,3,05,21,17,14,30,11,,,,,,,2.6,1.6,2.1*38,0
1778778191755813647,$GPRMC,170311.000,A,1205.9813,S,07701.4985,W,11.73,119.56,140526,,,A*5A,0
1778778192478773633,$GPGGA,170312.000,1205.9830,S,07701.4952,W,1,06,1.6,144.7,M,8.4,M,,0000*61,0
1778778192595641112,$GPGSA,M,3,05,21,17,14,30,11,,,,,,,2.6,1.6,2.1*38,0
1778778192762947088,$GPRMC,170312.000,A,1205.9830,S,07701.4952,W,12.65,118.41,140526,,,A*51,0
1778778193471519201,$GPGGA,170313.000,1205.9847,S,07701.4918,W,1,06,1.6,144.7,M,8.4,M,,0000*6E,0
1778778193588404034,$GPGSA,M,3,05,21,17,14,30,11,,,,,,,2.6,1.6,2.1*38,0
1778778193755690953,$GPRMC,170313.000,A,1205.9847,S,07701.4918,W,13.49,117.58,140526,,,A*56,0
1778778194469279513,$GPGGA,170314.000,1205.9866,S,07701.4882,W,1,06,1.6,144.5,M,8.4,M,,0000*6A,0
1778778194586155122,$GPGSA,M,3,05,21,17,14,30,11,,,,,,,2.6,1.6,2.1*38,0
1778778194746576774,$GPGSV,3,1,12,05,56,284,45,21,54,343,40,17,30,086,31,14,28,147,42*71,0
1778778194906996352,$GPGSV,3,2,12,30,14,127,39,11,11,351,21,13,47,167,35,24,16,243,21*77,0
1778778195053676654,$GPGSV,3,3,12,44,42,284,46,28,58,151,,26,46,135,,23,32,071,*75,0
1778778195221036728,$GPRMC,170314.000,A,1205.9866,S,07701.4882,W,13.76,117.77,140526,,,A*51,0
1778778195474324705,$GPGGA,170315.000,1205.9883,S,07701.4846,W,1,07,0.9,144.7,M,8.4,M,,0000*65,0
1778778195595791833,$GPGSA,M,3,05,21,17,14,24,30,11,,,,,,1.9,0.9,1.6*38,0
1778778195763099958,$GPRMC,170315.000,A,1205.9883,S,07701.4846,W,13.27,116.89,140526,,,A*57,0
1778778196472712204,$GPGGA,170316.000,1205.9900,S,07701.4812,W,1,07,0.9,144.6,M,8.4,M,,0000*6C,0
1778778196594216262,$GPGSA,M,3,05,21,17,14,24,30,11,,,,,,1.9,0.9,1.6*38,0
1778778196761459584,$GPRMC,170316.000,A,1205.9900,S,07701.4812,W,12.87,115.13,140526,,,A*54,0
1778778197477763600,$GPGGA,170317.000,1205.9914,S,07701.4779,W,1,07,0.9,144.8,M,8.4,M,,0000*64,0
1778778197599212819,$GPGSA,M,3,05,21,17,14,24,30,11,,,,,,1.9,0.9,1.6*38,0
1778778197766515684,$GPRMC,170317.000,A,1205.9914,S,07701.4779,W,11.62,115.12,140526,,,A*5B,0
1778778198470510058,$GPGGA,170318.000,1205.9927,S,07701.4750,W,1,07,0.9,144.9,M,8.4,M,,0000*61,0
1778778198591980482,$GPGSA,M,3,05,21,17,14,24,30,11,,,,,,1.9,0.9,1.6*38,0
1778778198759258067,$GPRMC,170318.000,A,1205.9927,S,07701.4750,W,10.34,114.70,140526,,,A*58,0
1778778199474091095,$GPGGA,170319.000,1205.9939,S,07701.4722,W,1,07,0.9,145.2,M,8.4,M,,0000*60,0
1778778199595561242,$GPGSA,M,3,05,21,17,14,24,30,11,,,,,,1.9,0.9,1.6*38,0
1778778199755970615,$GPGSV,3,1,12,05,56,284,45,21,54,343,40,17,30,086,37,14,28,147,42*77,0
1778778199916429270,$GPGSV,3,2,12,24,16,243,34,30,14,127,36,11,11,351,19,13,47,167,32*70,0
1778778200063085385,$GPGSV,3,3,12,44,42,284,46,28,58,151,,26,46,135,,23,32,071,*75,0
1778778200230385990,$GPRMC,170319.000,A,1205.9939,S,07701.4722,W,10.36,112.85,140526,,,A*5D,0
1778778200474558047,$GPGGA,170320.000,1205.9951,S,07701.4695,W,1,07,0.9,145.4,M,8.4,M,,0000*6F,0
1778778200596047473,$GPGSA,M,3,05,21,17,14,24,30,11,,,,,,1.9,0.9,1.6*38,0
1778778200761039253,$GPRMC,170320.000,A,1205.9951,S,07701.4695,W,9.78,112.78,140526,,,A*64,0
1778778201474194014,$GPGGA,170321.000,1205.9961,S,07701.4669,W,1,07,0.9,146.2,M,8.4,M,,0000*6B,0
1778778201595649882,$GPGSA,M,3,05,21,17,14,24,30,11,,,,,,1.9,0.9,1.6*38,0
1778778201760668386,$GPRMC,170321.000,A,1205.9961,S,07701.4669,W,9.05,113.97,140526,,,A*6F,0
1778778202474651483,$GPGGA,170322.000,1205.9972,S,07701.4645,W,1,07,0.9,146.1,M,8.4,M,,0000*67,0
1778778202596116000,$GPGSA,M,3,05,21,17,14,24,30,11,,,,,,1.9,0.9,1.6*38,0
1778778202761133394,$GPRMC,170322.000,A,1205.9972,S,07701.4645,W,8.78,115.31,140526,,,A*61,0
1778778203474506008,$GPGGA,170323.000,1205.9982,S,07701.4623,W,1,07,0.9,146.5,M,8.4,M,,0000*6D,0
1778778203595959357,$GPGSA,M,3,05,21,17,14,24,30,11,,,,,,1.9,0.9,1.6*38,0
1778778203760958767,$GPRMC,170323.000,A,1205.9982,S,07701.4623,W,8.14,116.45,140526,,,A*65,0
1778778204471010888,$GPGGA,170324.000,1205.9993,S,07701.4603,W,1,07,0.9,146.6,M,8.4,M,,0000*6B,0
1778778204592463274,$GPGSA,M,3,05,21,17,14,24,30,11,,,,,,1.9,0.9,1.6*38,0
1778778204752891649,$GPGSV,3,1,12,05,56,287,45,21,52,344,42,17,30,088,36,14,27,147,40*75,0
