Unix_time,GPS_data,flagStop
1778778764811793166,$GPGSV,3,1,12,05,54,295,46,21,48,346,45,17,30,093,45,14,23,146,33*76,0
1778778801087623756,$GPGSV,3,2,12,24,18,238,38,30,12,122,30,11,09,356,26,13,51,160,42*7E,0
1778778801088336803,$GPGSV,3,3,12,44,42,284,34,28,52,153,,26,47,127,,23,29,066,*76,0
1778778801088980956,$GPRMC,171244.000,A,1205.9940,S,07701.4522,W,0.90,294.61,140526,,,A*63,0
1778778801089696818,$GPGGA,171245.000,1205.9940,S,07701.4524,W,1,07,0.9,146.8,M,8.4,M,,0000*6A,0
1778778801090018996,$GPGSA,M,3,05,21,17,14,24,30,11,,,,,,2.0,0.9,1.7*33,0
1778778801090119895,$GPRMC,171245.000,A,1205.9940,S,07701.4524,W,0.75,294.61,140526,,,A*6F,0
1778778801090255759,$GPGGA,171246.000,1205.9940,S,07701.4525,W,1,07,0.9,146.8,M,8.4,M,,0000*68,0
1778778801090399958,$GPGSA,M,3,05,21,17,14,24,30,11,,,,,,2.0,0.9,1.7*33,0
1778778801090500041,$GPRMC,171246.000,A,1205.9940,S,07701.4525,W,0.21,294.61,140526,,,A*6C,0
1778778801090635943,$GPGGA,171247.000,1205.9940,S,07701.4525,W,1,07,0.9,146.8,M,8.4,M,,0000*69,0
1778778801090779678,$GPGSA,M,3,05,21,17,14,24,30,11,,,,,,2.0,0.9,1.7*33,0
1778778801090880058,$GPRMC,171247.000,A,1205.9940,S,07701.4525,W,0.19,294.61,140526,,,A*66,0
1778778801091016052,$GPGGA,171248.000,1205.9940,S,07701.4526,W,1,07,0.9,146.8,M,8.4,M,,0000*65,0
1778778801091159899,$GPGSA,M,3,05,21,17,14,24,30,11,,,,,,2.0,0.9,1.7*33,0
1778778801091260519,$GPRMC,171248.000,A,1205.9940,S,07701.4526,W,0.21,294.61,140526,,,A*61,0
1778778801091397106,$GPGGA,171249.000,1205.9940,S,07701.4526,W,1,07,0.9,146.8,M,8.4,M,,0000*64,0
1778778801091541064,$GPGSA,M,3,05,21,17,14,24,30,11,,,,,,2.0,0.9,1.7*33,0
1778778801091641425,$GPGSV,3,1,12,05,54,295,46,21,48,346,46,17,30,093,42,14,23,146,38*79,0
1778778801091774567,$GPGSV,3,2,12,24,18,238,38,30,12,122,30,11,09,356,22,13,51,160,41*79,0
1778778801091906875,$GPGSV,3,3,12,44,42,284,29,28,52,153,,26,47,127,,23,29,066,*7A,0
1778778801092027701,$GPRMC,171249.000,A,1205.9940,S,07701.4526,W,0.24,294.61,140526,,,A*65,0
1778778801092163473,$GPGGA,171250.000,1205.9940,S,07701.4527,W,1,07,0.9,146.7,M,8.4,M,,0000*62,0
1778778801093104653,$GPGSA,M,3,05,21,17,14,24,30,11,,,,,,2.0,0.9,1.7*33,0
1778778801093630146,$GPRMC,171250.000,A,1205.9940,S,07701.4527,W,0.27,294.61,140526,,,A*6F,0
1778778801094344565,$GPGGA,171251.000,1205.9940,S,07701.4528,W,1,07,0.9,146.8,M,8.4,M,,0000*63,0
1778778801095098894,$GPGSA,M,3,05,21,17,14,24,30,11,,,,,,2.0,0.9,1.7*33,0
1778778801095623850,$GPRMC,171251.000,A,1205.9940,S,07701.4528,W,0.40,294.61,140526,,,A*60,0
1778778801096345473,$GPGGA,171252.000,1205.9939,S,07701.4529,W,1,07,0.9,146.7,M,8.4,M,,0000*60,0
1778778801097097098,$GPGSA,M,3,05,21,17,14,24,30,11,,,,,,2.0,0.9,1.7*33,0
1778778801097621480,$GPRMC,171252.000,A,1205.9939,S,07701.4529,W,0.49,294.61,140526,,,A*65,0
1778778801098334194,$GPGGA,171253.000,1205.9939,S,07701.4530,W,1,07,0.9,146.7,M,8.4,M,,0000*69,0
1778778801099085634,$GPGSA,M,3,05,21,17,14,24,30,11,,,,,,2.0,0.9,1.7*33,0
1778778801099608961,$GPRMC,171253.000,A,1205.9939,S,07701.4530,W,0.08,294.61,140526,,,A*69,0
1778778801100331861,$GPGGA,171254.000,1205.9939,S,07701.4530,W,1,07,0.9,146.6,M,8.4,M,,0000*6F,0
1778778801101083857,$GPGSA,M,3,05,21,17,14,24,30,11,,,,,,2.0,0.9,1.7*33,0
1778778801101600905,$GPGSV,3,1,12,05,54,295,46,21,48,346,45,17,30,093,43,14,23,146,32*71,0
1778778801102279042,$GPGSV,3,2,12,24,18,238,37,30,12,122,30,11,09,356,22,13,51,160,40*77,0
1778778801102956253,$GPGSV,3,3,12,44,42,284,36,28,52,153,,26,47,127,,23,29,066,*74,0
1778778801103576292,$GPRMC,171254.000,A,1205.9939,S,07701.4530,W,0.00,294.61,140526,,,A*66,0
1778778801104275598,$GPGGA,171255.000,1205.9939,S,07701.4530,W,1,07,0.9,146.6,M,8.4,M,,0000*6E,0
1778778801105007388,$GPGSA,M,3,05,21,17,14,24,30,11,,,,,,2.0,0.9,1.7*33,0
1778778801105519213,$GPRMC,171255.000,A,1205.9939,S,07701.4530,W,0.00,294.61,140526,,,A*67,0
1778778801106212555,$GPGGA,171256.000,1205.9939,S,07701.4530,W,1,07,0.9,146.5,M,8.4,M,,0000*6E,0
1778778801106944957,$GPGSA,M,3,05,21,17,14,24,30,11,,,,,,2.0,0.9,1.7*33,0
1778778801107454967,$GPRMC,171256.000,A,1205.9939,S,07701.4530,W,0.22,294.61,140526,,,A*64,0
1778778801108148402,$GPGGA,171257.000,1205.9939,S,07701.4530,W,1,07,0.9,146.5,M,8.4,M,,0000*6F,0
1778778801109039558,$GPGSA,M,3,05,21,17,14,24,30,11,,,,,,2.0,0.9,1.7*33,0
1778778801109554680,$GPRMC,171257.000,A,1205.9939,S,07701.4530,W,0.01,294.61,140526,,,A*64,0
1778778801110245115,$GPGGA,171258.000,1205.9939,S,07701.4530,W,1,07,0.9,146.5,M,8.4,M,,0000*60,0
1778778801110408204,$GPGSA,M,3,05,21,17,14,24,30,11,,,,,,2.0,0.9,1.7*33,0
1778778801110508584,$GPRMC,171258.000,A,1205.9939,S,07701.4530,W,0.00,294.61,140526,,,A*6A,0
1778778801110644967,$GPGGA,171259.000,1205.9939,S,07701.4530,W,1,07,0.9,146.5,M,8.4,M,,0000*61,0
1778778801110788665,$GPGSA,M,3,05,21,17,14,24,30,11,,,,,,2.0,0.9,1.7*33,0
1778778801110889082,$GPGSV,3,1,12,05,54,295,46,21,48,346,44,17,30,093,43,14,23,146,36*74,0
1778778801111021391,$GPGSV,3,2,12,24,18,238,37,30,12,122,30,11,09,356,28,13,51,160,41*7C,0
1778778801111153236,$GPGSV,3,3,12,44,42,284,38,28,52,153,,26,47,127,,23,29,066,*7A,0
1778778801111273821,$GPRMC,171259.000,A,1205.9939,S,07701.4530,W,0.00,294.61,140526,,,A*6B,0
1778778801111409575,$GPGGA,171300.000,1205.9939,S,07701.4530,W,1,07,0.9,146.5,M,8.4,M,,0000*6C,0
1778778801111552421,$GPGSA,M,3,05,21,17,14,24,30,11,,,,,,2.0,0.9,1.7*33,0
1778778801111652542,$GPRMC,171300.000,A,1205.9939,S,07701.4530,W,0.00,294.61,140526,,,A*66,0
1778778801111788147,$GPGGA,171301.000,1205.9939,S,07701.4530,W,1,07,0.9,146.5,M,8.4,M,,0000*6D,0
1778778801111931012,$GPGSA,M,3,05,21,17,14,24,30,11,,,,,,2.0,0.9,1.7*33,0
1778778801112030947,$GPRMC,171301.000,A,1205.9939,S,07701.4530,W,0.00,294.61,140526,,,A*67,0
1778778801112166404,$GPGGA,171302.000,1205.9939,S,07701.4530,W,1,07,0.9,146.5,M,8.4,M,,0000*6E,0
1778778801113032429,$GPGSA,M,3,05,21,17,14,24,30,11,,,,,,2.0,0.9,1.7*33,0
1778778801113548514,$GPRMC,171302.000,A,1205.9939,S,07701.4530,W,0.00,294.61,140526,,,A*64,0
1778778801114249005,$GPGGA,171303.000,1205.9939,S,07701.4530,W,1,07,0.9,146.7,M,8.4,M,,0000*6D,0
1778778801114963386,$GPGSA,M,3,05,21,17,14,24,30,11,,,,,,2.0,0.9,1.7*33,0
1778778801115454895,$GPRMC,171303.000,A,1205.9939,S,07701.4530,W,0.05,294.61,140526,,,A*60,0
1778778801116121846,$GPGGA,171304.000,1205.9939,S,07701.4530,W,1,07,0.9,146.7,M,8.4,M,,0000*6A,0
1778778801116832282,$GPGSA,M,3,05,21,17,14,24,30,11,,,,,,2.0,0.9,1.7*33,0
1778778801117324309,$GPGSV,3,1,12,05,54,295,46,21,48,346,44,17,30,093,44,14,23,146,37*72,0
1778778801117698510,$GPGSV,3,2,12,24,18,238,37,30,12,122,29,11,09,356,28,13,51,160,42*77,0
1778778801117830782,$GPGSV,3,3,12,44,42,284,38,28,52,153,,26,47,127,,23,29,066,*7A,0
1778778801117951497,$GPRMC,171304.000,A,1205.9939,S,07701.4530,W,0.00,294.61,140526,,,A*62,0
1778778801118087454,$GPGGA,171305.000,1205.9939,S,07701.4530,W,1,07,0.9,146.7,M,8.4,M,,0000*6B,0
1778778801118229986,$GPGSA,M,3,05,21,17,14,24,30,11,,,,,,2.0,0.9,1.7*33,0
1778778801118330310,$GPRMC,171305.000,A,1205.9939,S,07701.4530,W,0.00,294.61,140526,,,A*63,0
1778778801118466471,$GPGGA,171306.000,1205.9939,S,07701.4530,W,1,07,0.9,146.9,M,8.4,M,,0000*66,0
1778778801118610484,$GPGSA,M,3,05,21,17,14,24,30,11,,,,,,2.0,0.9,1.7*33,0
1778778801118711253,$GPRMC,171306.000,A,1205.9939,S,07701.4530,W,0.05,294.61,140526,,,A*65,0
1778778801118847210,$GPGGA,171307.000,1205.9939,S,07701.4530,W,1,07,0.9,146.9,M,8.4,M,,0000*67,0
1778778801118991816,$GPGSA,M,3,05,21,17,14,24,30,11,,,,,,2.0,0.9,1.7*33,0
1778778801119092529,$GPRMC,171307.000,A,1205.9939,S,07701.4530,W,0.00,294.61,140526,,,A*61,0
1778778801119228782,$GPGGA,171308.000,1205.9939,S,07701.4530,W,1,07,0.9,146.9,M,8.4,M,,0000*68,0
1778778801119372944,$GPGSA,M,3,05,21,17,14,24,30,11,,,,,,2.0,0.9,1.7*33,0
1778778801119473527,$GPRMC,171308.000,A,1205.9939,S,07701.4530,W,0.00,294.61,140526,,,A*6E,0
1778778801119610132,$GPGGA,171309.000,1205.9939,S,07701.4530,W,1,07,0.9,146.9,M,8.4,M,,0000*69,0
1778778801119754442,$GPGSA,M,3,05,21,17,14,24,30,11,,,,,,2.0,0.9,1.7*33,0
1778778801119855229,$GPGSV,3,1,12,05,54,295,47,21,48,346,44,17,30,093,43,14,23,146,37*74,0
1778778801119988149,$GPGSV,3,2,12,24,18,238,37,30,12,122,28,11,09,356,28,06,00,032,16*71,0
1778778801120120735,$GPGSV,3,3,12,13,51,160,42,44,42,284,38,28,52,153,,26,47,127,*77,0
1778778801120291973,$GPRMC,171309.000,A,1205.9939,S,07701.4530,W,0.00,294.61,140526,,,A*6F,0
1778778801120427949,$PSRF156,23,1,0*09,0
1778778801120466730,$GPGGA,171310.000,1205.9939,S,07701.4530,W,1,07,0.9,146.9,M,8.4,M,,0000*61,0
1778778801120611577,$GPGSA,M,3,05,21,17,14,24,30,11,,,,,,2.0,0.9,1.7*33,0
1778778801120712679,$GPRMC,171310.000,A,1205.9939,S,07701.4530,W,0.00,294.61,140526,,,A*67,0
1778778801120850229,$GPGGA,171311.000,1205.9939,S,07701.4530,W,1,07,0.9,146.9,M,8.4,M,,0000*60,0
1778778801120995594,$GPGSA,M,3,05,21,17,14,24,30,11,,,,,,2.0,0.9,1.7*33,0
1778778801121097159,$GPRMC,171311.000,A,1205.9939,S,07701.4530,W,0.00,294.61,140526,,,A*66,0
1778778801121234746,$GPGGA,171312.000,1205.9939,S,07701.4530,W,1,07,0.9,146.9,M,8.4,M,,0000*63,0
1778778801121379815,$GPGSA,M,3,05,21,17,14,24,30,11,,,,,,2.0,0.9,1.7*33,0
1778778801121481195,$GPRMC,171312.000,A,1205.9939,S,07701.4530,W,0.00,294.61,140526,,,A*65,0
1778778801121618652,$GPGGA,171313.000,1205.9939,S,07701.4530,W,1,07,0.9,146.9,M,8.4,M,,0000*62,0
1778778801121763499,$GPGSA,M,3,05,21,17,14,24,30,11,,,,,,2.0,0.9,1.7*33,0
1778778801121864119,$GPRMC,171313.000,A,1205.9939,S,07701.4530,W,0.00,294.61,140526,,,A*64,0
1778778801122001354,$GPGGA,171314.000,1205.9940,S,07701.4530,W,1,07,0.9,146.9,M,8.4,M,,0000*6B,0
1778778801122146183,$GPGSA,M,3,05,21,17,14,24,30,11,,,,,,2.0,0.9,1.7*33,0
1778778801122247211,$GPGSV,3,1,12,05,54,295,47,21,48,346,43,17,30,093,43,14,23,146,37*73,0
1778778801122380686,$GPGSV,3,2,12,24,18,238,37,30,12,122,21,11,09,356,29,13,51,160,42*7E,0
1778778801122514198,$GPGSV,3,3,12,44,42,284,38,28,52,153,,26,47,127,,23,29,066,*7A,0
1778778801122636376,$GPRMC,171314.000,A,1205.9940,S,07701.4530,W,0.00,294.61,140526,,,A*6D,0
1778778801122773630,$GPGGA,171315.000,1205.9940,S,07701.4530,W,1,07,0.9,146.9,M,8.4,M,,0000*6A,0
1778778801122918773,$GPGSA,M,3,05,21,17,14,24,30,11,,,,,,2.0,0.9,1.7*33,0
1778778801123019912,$GPRMC,171315.000,A,1205.9940,S,07701.4530,W,0.00,294.61,140526,,,A*6C,0
1778778801123157388,$GPGGA,171316.000,1205.9940,S,07701.4530,W,1,07,0.9,147.0,M,8.4,M,,0000*61,0
1778778801123302420,$GPGSA,M,3,05,21,17,14,24,30,11,,,,,,2.0,0.9,1.7*33,0
1778778801123403855,$GPRMC,171316.000,A,1205.9940,S,07701.4530,W,0.00,294.61,140526,,,A*6F,0
1778778801123541405,$GPGGA,171317.000,1205.9940,S,07701.4530,W,1,07,0.9,147.0,M,8.4,M,,0000*60,0
1778778801123686307,$GPGSA,M,3,05,21,17,14,24,30,11,,,,,,2.0,0.9,1.7*33,0
1778778801123787576,$GPRMC,171317.000,A,1205.9940,S,07701.4530,W,0.00,294.61,140526,,,A*6E,0
1778778801123925014,$GPGGA,171318.000,1205.9940,S,07701.4530,W,1,07,0.9,147.0,M,8.4,M,,0000*6F,0
1778778801124069695,$GPGSA,M,3,05,21,17,14,24,30,11,,,,,,2.0,0.9,1.7*33,0
1778778801124170852,$GPRMC,171318.000,A,1205.9940,S,07701.4530,W,0.00,294.61,140526,,,A*61,0
1778778801124324274,$GPGGA,171319.000,1205.9940,S,07701.4530,W,1,07,0.9,147.0,M,8.4,M,,0000*6E,0
1778778801124468917,$GPGSA,M,3,05,21,17,14,24,30,11,,,,,,2.0,0.9,1.7*33,0
1778778801124569926,$GPGSV,3,1,12,05,54,295,47,21,48,346,43,17,30,093,42,14,23,146,38*7D,0
1778778801124703198,$GPGSV,3,2,12,24,18,238,37,30,12,122,22,11,09,356,29,06,00,032,18*74,0
1778778801124836488,$GPGSV,3,3,12,13,51,160,42,44,42,284,38,28,52,153,,26,47,127,*77,0
1778778801124962092,$GPRMC,171319.000,A,1205.9940,S,07701.4530,W,0.00,294.61,140526,,,A*60,0
1778778801125099198,$GPGGA,171320.000,1205.9940,S,07701.4530,W,1,07,0.9,147.0,M,8.4,M,,0000*64,0
1778778801125244341,$GPGSA,M,3,05,21,17,14,24,30,11,,,,,,2.0,0.9,1.7*33,0
1778778801125347998,$GPRMC,171320.000,A,1205.9940,S,07701.4530,W,0.00,294.61,140526,,,A*6A,0
1778778801537907983,$GPGGA,171321.000,1205.9940,S,07701.4530,W,1,07,0.9,147.0,M,8.4,M,,0000*65,0
1778778801659382075,$GPGSA,M,3,05,21,17,14,24,30,11,,,,,,2.0,0.9,1.7*33,0
1778778801824361817,$GPRMC,171321.000,A,1205.9940,S,07701.4530,W,0.00,294.61,140526,,,A*6B,0
1778778802537537339,$GPGGA,171322.000,1205.9940,S,07701.4530,W,1,07,0.9,147.0,M,8.4,M,,0000*66,0
1778778802658979317,$GPGSA,M,3,05,21,17,14,24,30,11,,,,,,2.0,0.9,1.7*33,0
1778778802824036714,$GPRMC,171322.000,A,1205.9940,S,07701.4530,W,0.00,294.61,140526,,,A*68,0
1778778803535332209,$GPGGA,171323.000,1205.9940,S,07701.4530,W,1,06,1.0,147.1,M,8.4,M,,0000*6F,1
1778778803652170556,$GPGSA,M,3,05,21,17,14,24,11,,,,,,,2.1,1.0,1.8*36,1
1778778803817214859,$GPRMC,171323.000,A,1205.9940,S,07701.4530,W,0.00,294.61,140526,,,A*69,1
1778778804537634906,$GPGGA,171324.000,1205.9940,S,07701.4530,W,1,06,1.0,147.1,M,8.4,M,,0000*68,1
1778778804654538203,$GPGSA,M,3,05,21,17,14,24,11,,,,,,,2.1,1.0,1.8*36,1
1778778804814965577,$GPGSV,3,1,12,05,54,295,47,21,48,346,43,17,30,093,42,14,23,146,38*7D,1
1778778804975364338,$GPGSV,3,2,12,24,18,238,36,11,09,356,29,06,00,032,18,13,51,160,41*70,1
1778778805126655809,$GPGSV,3,3,12,30,12,122,08,44,42,284,38,28,52,153,,26,47,127,*79,1
1778778805291637422,$GPRMC,171324.000,A,1205.9940,S,07701.4530,W,0.00,294.61,140526,,,A*6E,1
1778778805535374882,$GPGGA,171325.000,1205.9940,S,07701.4530,W,1,06,1.0,147.1,M,8.4,M,,0000*69,1
1778778805652279920,$GPGSA,M,3,05,21,17,14,24,11,,,,,,,2.1,1.0,1.8*36,1
1778778805817268255,$GPRMC,171325.000,A,1205.9940,S,07701.4530,W,0.00,294.61,140526,,,A*6F,1
1778778806538191459,$GPGGA,171326.000,1205.9940,S,07701.4530,W,1,06,1.0,147.1,M,8.4,M,,0000*6A,1
1778778806655026713,$GPGSA,M,3,05,21,17,14,24,11,,,,,,,2.1,1.0,1.8*36,1
1778778806820069665,$GPRMC,171326.000,A,1205.9940,S,07701.4530,W,0.00,294.61,140526,,,A*6C,1
1778778807538821408,$GPGGA,171327.000,1205.9940,S,07701.4530,W,1,07,0.9,147.1,M,8.4,M,,0000*62,1
1778778807660262423,$GPGSA,M,3,05,21,17,14,24,30,11,,,,,,2.0,0.9,1.7*33,1
1778778807825313319,$GPRMC,171327.000,A,1205.9940,S,07701.4530,W,0.00,294.61,140526,,,A*6D,1
1778778808538241651,$GPGGA,171328.000,1205.9940,S,07701.4530,W,1,07,0.9,147.1,M,8.4,M,,0000*6D,1
1778778808659687389,$GPGSA,M,3,05,21,17,14,24,30,11,,,,,,2.0,0.9,1.7*33,1
1778778808824735118,$GPRMC,171328.000,A,1205.9940,S,07701.4530,W,0.00,294.61,140526,,,A*62,1
1778778809537237837,$GPGGA,171329.000,1205.9940,S,07701.4529,W,1,07,0.9,147.1,M,8.4,M,,0000*64,1
1778778809658686001,$GPGSA,M,3,05,21,17,14,24,30,11,,,,,,2.0,0.9,1.7*33,1
1778778809819196994,$GPGSV,3,1,12,05,54,295,47,21,48,346,43,17,30,093,43,14,23,146,38*7C,1
1778778809979581828,$GPGSV,3,2,12,24,18,238,35,30,12,122,16,11,09,356,28,13,51,160,41*7A,1
1778778810126259352,$GPGSV,3,3,12,44,42,284,38,28,52,153,,26,47,127,,23,29,066,*7A,1
1778778810291303859,$GPRMC,171329.000,A,1205.9940,S,07701.4529,W,0.05,294.61,140526,,,A*6E,1
1778778810538535292,$GPGGA,171330.000,1205.9940,S,07701.4529,W,1,07,0.9,147.1,M,8.4,M,,0000*6C,1
1778778810660003809,$GPGSA,M,3,05,21,17,14,24,30,11,,,,,,2.0,0.9,1.7*33,1
1778778810825041167,$GPRMC,171330.000,A,1205.9940,S,07701.4529,W,0.00,294.61,140526,,,A*63,1
1778778811538215208,$GPGGA,171331.000,1205.9940,S,07701.4529,W,1,07,0.9,147.1,M,8.4,M,,0000*6D,1
1778778811659619664,$GPGSA,M,3,05,21,17,14,24,30,11,,,,,,2.0,0.9,1.7*33,1
1778778811824678524,$GPRMC,171331.000,A,1205.9940,S,07701.4529,W,0.00,294.61,140526,,,A*62,1
1778778812540088975,$GPGGA,171332.000,1205.9940,S,07701.4529,W,1,07,0.9,147.1,M,8.4,M,,0000*6E,1
1778778812661541917,$GPGSA,M,3,05,21,17,14,24,30,11,,,,,,2.0,0.9,1.7*33,1
1778778812826586517,$GPRMC,171332.000,A,1205.9940,S,07701.4529,W,0.00,294.61,140526,,,A*61,1
1778778813538459918,$GPGGA,171333.000,1205.9940,S,07701.4529,W,1,07,0.9,147.1,M,8.4,M,,0000*6F,1
1778778813659977569,$GPGSA,M,3,05,21,17,14,24,30,11,,,,,,2.0,0.9,1.7*33,1
1778778813824955237,$GPRMC,171333.000,A,1205.9940,S,07701.4529,W,0.00,294.61,140526,,,A*60,1
1778778814539572967,$GPGGA,171334.000,1205.9940,S,07701.4529,W,1,07,0.9,147.1,M,8.4,M,,0000*68,1
1778778814661027390,$GPGSA,M,3,05,21,17,14,24,30,11,,,,,,2.0,0.9,1.7*33,1
1778778814821460136,$GPGSV,3,1,12,05,54,295,47,21,48,346,43,17,30,093,42,14,23,146,38*7D,1
1778778814981858915,$GPGSV,3,2,12,24,18,238,34,30,12,122,16,11,09,356,27,06,00,032,18*7E,1
1778778815133143237,$GPGSV,3,3,12,13,51,160,41,44,42,284,37,28,52,153,,26,47,127,*7B,1
1778778815298126442,$GPRMC,171334.000,A,1205.9940,S,07701.4529,W,0.00,294.61,140526,,,A*67,1
1778778815535237121,$GPGGA,171335.000,1205.9940,S,07701.4529,W,1,07,0.9,147.1,M,8.4,M,,0000*69,1
1778778815656769903,$GPGSA,M,3,05,21,17,14,24,30,11,,,,,,2.0,0.9,1.7*33,1
1778778815824263341,$GPRMC,171335.000,A,1205.9940,S,07701.4529,W,0.00,294.61,140526,,,A*66,1
1778778816539676812,$GPGGA,171336.000,1205.9940,S,07701.4529,W,1,07,0.9,147.1,M,8.4,M,,0000*6A,1
1778778816661156330,$GPGSA,M,3,05,21,17,14,24,30,11,,,,,,2.0,0.9,1.7*33,1
1778778816826129201,$GPRMC,171336.000,A,1205.9940,S,07701.4529,W,0.00,294.61,140526,,,A*65,1
1778778817536066274,$GPGGA,171337.000,1205.9940,S,07701.4529,W,1,07,0.9,147.1,M,8.4,M,,0000*6B,1
1778778817657455543,$GPGSA,M,3,05,21,17,14,24,30,11,,,,,,2.0,0.9,1.7*33,1
1778778817822434433,$GPRMC,171337.000,A,1205.9940,S,07701.4529,W,0.00,294.61,140526,,,A*64,1
1778778818535796713,$GPGGA,171338.000,1205.9940,S,07701.4529,W,1,07,0.9,147.1,M,8.4,M,,0000*64,1
1778778818657327069,$GPGSA,M,3,05,21,17,14,24,30,11,,,,,,2.0,0.9,1.7*33,1
1778778818822276067,$GPRMC,171338.000,A,1205.9940,S,07701.4529,W,0.00,294.61,140526,,,A*6B,1
1778778819540041553,$GPGGA,171339.000,1205.9940,S,07701.4529,W,1,07,0.9,147.1,M,8.4,M,,0000*65,1
1778778819661580502,$GPGSA,M,3,05,21,17,14,24,30,11,,,,,,2.0,0.9,1.7*33,1
1778778819821922925,$GPGSV,3,1,12,05,54,295,47,21,48,346,43,17,30,093,42,14,23,146,37*72,1
1778778819982331223,$GPGSV,3,2,12,24,18,238,33,30,12,122,24,11,09,356,28,13,51,160,40*7C,1
1778778820128994357,$GPGSV,3,3,12,44,42,284,38,28,52,153,,26,47,127,,23,29,066,*7A,1
1778778820294003713,$GPRMC,171339.000,A,1205.9940,S,07701.4529,W,0.00,294.61,140526,,,A*6A,1
1778778820540098615,$GPGGA,171340.000,1205.9940,S,07701.4529,W,1,07,0.9,147.1,M,8.4,M,,0000*6B,1
1778778820661557149,$GPGSA,M,3,05,21,17,14,24,30,11,,,,,,2.0,0.9,1.7*33,1
1778778820826549170,$GPRMC,171340.000,A,1205.9940,S,07701.4529,W,0.00,294.61,140526,,,A*64,1
1778778821539710894,$GPGGA,171341.000,1205.9940,S,07701.4529,W,1,07,0.9,147.1,M,8.4,M,,0000*6A,1
1778778821661182430,$GPGSA,M,3,05,21,17,14,24,30,11,,,,,,2.0,0.9,1.7*33,1
1778778821826149190,$GPRMC,171341.000,A,1205.9940,S,07701.4529,W,0.00,294.61,140526,,,A*65,1
1778778822537025961,$GPGGA,171342.000,1205.9940,S,07701.4529,W,1,07,0.9,147.1,M,8.4,M,,0000*69,1
1778778822658484033,$GPGSA,M,3,05,21,17,14,24,30,11,,,,,,2.0,0.9,1.7*33,1
1778778822823488499,$GPRMC,171342.000,A,1205.9940,S,07701.4529,W,0.00,294.61,140526,,,A*66,1
1778778823537522360,$GPGGA,171343.000,1205.9940,S,07701.4529,W,1,07,0.9,147.1,M,8.4,M,,0000*68,1
1778778823658936020,$GPGSA,M,3,05,21,17,14,24,30,11,,,,,,2.0,0.9,1.7*33,1
1778778823823947135,$GPRMC,171343.000,A,1205.9940,S,07701.4529,W,0.00,294.61,140526,,,A*67,1
1778778824544629762,$GPGGA,171344.000,1205.9940,S,07701.4529,W,1,07,0.9,147.1,M,8.4,M,,0000*6F,1
1778778824666066665,$GPGSA,M,3,05,21,17,14,24,30,11,,,,,,2.0,0.9,1.7*33,1
1778778824826497595,$GPGSV,3,1,12,05,54,295,47,21,48,346,43,17,30,093,43,14,23,146,37*73,1
1778778824986919970,$GPGSV,3,2,12,24,18,238,33,30,12,122,24,11,09,356,27,06,00,032,17*77,1
1778778825138181882,$GPGSV,3,3,12,13,51,160,40,44,42,284,38,28,52,153,,26,47,127,*75,1
1778778825303197072,$GPRMC,171344.000,A,1205.9940,S,07701.4529,W,0.00,294.61,140526,,,A*60,1
1778778825539656375,$GPGGA,171345.000,1205.9940,S,07701.4529,W,1,07,0.9,147.1,M,8.4,M,,0000*6E,1
1778778825661130597,$GPGSA,M,3,05,21,17,14,24,30,11,,,,,,2.0,0.9,1.7*33,1
1778778825826136026,$GPRMC,171345.000,A,1205.9940,S,07701.4529,W,0.00,294.61,140526,,,A*61,1
1778778826541592186,$GPGGA,171346.000,1205.9940,S,07701.4529,W,1,07,0.9,147.1,M,8.4,M,,0000*6D,1
1778778826663056758,$GPGSA,M,3,05,21,17,14,24,30,11,,,,,,2.0,0.9,1.7*33,1
1778778826828062354,$GPRMC,171346.000,A,1205.9940,S,07701.4529,W,0.00,294.61,140526,,,A*62,1
1778778827539977759,$GPGGA,171347.000,1205.9940,S,07701.4529,W,1,07,0.9,147.1,M,8.4,M,,0000*6C,1
1778778827661427108,$GPGSA,M,3,05,21,17,14,24,30,11,,,,,,2.0,0.9,1.7*33,1
1778778827826442075,$GPRMC,171347.000,A,1205.9940,S,07701.4529,W,0.00,294.61,140526,,,A*63,1
1778778828537734570,$GPGGA,171348.000,1205.9940,S,07701.4529,W,1,07,0.9,147.1,M,8.4,M,,0000*63,1
1778778828659178604,$GPGSA,M,3,05,21,17,14,24,30,11,,,,,,2.0,0.9,1.7*33,1
1778778828824195979,$GPRMC,171348.000,A,1205.9940,S,07701.4529,W,0.00,294.61,140526,,,A*6C,1
1778778829540477882,$GPGGA,171349.000,1205.9940,S,07701.4529,W,1,07,0.9,147.1,M,8.4,M,,0000*62,1
1778778829662011998,$GPGSA,M,3,05,21,17,14,24,30,11,,,,,,2.0,0.9,1.7*33,1
1778778829824264801,$GPGSV,3,1,12,05,54,295,47,21,48,346,43,17,30,093,43,14,23,146,36*72,1
1778778829982795648,$GPGSV,3,2,12,24,18,238,33,30,12,122,25,11,09,356,27,13,51,160,41*73,1
1778778830129463023,$GPGSV,3,3,12,44,42,284,38,28,52,153,,26,47,127,,23,29,066,*7A,1
1778778830294458322,$GPRMC,171349.000,A,1205.9940,S,07701.4529,W,0.00,294.61,140526,,,A*6D,1
1778778830539478475,$GPGGA,171350.000,1205.9940,S,07701.4529,W,1,07,0.9,147.1,M,8.4,M,,0000*6A,1
1778778830660942751,$GPGSA,M,3,05,21,17,14,24,30,11,,,,,,2.0,0.9,1.7*33,1
1778778830825946143,$GPRMC,171350.000,A,1205.9940,S,07701.4529,W,0.00,294.61,140526,,,A*65,1
1778778831539740538,$GPGGA,171351.000,1205.9940,S,07701.4529,W,1,07,0.9,147.1,M,8.4,M,,0000*6B,1
1778778831661194387,$GPGSA,M,3,05,21,17,14,24,30,11,,,,,,2.0,0.9,1.7*33,1
1778778831826201409,$GPRMC,171351.000,A,1205.9940,S,07701.4529,W,0.00,294.61,140526,,,A*64,1
1778778832539361892,$GPGGA,171352.000,1205.9940,S,07701.4529,W,1,07,0.9,147.1,M,8.4,M,,0000*68,1
1778778832660820779,$GPGSA,M,3,05,21,17,14,24,30,11,,,,,,2.0,0.9,1.7*33,1
1778778832825842451,$GPRMC,171352.000,A,1205.9940,S,07701.4529,W,0.00,294.61,140526,,,A*67,1
1778778833539421029,$GPGGA,171353.000,1205.9940,S,07701.4529,W,1,07,0.9,147.1,M,8.4,M,,0000*69,1
1778778833660874767,$GPGSA,M,3,05,21,17,14,24,30,11,,,,,,2.0,0.9,1.7*33,1
1778778833825898475,$GPRMC,171353.000,A,1205.9940,S,07701.4529,W,0.00,294.61,140526,,,A*66,1
1778778834541555561,$GPGGA,171354.000,1205.9940,S,07701.4529,W,1,07,0.9,147.1,M,8.4,M,,0000*6E,1
1778778834663009410,$GPGSA,M,3,05,21,17,14,24,30,11,,,,,,2.0,0.9,1.7*33,1
1778778834823424562,$GPGSV,3,1,12,05,54,295,47,21,48,346,43,17,30,093,43,14,23,146,35*71,1
1778778834983848251,$GPGSV,3,2,12,24,18,238,34,30,12,122,26,11,09,356,22,06,00,032,18*78,1
1778778835135113423,$GPGSV,3,3,12,13,51,160,41,44,42,284,38,28,52,153,,26,47,127,*74,1
1778778835300124390,$GPRMC,171354.000,A,1205.9940,S,07701.4529,W,0.00,294.61,140526,,,A*61,1
1778778835541592269,$GPGGA,171355.000,1205.9940,S,07701.4529,W,1,07,0.9,147.1,M,8.4,M,,0000*6F,1
1778778835663074066,$GPGSA,M,3,05,21,17,14,24,30,11,,,,,,2.0,0.9,1.7*33,1
1778778835828055011,$GPRMC,171355.000,A,1205.9940,S,07701.4529,W,0.00,294.61,140526,,,A*60,1
1778778836536678351,$GPGGA,171356.000,1205.9940,S,07701.4529,W,1,07,0.9,147.1,M,8.4,M,,0000*6C,1
1778778836658108087,$GPGSA,M,3,05,21,17,14,24,30,11,,,,,,2.0,0.9,1.7*33,1
1778778836823114276,$GPRMC,171356.000,A,1205.9940,S,07701.4529,W,0.00,294.61,140526,,,A*63,1
1778778837540035997,$GPGGA,171357.000,1205.9940,S,07701.4529,W,1,07,0.9,147.1,M,8.4,M,,0000*6D,1
1778778837661468622,$GPGSA,M,3,05,21,17,14,24,30,11,,,,,,2.0,0.9,1.7*33,1
1778778837826487738,$GPRMC,171357.000,A,1205.9940,S,07701.4529,W,0.00,294.61,140526,,,A*62,1
1778778838540491726,$GPGGA,171358.000,1205.9940,S,07701.4529,W,1,07,0.9,147.1,M,8.4,M,,0000*62,1
1778778838661942556,$GPGSA,M,3,05,21,17,14,24,30,11,,,,,,2.0,0.9,1.7*33,1
1778778838826947819,$GPRMC,171358.000,A,1205.9940,S,07701.4529,W,0.00,294.61,140526,,,A*6D,1
1778778839540542361,$GPGGA,171359.000,1205.9940,S,07701.4529,W,1,07,0.9,147.1,M,8.4,M,,0000*63,1
1778778839661985413,$GPGSA,M,3,05,21,17,14,24,30,11,,,,,,2.0,0.9,1.7*33,1
1778778839822481202,$GPGSV,3,1,12,05,54,295,47,21,48,346,43,17,30,093,43,14,23,146,35*71,0
1778778839982843774,$GPGSV,3,2,12,24,18,238,35,30,12,122,27,11,09,356,21,13,51,160,41*71,0
1778778840129542485,$GPGSV,3,3,12,44,42,284,37,28,52,153,,26,47,127,,23,29,066,*75,0
1778778840294597104,$GPRMC,171359.000,A,1205.9940,S,07701.4529,W,0.00,294.61,140526,,,A*6C,0
1778778840541200090,$GPGGA,171400.000,1205.9940,S,07701.4529,W,1,07,0.9,147.1,M,8.4,M,,0000*68,0
1778778840662678053,$GPGSA,M,3,05,21,17,14,24,30,11,,,,,,2.0,0.9,1.7*33,0
1778778840827718948,$GPRMC,171400.000,A,1205.9940,S,07701.4529,W,0.00,294.61,140526,,,A*67,0
1778778841540894915,$GPGGA,171401.000,1205.9940,S,07701.4529,W,1,07,0.9,147.1,M,8.4,M,,0000*69,0
1778778841662302556,$GPGSA,M,3,05,21,17,14,24,30,11,,,,,,2.0,0.9,1.7*33,0
1778778841827301355,$GPRMC,171401.000,A,1205.9940,S,07701.4529,W,0.00,294.61,140526,,,A*66,0
1778778842536139363,$GPGGA,171402.000,1205.9940,S,07701.4529,W,1,06,1.8,147.1,M,8.4,M,,0000*6B,0
1778778842652966765,$GPGSA,M,3,05,21,17,14,24,30,,,,,,,4.3,1.8,3.9*3A,0
1778778842817975602,$GPRMC,171402.000,A,1205.9940,S,07701.4529,W,0.00,294.61,140526,,,A*65,0
1778778843541558071,$GPGGA,171403.000,1205.9939,S,07701.4530,W,1,07,0.9,146.9,M,8.4,M,,0000*64,0
1778778843663015347,$GPGSA,M,3,05,21,17,14,24,30,11,,,,,,2.0,0.9,1.7*33,0
1778778843828023406,$GPRMC,171403.000,A,1205.9939,S,07701.4530,W,0.61,294.61,140526,,,A*65,0
1778778844537860766,$GPGGA,171404.000,1205.9937,S,07701.4535,W,1,07,0.9,146.8,M,8.4,M,,0000*69,0
1778778844659307874,$GPGSA,M,3,05,21,17,14,24,30,11,,,,,,2.0,0.9,1.7*33,0
1778778844819736119,$GPGSV,3,1,12,05,54,295,42,21,48,346,43,17,30,093,43,14,23,146,34*75,0
1778778844980152178,$GPGSV,3,2,12,24,18,238,35,30,12,122,24,11,09,356,19,13,51,160,41*79,0
1778778845126826331,$GPGSV,3,3,12,44,42,284,34,28,52,153,,26,47,127,,23,29,066,*76,0
1778778845291849818,$GPRMC,171404.000,A,1205.9937,S,07701.4535,W,3.18,295.98,140526,,,A*63,0
1778778845537269138,$GPGGA,171405.000,1205.9930,S,07701.4547,W,1,07,0.9,146.7,M,8.4,M,,0000*65,0
1778778845658735840,$GPGSA,M,3,05,21,17,14,24,30,11,,,,,,2.0,0.9,1.7*33,0
1778778845823750104,$GPRMC,171405.000,A,1205.9930,S,07701.4547,W,6.08,298.27,140526,,,A*6D,0
1778778846537739257,$GPGGA,171406.000,1205.9920,S,07701.4565,W,1,07,0.9,146.8,M,8.4,M,,0000*68,0
1778778846659201774,$GPGSA,M,3,05,21,17,14,24,30,11,,,,,,2.0,0.9,1.7*33,0
1778778846824211018,$GPRMC,171406.000,A,1205.9920,S,07701.4565,W,7.65,300.11,140526,,,A*60,0
1778778847540906626,$GPGGA,171407.000,1205.9910,S,07701.4582,W,1,07,0.9,146.9,M,8.4,M,,0000*62,0
1778778847662384533,$GPGSA,M,3,05,21,17,14,24,30,11,,,,,,2.0,0.9,1.7*33,0
1778778847827425151,$GPRMC,171407.000,A,1205.9910,S,07701.4582,W,6.73,299.02,140526,,,A*6E,0
1778778848540743834,$GPGGA,171408.000,1205.9901,S,07701.4598,W,1,07,0.9,146.9,M,8.4,M,,0000*66,0
1778778848662210036,$GPGSA,M,3,05,21,17,14,24,30,11,,,,,,2.0,0.9,1.7*33,0
1778778848827218207,$GPRMC,171408.000,A,1205.9901,S,07701.4598,W,6.17,302.35,140526,,,A*6F,0
1778778849540170838,$GPGGA,171409.000,1205.9890,S,07701.4612,W,1,07,0.9,146.4,M,8.4,M,,0000*62,0
1778778849661627965,$GPGSA,M,3,05,21,17,14,24,30,11,,,,,,2.0,0.9,1.7*33,0
1778778849822057432,$GPGSV,3,1,12,05,54,295,43,21,48,346,43,17,30,093,43,14,23,146,35*75,0
1778778849982480436,$GPGSV,3,2,12,24,18,238,33,30,12,122,26,11,09,356,38,13,51,160,41*7E,0
1778778850129147682,$GPGSV,3,3,12,44,42,284,42,28,52,153,,26,47,127,,23,29,066,*77,0
1778778850294175243,$GPRMC,171409.000,A,1205.9890,S,07701.4612,W,5.75,309.58,140526,,,A*61,0
1778778850541086220,$GPGGA,171410.000,1205.9879,S,07701.4624,W,1,07,0.9,146.3,M,8.4,M,,0000*6F,0
1778778850662507992,$GPGSA,M,3,05,21,17,14,24,30,11,,,,,,2.0,0.9,1.7*33,0
1778778850827530627,$GPRMC,171410.000,A,1205.9879,S,07701.4624,W,5.36,317.77,140526,,,A*6E,0
1778778851539216196,$GPGGA,171411.000,1205.9865,S,07701.4632,W,1,07,0.9,146.0,M,8.4,M,,0000*67,0
1778778851660683268,$GPGSA,M,3,05,21,17,14,24,30,11,,,,,,2.0,0.9,1.7*33,0
1778778851825696958,$GPRMC,171411.000,A,1205.9865,S,07701.4632,W,5.56,334.68,140526,,,A*6C,0
1778778852539277036,$GPGGA,171412.000,1205.9847,S,07701.4635,W,1,07,0.9,146.1,M,8.4,M,,0000*62,0
1778778852660729663,$GPGSA,M,3,05,21,17,14,24,30,11,,,,,,2.0,0.9,1.7*33,0
1778778852825750390,$GPRMC,171412.000,A,1205.9847,S,07701.4635,W,7.88,347.66,140526,,,A*63,0
1778778853542241016,$GPGGA,171413.000,1205.9822,S,07701.4633,W,1,07,0.9,146.1,M,8.4,M,,0000*66,0
1778778853663717367,$GPGSA,M,3,05,21,17,14,24,30,11,,,,,,2.0,0.9,1.7*33,0
1778778853824137834,$GPRMC,171413.000,A,1205.9822,S,07701.4633,W,9.98,7.64,140526,,,A*6D,0
1778778854542067482,$GPGGA,171414.000,1205.9791,S,07701.4624,W,1,07,0.9,146.2,M,8.4,M,,0000*63,0
1778778854663532129,$GPGSA,M,3,05,21,17,14,24,30,11,,,,,,2.0,0.9,1.7*33,0
1778778854823952780,$GPGSV,3,1,12,05,54,295,43,21,48,346,42,17,30,093,41,14,23,146,36*75,0
1778778854984381896,$GPGSV,3,2,12,24,18,238,27,30,12,122,25,11,09,356,26,13,51,160,32*73,0
1778778855131076181,$GPGSV,3,3,12,44,42,284,40,28,52,153,,26,47,127,,23,29,066,*75,0
1778778855296057534,$GPRMC,171414.000,A,1205.9791,S,07701.4624,W,12.25,20.30,140526,,,A*63,0
1778778855543993736,$GPGGA,171415.000,1205.9757,S,07701.4610,W,1,07,0.9,146.2,M,8.4,M,,0000*6F,0
1778778855665455271,$GPGSA,M,3,05,21,17,14,24,30,11,,,,,,2.0,0.9,1.7*33,0
1778778855830461589,$GPRMC,171415.000,A,1205.9757,S,07701.4610,W,13.01,23.96,140526,,,A*67,0
1778778856541135324,$GPGGA,171416.000,1205.9721,S,07701.4594,W,1,07,0.9,146.1,M,8.4,M,,0000*61,0
1778778856662588339,$GPGSA,M,3,05,21,17,14,24,30,11,,,,,,2.0,0.9,1.7*33,0
1778778856827621031,$GPRMC,171416.000,A,1205.9721,S,07701.4594,W,14.48,25.50,140526,,,A*6C,0
1778778857538042667,$GPGGA,171417.000,1205.9680,S,07701.4575,W,1,07,0.9,146.1,M,8.4,M,,0000*65,0
1778778857659513777,$GPGSA,M,3,05,21,17,14,24,30,11,,,,,,2.0,0.9,1.7*33,0
1778778857824520836,$GPRMC,171417.000,A,1205.9680,S,07701.4575,W,16.82,24.66,140526,,,A*68,0
1778778858542678877,$GPGGA,171418.000,1205.9633,S,07701.4554,W,1,07,0.9,146.2,M,8.4,M,,0000*62,0
1778778858664141356,$GPGSA,M,3,05,21,17,14,24,30,11,,,,,,2.0,0.9,1.7*33,0
1778778858829139322,$GPRMC,171418.000,A,1205.9633,S,07701.4554,W,18.84,24.44,140526,,,A*64,0
1778778859540654264,$GPGGA,171419.000,1205.9582,S,07701.4531,W,1,07,0.9,146.2,M,8.4,M,,0000*69,0
1778778859662099890,$GPGSA,M,3,05,21,17,14,24,30,11,,,,,,2.0,0.9,1.7*33,0
1778778859822523672,$GPGSV,3,1,12,05,54,295,44,21,48,346,43,17,30,093,43,14,23,146,36*71,0
1778778859982948602,$GPGSV,3,2,12,24,18,238,37,30,12,122,26,11,09,356,26,06,00,032,13*74,0
1778778860134210866,$GPGSV,3,3,12,13,51,160,26,44,42,284,41,28,52,153,,26,47,127,*7B,0
1778778860299218240,$GPRMC,171419.000,A,1205.9582,S,07701.4531,W,20.22,24.18,140526,,,A*61,0
1778778860537964348,$GPGGA,171420.000,1205.9531,S,07701.4506,W,1,07,0.9,146.5,M,8.4,M,,0000*68,0
1778778860659438181,$GPGSA,M,3,05,21,17,14,24,30,11,,,,,,2.0,0.9,1.7*33,0
1778778860824459501,$GPRMC,171420.000,A,1205.9531,S,07701.4506,W,19.37,25.53,140526,,,A*67,0
1778778861539896344,$GPGGA,171421.000,1205.9482,S,07701.4481,W,1,07,0.9,146.6,M,8.4,M,,0000*6D,0
1778778861661364768,$GPGSA,M,3,05,21,17,14,24,30,11,,,,,,2.0,0.9,1.7*33,0
1778778861826375920,$GPRMC,171421.000,A,1205.9482,S,07701.4481,W,19.11,26.82,140526,,,A*6A,0
1778778862541817208,$GPGGA,171422.000,1205.9434,S,07701.4456,W,1,07,0.9,146.8,M,8.4,M,,0000*67,0
1778778862663287818,$GPGSA,M,3,05,21,17,14,24,30,11,,,,,,2.0,0.9,1.7*33,0
1778778862828287914,$GPRMC,171422.000,A,1205.9434,S,07701.4456,W,18.87,25.98,140526,,,A*68,0
1778778863541451490,$GPGGA,171423.000,1205.9386,S,07701.4433,W,1,07,0.9,147.0,M,8.4,M,,0000*62,0
1778778863662930694,$GPGSA,M,3,05,21,17,14,24,30,11,,,,,,2.0,0.9,1.7*33,0
1778778863827923807,$GPRMC,171423.000,A,1205.9386,S,07701.4433,W,18.63,25.10,140526,,,A*6E,0
1778778864536706532,$GPGGA,171424.000,1205.9339,S,07701.4408,W,1,06,1.1,147.2,M,8.4,M,,0000*63,0
1778778864653585938,$GPGSA,M,3,05,21,14,24,30,11,,,,,,,2.1,1.1,1.8*32,0
1778778864814021480,$GPGSV,3,1,12,05,54,295,44,21,48,346,42,14,23,146,38,24,18,238,32*71,0
1778778864974442780,$GPGSV,3,2,12,30,12,122,23,11,09,356,16,13,51,160,37,17,30,093,39*75,0
1778778865121114897,$GPGSV,3,3,12,44,42,284,41,28,52,153,,26,47,127,,23,29,066,*74,0
1778778865286124660,$GPRMC,171424.000,A,1205.9339,S,07701.4408,W,19.35,27.97,140526,,,A*6A,0
1778778865546990544,$GPGGA,171425.000,1205.9287,S,07701.4383,W,1,07,0.9,147.4,M,8.4,M,,0000*6C,0
1778778865668429503,$GPGSA,M,3,05,21,17,14,24,30,11,,,,,,2.0,0.9,1.7*33,0
1778778865833431209,$GPRMC,171425.000,A,1205.9287,S,07701.4383,W,21.19,25.47,140526,,,A*61,0
1778778866542645456,$GPGGA,171426.000,1205.9229,S,07701.4357,W,1,07,0.9,147.5,M,8.4,M,,0000*63,0
1778778866664093712,$GPGSA,M,3,05,21,17,14,24,30,11,,,,,,2.0,0.9,1.7*33,0
1778778866829107550,$GPRMC,171426.000,A,1205.9229,S,07701.4357,W,23.32,23.76,140526,,,A*60,0
1778778867542898684,$GPGGA,171427.000,1205.9168,S,07701.4329,W,1,07,0.9,147.3,M,8.4,M,,0000*6B,0
1778778867664375036,$GPGSA,M,3,05,21,17,14,24,30,11,,,,,,2.0,0.9,1.7*33,0
1778778867829359222,$GPRMC,171427.000,A,1205.9168,S,07701.4329,W,22.89,25.35,140526,,,A*6E,0
1778778868538363931,$GPGGA,171428.000,1205.9106,S,07701.4302,W,1,07,0.9,147.2,M,8.4,M,,0000*64,0
1778778868659827226,$GPGSA,M,3,05,21,17,14,24,30,11,,,,,,2.0,0.9,1.7*33,0
1778778868824827395,$GPRMC,171428.000,A,1205.9106,S,07701.4302,W,22.62,25.00,140526,,,A*63,0
1778778869537986379,$GPGGA,171429.000,1205.9048,S,07701.4275,W,1,07,0.9,147.8,M,8.4,M,,0000*65,0
1778778869659450618,$GPGSA,M,3,05,21,17,14,24,30,11,,,,,,2.0,0.9,1.7*33,0
1778778869819867992,$GPGSV,3,1,12,05,54,295,44,21,48,346,43,17,30,093,40,14,23,146,36*72,0
1778778869980305830,$GPGSV,3,2,12,24,18,238,36,30,12,122,24,11,09,356,26,06,00,032,14*70,0
1778778870126979206,$GPGSV,3,3,12,44,42,284,39,28,52,153,,13,51,160,,26,47,127,*70,0
1778778870291984098,$GPRMC,171429.000,A,1205.9048,S,07701.4275,W,21.82,25.19,140526,,,A*6D,0
1778778870542616384,$GPGGA,171430.000,1205.8991,S,07701.4252,W,1,07,0.9,147.5,M,8.4,M,,0000*69,0
1778778870664099976,$GPGSA,M,3,05,21,17,14,24,30,11,,,,,,2.0,0.9,1.7*33,0
1778778870829081181,$GPRMC,171430.000,A,1205.8991,S,07701.4252,W,20.17,24.04,140526,,,A*6C,0
1778778871539560323,$GPGGA,171431.000,1205.8937,S,07701.4230,W,1,07,0.9,147.4,M,8.4,M,,0000*61,0
1778778871660998912,$GPGSA,M,3,05,21,17,14,24,30,11,,,,,,2.0,0.9,1.7*33,0
1778778871826010601,$GPRMC,171431.000,A,1205.8937,S,07701.4230,W,20.27,21.74,140526,,,A*64,0
1778778872544190662,$GPGGA,171432.000,1205.8886,S,07701.4208,W,1,07,0.9,147.4,M,8.4,M,,0000*62,0
1778778872665636751,$GPGSA,M,3,05,21,17,14,24,30,11,,,,,,2.0,0.9,1.7*33,0
1778778872830640865,$GPRMC,171432.000,A,1205.8886,S,07701.4208,W,19.17,22.91,140526,,,A*66,0
1778778873538809589,$GPGGA,171433.000,1205.8837,S,07701.4190,W,1,07,0.9,147.3,M,8.4,M,,0000*6C,0
1778778873660274828,$GPGSA,M,3,05,21,17,14,24,30,11,,,,,,2.0,0.9,1.7*33,0
1778778873825279202,$GPRMC,171433.000,A,1205.8837,S,07701.4190,W,17.04,19.92,140526,,,A*68,0
1778778874544072875,$GPGGA,171434.000,1205.8796,S,07701.4177,W,1,07,0.9,147.0,M,8.4,M,,0000*65,0
1778778874665517909,$GPGSA,M,3,05,21,17,14,24,30,11,,,,,,2.0,0.9,1.7*33,0
1778778874825988787,$GPGSV,3,1,12,05,54,295,45,21,48,346,43,17,30,093,30,14,23,146,28*7B,0
1778778874986369917,$GPGSV,3,2,12,24,18,238,32,30,12,122,23,11,09,356,25,06,00,032,16*72,0
1778778875137625181,$GPGSV,3,3,12,13,51,160,38,44,42,284,42,28,52,153,,26,47,127,*77,0
1778778875302633685,$GPRMC,171434.000,A,1205.8796,S,07701.4177,W,13.87,17.32,140526,,,A*69,0
1778778875545569589,$GPGGA,171435.000,1205.8764,S,07701.4169,W,1,07,0.9,146.2,M,8.4,M,,0000*65,0
1778778875667016401,$GPGSA,M,3,05,21,17,14,24,30,11,,,,,,2.0,0.9,1.7*33,0
1778778875832035461,$GPRMC,171435.000,A,1205.8764,S,07701.4169,W,10.93,18.40,140526,,,A*66,0
1778778876540608519,$GPGGA,171436.000,1205.8736,S,07701.4164,W,1,07,0.9,145.5,M,8.4,M,,0000*68,0
1778778876662087963,$GPGSA,M,3,05,21,17,14,24,30,11,,,,,,2.0,0.9,1.7*33,0
1778778876824781140,$GPRMC,171436.000,A,1205.8736,S,07701.4164,W,9.64,15.83,140526,,,A*5D,0
1778778877543991334,$GPGGA,171437.000,1205.8714,S,07701.4159,W,1,07,0.9,145.0,M,8.4,M,,0000*62,0
1778778877665455036,$GPGSA,M,3,05,21,17,14,24,30,11,,,,,,2.0,0.9,1.7*33,0
1778778877828174901,$GPRMC,171437.000,A,1205.8714,S,07701.4159,W,7.08,16.25,140526,,,A*59,0
1778778878545702142,$GPGGA,171438.000,1205.8700,S,07701.4154,W,1,07,0.9,144.7,M,8.4,M,,0000*63,0
1778778878667168251,$GPGSA,M,3,05,21,17,14,24,30,11,,,,,,2.0,0.9,1.7*33,0
1778778878829886431,$GPRMC,171438.000,A,1205.8700,S,07701.4154,W,4.61,20.36,140526,,,A*55,0
1778778879544149628,$GPGGA,171439.000,1205.8692,S,07701.4149,W,1,07,0.9,144.8,M,8.4,M,,0000*6B,0
1778778879665548991,$GPGSA,M,3,05,21,17,14,24,30,11,,,,,,2.0,0.9,1.7*33,0
1778778879825976718,$GPGSV,3,1,12,05,54,295,45,21,48,346,42,17,30,093,38,14,23,146,28*72,0
1778778879986419371,$GPGSV,3,2,12,24,18,238,37,30,12,122,23,11,09,356,16,13,51,160,39*7C,0
1778778880133079783,$GPGSV,3,3,12,44,42,284,42,28,52,153,,26,47,127,,23,29,066,*77,0
1778778880295806667,$GPRMC,171439.000,A,1205.8692,S,07701.4149,W,3.50,14.69,140526,,,A*5A,0
1778778880544387189,$GPGGA,171440.000,1205.8685,S,07701.4146,W,1,07,0.9,144.9,M,8.4,M,,0000*6D,0
1778778880665804053,$GPGSA,M,3,05,21,17,14,24,30,11,,,,,,2.0,0.9,1.7*33,0
1778778880826223445,$GPRMC,171440.000,A,1205.8685,S,07701.4146,W,2.82,1.52,140526,,,A*6F,0
1778778881545019989,$GPGGA,171441.000,1205.8678,S,07701.4147,W,1,07,0.9,145.0,M,8.4,M,,0000*67,0
1778778881666472171,$GPGSA,M,3,05,21,17,14,24,30,11,,,,,,2.0,0.9,1.7*33,0
1778778881831485120,$GPRMC,171441.000,A,1205.8678,S,07701.4147,W,3.66,349.68,140526,,,A*60,0
1778778882545691793,$GPGGA,171442.000,1205.8668,S,07701.4150,W,1,07,0.9,145.5,M,8.4,M,,0000*66,0
1778778882667140698,$GPGSA,M,3,05,21,17,14,24,30,11,,,,,,2.0,0.9,1.7*33,0
1778778882832157813,$GPRMC,171442.000,A,1205.8668,S,07701.4150,W,6.13,332.53,140526,,,A*67,0
1778778883544490294,$GPGGA,171443.000,1205.8657,S,07701.4166,W,1,07,0.9,145.5,M,8.4,M,,0000*6E,0
1778778883665942513,$GPGSA,M,3,05,21,17,14,24,30,11,,,,,,2.0,0.9,1.7*33,0
1778778883830953351,$GPRMC,171443.000,A,1205.8657,S,07701.4166,W,8.61,304.04,140526,,,A*63,0
1778778884540365412,$GPGGA,171444.000,1205.8646,S,07701.4193,W,1,07,0.9,145.5,M,8.4,M,,0000*63,0
1778778884661827577,$GPGSA,M,3,05,21,17,14,24,30,11,,,,,,2.0,0.9,1.7*33,0
1778778884822245914,$GPGSV,3,1,12,05,54,295,45,21,48,346,44,17,30,093,46,14,23,146,38*7C,0
1778778884982680511,$GPGSV,3,2,12,24,18,238,37,30,12,122,27,11,09,356,15,06,00,032,12*74,0
1778778885133929700,$GPGSV,3,3,12,13,51,160,39,44,42,284,45,28,52,153,,26,47,127,*71,0
1778778885301231843,$GPRMC,171444.000,A,1205.8646,S,07701.4193,W,11.50,287.27,140526,,,A*5F,0
1778778885544375026,$GPGGA,171445.000,1205.8639,S,07701.4227,W,1,07,0.9,145.8,M,8.4,M,,0000*6B,0
1778778885665834394,$GPGSA,M,3,05,21,17,14,24,30,11,,,,,,2.0,0.9,1.7*33,0
1778778885833133388,$GPRMC,171445.000,A,1205.8639,S,07701.4227,W,12.91,279.37,140526,,,A*54,0
1778778886549219162,$GPGGA,171446.000,1205.8634,S,07701.4268,W,1,07,0.9,146.1,M,8.4,M,,0000*64,0
1778778886670673178,$GPGSA,M,3,05,21,17,14,24,30,11,,,,,,2.0,0.9,1.7*33,0
1778778886837967523,$GPRMC,171446.000,A,1205.8634,S,07701.4268,W,15.44,277.11,140526,,,A*54,0
1778778887543425477,$GPGGA,171447.000,1205.8631,S,07701.4314,W,1,06,1.8,146.6,M,8.4,M,,0000*6C,0
1778778887660298160,$GPGSA,M,3,05,21,17,14,24,30,,,,,,,4.3,1.8,3.9*3A,0
1778778887827606285,$GPRMC,171447.000,A,1205.8631,S,07701.4314,W,16.85,275.39,140526,,,A*5C,0
1778778888549729841,$GPGGA,171448.000,1205.8627,S,07701.4360,W,1,06,1.8,146.8,M,8.4,M,,0000*69,0
1778778888666597042,$GPGSA,M,3,05,21,17,14,24,30,,,,,,,4.3,1.8,3.9*3A,0
1778778888833898222,$GPRMC,171448.000,A,1205.8627,S,07701.4360,W,15.54,276.08,140526,,,A*59,0
1778778889548584106,$GPGGA,171449.000,1205.8623,S,07701.4400,W,1,06,1.8,146.7,M,8.4,M,,0000*62,0
1778778889665409896,$GPGSA,M,3,05,21,17,14,24,30,,,,,,,4.3,1.8,3.9*3A,0
1778778889825823381,$GPGSV,3,1,12,05,54,295,47,21,48,346,31,17,30,093,47,14,23,146,39*7C,0
1778778889986257238,$GPGSV,3,2,12,24,18,238,33,30,12,122,29,11,09,356,23,13,51,160,36*7B,0
1778778890132911222,$GPGSV,3,3,12,44,42,284,46,28,52,153,,26,47,127,,23,29,066,*73,0
1778778890300240479,$GPRMC,171449.000,A,1205.8623,S,07701.4400,W,13.09,276.85,140526,,,A*56,0
1778778890542108580,$GPGGA,171450.000,1205.8619,S,07701.4435,W,1,06,1.8,146.4,M,8.4,M,,0000*66,0
1778778890658985579,$GPGSA,M,3,05,21,17,14,24,30,,,,,,,4.3,1.8,3.9*3A,0
1778778890826282258,$GPRMC,171450.000,A,1205.8619,S,07701.4435,W,11.35,276.77,140526,,,A*51,0
1778778891550296916,$GPGGA,171451.000,1205.8621,S,07701.4465,W,1,06,1.8,146.1,M,8.4,M,,0000*6C,0
1778778891667172673,$GPGSA,M,3,05,21,17,14,24,30,,,,,,,4.3,1.8,3.9*3A,0
1778778891834466593,$GPRMC,171451.000,A,1205.8621,S,07701.4465,W,10.13,272.72,140526,,,A*5A,0
1778778892542418074,$GPGGA,171452.000,1205.8622,S,07701.4489,W,1,06,1.8,145.9,M,8.4,M,,0000*65,0
1778778892659336502,$GPGSA,M,3,05,21,17,14,24,30,,,,,,,4.3,1.8,3.9*3A,0
1778778892824296761,$GPRMC,171452.000,A,1205.8622,S,07701.4489,W,7.76,274.17,140526,,,A*68,0
1778778893544129271,$GPGGA,171453.000,1205.8622,S,07701.4508,W,1,06,1.8,146.8,M,8.4,M,,0000*6E,0
1778778893661000269,$GPGSA,M,3,05,21,17,14,24,30,,,,,,,4.3,1.8,3.9*3A,0
1778778893826019570,$GPRMC,171453.000,A,1205.8622,S,07701.4508,W,6.03,277.17,140526,,,A*61,0
1778778894544795390,$GPGGA,171454.000,1205.8622,S,07701.4522,W,1,06,1.8,147.3,M,8.4,M,,0000*6B,0
1778778894661688297,$GPGSA,M,3,05,21,17,14,24,30,,,,,,,4.3,1.8,3.9*3A,0
1778778894822111616,$GPGSV,3,1,12,05,54,295,47,21,48,346,43,17,30,093,47,14,23,146,38*78,0
1778778894982521507,$GPGSV,3,2,12,24,18,238,23,30,12,122,37,11,09,356,15,13,51,160,23*74,0
1778778895129190290,$GPGSV,3,3,12,44,42,284,42,28,52,153,,26,47,127,,23,29,066,*77,0
1778778895294207998,$GPRMC,171454.000,A,1205.8622,S,07701.4522,W,4.96,275.83,140526,,,A*6F,0
1778778895543811355,$GPGGA,171455.000,1205.8623,S,07701.4536,W,1,06,1.8,147.8,M,8.4,M,,0000*65,0
1778778895660679445,$GPGSA,M,3,05,21,17,14,24,30,,,,,,,4.3,1.8,3.9*3A,0
1778778895825688912,$GPRMC,171455.000,A,1205.8623,S,07701.4536,W,5.13,268.28,140526,,,A*6B,0
1778778896541140701,$GPGGA,171456.000,1205.8628,S,07701.4550,W,1,06,1.8,148.2,M,8.4,M,,0000*68,0
1778778896658015810,$GPGSA,M,3,05,21,17,14,24,30,,,,,,,4.3,1.8,3.9*3A,0
1778778896823024425,$GPRMC,171456.000,A,1205.8628,S,07701.4550,W,6.31,253.26,140526,,,A*66,0
1778778897539103735,$GPGGA,171457.000,1205.8640,S,07701.4565,W,1,06,1.8,149.4,M,8.4,M,,0000*66,0
1778778897655981307,$GPGSA,M,3,05,21,17,14,24,30,,,,,,,4.3,1.8,3.9*3A,0
1778778897820993182,$GPRMC,171457.000,A,1205.8640,S,07701.4565,W,7.66,232.00,140526,,,A*6F,0
1778778898546876421,$GPGGA,171458.000,1205.8659,S,07701.4577,W,1,06,1.8,150.0,M,8.4,M,,0000*6E,0
1778778898663790107,$GPGSA,M,3,05,21,17,14,24,30,,,,,,,4.3,1.8,3.9*3A,0
1778778898828742884,$GPRMC,171458.000,A,1205.8659,S,07701.4577,W,8.89,214.86,140526,,,A*6F,0
1778778899541327518,$GPGGA,171459.000,1205.8679,S,07701.4585,W,1,06,1.8,150.8,M,8.4,M,,0000*68,0
1778778899658168827,$GPGSA,M,3,05,21,17,14,24,30,,,,,,,4.3,1.8,3.9*3A,0
1778778899818586905,$GPGSV,3,1,12,05,54,295,34,21,48,346,45,17,30,093,41,14,23,146,29*7C,0
1778778899979006390,$GPGSV,3,2,12,24,18,238,26,30,12,122,29,11,09,356,15,13,51,160,23*7E,0
1778778900125684266,$GPGSV,3,3,12,44,42,284,22,28,52,153,,26,47,127,,23,29,066,*71,0
1778778900290689010,$GPRMC,171459.000,A,1205.8679,S,07701.4585,W,8.43,205.90,140526,,,A*60,0
1778778900541742891,$GPGGA,171500.000,1205.8697,S,07701.4590,W,1,06,1.8,151.2,M,8.4,M,,0000*6A,0
1778778900658621519,$GPGSA,M,3,05,21,17,14,24,30,,,,,,,4.3,1.8,3.9*3A,0
1778778900823633208,$GPRMC,171500.000,A,1205.8697,S,07701.4590,W,7.90,200.15,140526,,,A*60,0
1778778901541166801,$GPGGA,171501.000,1205.8717,S,07701.4593,W,1,06,1.8,151.7,M,8.4,M,,0000*64,0
1778778901658060375,$GPGSA,M,3,05,21,17,14,24,30,,,,,,,4.3,1.8,3.9*3A,0
1778778901823061878,$GPRMC,171501.000,A,1205.8717,S,07701.4593,W,9.25,197.78,140526,,,A*6D,0
1778778902544756617,$GPGGA,171502.000,1205.8748,S,07701.4610,W,1,07,0.9,151.3,M,8.4,M,,0000*60,0
1778778902666231450,$GPGSA,M,3,05,21,17,14,24,30,11,,,,,,2.0,0.9,1.7*33,0
1778778902833525258,$GPRMC,171502.000,A,1205.8748,S,07701.4610,W,12.64,198.62,140526,,,A*57,0
1778778903548558156,$GPGGA,171503.000,1205.8781,S,07701.4627,W,1,07,0.9,150.9,M,8.4,M,,0000*6B,0
1778778903670024821,$GPGSA,M,3,05,21,17,14,24,30,11,,,,,,2.0,0.9,1.7*33,0
1778778903837317667,$GPRMC,171503.000,A,1205.8781,S,07701.4627,W,15.10,199.37,140526,,,A*52,0
1778778904543606383,$GPGGA,171504.000,1205.8830,S,07701.4657,W,1,07,0.9,150.8,M,8.4,M,,0000*6F,0
1778778904665062139,$GPGSA,M,3,05,21,17,14,24,30,11,,,,,,2.0,0.9,1.7*33,0
1778778904825484828,$GPGSV,3,1,12,05,54,295,32,21,48,346,38,17,30,093,35,14,23,146,29*73,0
1778778904985921389,$GPGSV,3,2,12,24,18,238,27,30,12,122,23,11,09,356,15,06,00,032,20*70,0
1778778905137170190,$GPGSV,3,3,12,13,51,160,19,44,42,284,33,28,52,153,,26,47,127,*72,0
1778778905304468424,$GPRMC,171504.000,A,1205.8830,S,07701.4657,W,17.66,205.14,140526,,,A*53,0
1778778905543655277,$GPGGA,171505.000,1205.8891,S,07701.4702,W,1,07,0.9,150.8,M,8.4,M,,0000*64,0
1778778905665119072,$GPGSA,M,3,05,21,17,14,24,30,11,,,,,,2.0,0.9,1.7*33,0
1778778905832419510,$GPRMC,171505.000,A,1205.8891,S,07701.4702,W,19.88,210.65,140526,,,A*54,0
1778778906543899319,$GPGGA,171506.000,1205.8972,S,07701.4749,W,1,07,0.9,150.1,M,8.4,M,,0000*6D,0
1778778906665369133,$GPGSA,M,3,05,21,17,14,24,30,11,,,,,,2.0,0.9,1.7*33,0
1778778906832667201,$GPRMC,171506.000,A,1205.8972,S,07701.4749,W,23.18,205.91,140526,,,A*5B,0
1778778907543540361,$GPGGA,171507.000,1205.9040,S,07701.4787,W,1,07,0.9,149.7,M,8.4,M,,0000*69,0
1778778907665000081,$GPGSA,M,3,05,21,17,14,24,30,11,,,,,,2.0,0.9,1.7*33,0
1778778907832294519,$GPRMC,171507.000,A,1205.9040,S,07701.4787,W,22.12,204.75,140526,,,A*51,0
1778778908549220482,$GPGGA,171508.000,1205.9122,S,07701.4823,W,1,07,0.9,148.8,M,8.4,M,,0000*6C,0
1778778908670672572,$GPGSA,M,3,05,21,17,14,24,30,11,,,,,,2.0,0.9,1.7*33,0
1778778908837971788,$GPRMC,171508.000,A,1205.9122,S,07701.4823,W,21.26,203.58,140526,,,A*56,0
1778778909547186591,$GPGGA,171509.000,1205.9183,S,07701.4850,W,1,07,0.9,148.1,M,8.4,M,,0000*6B,0
1778778909668630735,$GPGSA,M,3,05,21,17,14,24,30,11,,,,,,2.0,0.9,1.7*33,0
1778778909829058906,$GPGSV,3,1,12,05,54,295,46,21,48,346,36,17,30,093,39,14,23,146,24*7F,0
1778778909989541286,$GPGSV,3,2,12,24,18,238,38,30,12,122,21,11,09,356,20,13,51,160,38*75,0
1778778910136166213,$GPGSV,3,3,12,44,42,284,42,28,52,153,,26,47,127,,23,29,066,*77,0
1778778910303466948,$GPRMC,171509.000,A,1205.9183,S,07701.4850,W,20.07,205.06,140526,,,A*57,0
1778778910547466488,$GPGGA,171510.000,1205.9250,S,07701.4877,W,1,07,0.9,148.7,M,8.4,M,,0000*6D,0
1778778910668893094,$GPGSA,M,3,05,21,17,14,24,30,11,,,,,,2.0,0.9,1.7*33,0
1778778910836196255,$GPRMC,171510.000,A,1205.9250,S,07701.4877,W,19.59,205.58,140526,,,A*5D,0
1778778911544561942,$GPGGA,171511.000,1205.9314,S,07701.4900,W,1,07,0.9,150.1,M,8.4,M,,0000*63,0
1778778911666031348,$GPGSA,M,3,05,21,17,14,24,30,11,,,,,,2.0,0.9,1.7*33,0
1778778911833326416,$GPRMC,171511.000,A,1205.9314,S,07701.4900,W,19.35,205.10,140526,,,A*5A,0
1778778912543565721,$GPGGA,171512.000,1205.9375,S,07701.4923,W,1,07,0.9,151.2,M,8.4,M,,0000*64,0
1778778912665018163,$GPGSA,M,3,05,21,17,14,24,30,11,,,,,,2.0,0.9,1.7*33,0
1778778912832327028,$GPRMC,171512.000,A,1205.9375,S,07701.4923,W,20.84,205.57,140526,,,A*5C,0
1778778913544233451,$GPGGA,171513.000,1205.9430,S,07701.4944,W,1,07,0.9,151.7,M,8.4,M,,0000*67,0
1778778913665697893,$GPGSA,M,3,05,21,17,14,24,30,11,,,,,,2.0,0.9,1.7*33,0
1778778913833000314,$GPRMC,171513.000,A,1205.9430,S,07701.4944,W,20.69,205.26,140526,,,A*5F,0
1778778914542451342,$GPGGA,171514.000,1205.9482,S,07701.4966,W,1,06,1.0,151.4,M,8.4,M,,0000*63,0
1778778914659303079,$GPGSA,M,3,05,21,17,24,30,11,,,,,,,2.0,1.0,1.7*3E,0
1778778914819726527,$GPGSV,3,1,12,05,54,295,42,21,48,346,43,17,30,093,39,24,18,238,29*75,0
1778778914980142826,$GPGSV,3,2,12,30,12,122,21,11,09,356,18,13,51,160,38,14,23,146,18*7D,0
1778778915126813313,$GPGSV,3,3,12,44,42,284,37,28,52,153,,26,47,127,,23,29,066,*75,0
1778778915294113529,$GPRMC,171514.000,A,1205.9482,S,07701.4966,W,18.71,204.00,140526,,,A*56,0
1778778915538292179,$GPGGA,171515.000,1205.9528,S,07701.4986,W,1,04,9.2,151.5,M,8.4,M,,0000*64,0
1778778915646010586,$GPGSA,M,3,05,21,24,11,,,,,,,,,9.4,9.2,1.9*30,0
1778778915813296894,$GPRMC,171515.000,A,1205.9528,S,07701.4986,W,16.59,203.70,140526,,,A*5C,0
1778778916540641250,$GPGGA,171516.000,1205.9567,S,07701.5001,W,1,05,1.2,151.7,M,8.4,M,,0000*60,0
1778778916652919062,$GPGSA,M,3,05,21,17,24,11,,,,,,,,2.2,1.2,1.8*32,0
1778778916820227113,$GPRMC,171516.000,A,1205.9567,S,07701.5001,W,13.83,200.46,140526,,,A*57,0
1778778917540680829,$GPGGA,171517.000,1205.9598,S,07701.5011,W,1,05,1.2,151.7,M,8.4,M,,0000*60,0
1778778917652979736,$GPGSA,M,3,05,21,17,24,11,,,,,,,,2.2,1.2,1.8*32,0
1778778917820278693,$GPRMC,171517.000,A,1205.9598,S,07701.5011,W,10.60,197.79,140526,,,A*58,0
1778778918544478516,$GPGGA,171518.000,1205.9615,S,07701.5018,W,1,06,1.0,150.7,M,8.4,M,,0000*60,0
1778778918661344346,$GPGSA,M,3,05,21,17,14,24,11,,,,,,,2.1,1.0,1.8*36,0
1778778918826365073,$GPRMC,171518.000,A,1205.9615,S,07701.5018,W,6.20,197.28,140526,,,A*6F,0
1778778919543696685,$GPGGA,171519.000,1205.9625,S,07701.5022,W,1,06,1.0,150.5,M,8.4,M,,0000*69,0
1778778919660567664,$GPGSA,M,3,05,21,17,14,24,11,,,,,,,2.1,1.0,1.8*36,0
1778778919820991705,$GPGSV,3,1,12,05,54,295,37,21,48,346,37,17,30,093,19,14,23,146,29*77,0
1778778919981427229,$GPGSV,3,2,12,24,18,238,19,11,09,356,28,13,51,160,29,44,42,284,38*7F,0
1778778920123500326,$GPGSV,3,3,12,28,52,153,,26,47,127,,23,29,066,,16,21,147,*7F,0
1778778920288511533,$GPRMC,171519.000,A,1205.9625,S,07701.5022,W,3.47,200.13,140526,,,A*65,0
1778778920545193992,$GPGGA,171520.000,1205.9636,S,07701.5024,W,1,06,1.0,150.4,M,8.4,M,,0000*66,0
1778778920662141182,$GPGSA,M,3,05,21,17,14,24,11,,,,,,,2.1,1.0,1.8*36,0
1778778920827068196,$GPRMC,171520.000,A,1205.9636,S,07701.5024,W,3.83,200.53,140526,,,A*67,0
1778778921547949712,$GPGGA,171521.000,1205.9647,S,07701.5029,W,1,07,0.9,150.3,M,8.4,M,,0000*62,0
1778778921669409006,$GPGSA,M,3,05,21,17,14,24,30,11,,,,,,2.0,0.9,1.7*33,0
1778778921834426899,$GPRMC,171521.000,A,1205.9647,S,07701.5029,W,5.66,202.86,140526,,,A*6A,0
1778778922546975141,$GPGGA,171522.000,1205.9654,S,07701.5038,W,1,07,0.9,146.4,M,8.4,M,,0000*63,0
1778778922668418619,$GPGSA,M,3,05,21,17,14,24,30,11,,,,,,2.0,0.9,1.7*33,0
1778778922833413177,$GPRMC,171522.000,A,1205.9654,S,07701.5038,W,7.64,203.53,140526,,,A*62,0
1778778923548669910,$GPGGA,171523.000,1205.9676,S,07701.5049,W,1,07,0.9,144.9,M,8.4,M,,0000*6B,0
1778778923670117388,$GPGSA,M,3,05,21,17,14,24,30,11,,,,,,2.0,0.9,1.7*33,0
1778778923837427754,$GPRMC,171523.000,A,1205.9676,S,07701.5049,W,10.22,203.09,140526,,,A*5E,0
1778778924544976513,$GPGGA,171524.000,1205.9700,S,07701.5060,W,1,07,0.9,143.7,M,8.4,M,,0000*6E,0
1778778924666417824,$GPGSA,M,3,05,21,17,14,24,30,11,,,,,,2.0,0.9,1.7*33,0
1778778924826854792,$GPGSV,3,1,12,05,54,295,43,21,48,346,42,17,30,093,37,14,23,146,36*74,0
1778778924987270795,$GPGSV,3,2,12,24,18,238,19,30,12,122,28,11,09,356,34,13,51,160,27*74,0
1778778925133952320,$GPGSV,3,3,12,44,42,284,42,28,52,153,,26,47,127,,23,29,066,*77,0
1778778925301277761,$GPRMC,171524.000,A,1205.9700,S,07701.5060,W,10.01,203.15,140526,,,A*5E,0
1778778925555226947,$GPGGA,171525.000,1205.9720,S,07701.5070,W,1,07,0.9,142.3,M,8.4,M,,0000*69,0
1778778925676680204,$GPGSA,M,3,05,21,17,14,24,30,11,,,,,,2.0,0.9,1.7*33,0
1778778925841700097,$GPRMC,171525.000,A,1205.9720,S,07701.5070,W,7.63,200.25,140526,,,A*6E,0
1778778926549229428,$GPGGA,171526.000,1205.9729,S,07701.5077,W,1,07,0.9,139.5,M,8.4,M,,0000*6E,0
1778778926670691371,$GPGSA,M,3,05,21,17,14,24,30,11,,,,,,2.0,0.9,1.7*33,0
1778778926835700245,$GPRMC,171526.000,A,1205.9729,S,07701.5077,W,5.52,193.49,140526,,,A*60,0
1778778927550316290,$GPGGA,171527.000,1205.9740,S,07701.5078,W,1,07,0.9,138.4,M,8.4,M,,0000*6F,0
1778778927671846276,$GPGSA,M,3,05,21,17,14,24,30,11,,,,,,2.0,0.9,1.7*33,0
1778778927836786273,$GPRMC,171527.000,A,1205.9740,S,07701.5078,W,5.26,179.94,140526,,,A*66,0
1778778928551191224,$GPGGA,171528.000,1205.9757,S,07701.5073,W,1,07,0.9,137.6,M,8.4,M,,0000*60,0
1778778928672663556,$GPGSA,M,3,05,21,17,14,24,30,11,,,,,,2.0,0.9,1.7*33,0
1778778928837667189,$GPRMC,171528.000,A,1205.9757,S,07701.5073,W,7.31,157.28,140526,,,A*6B,0
1778778929549171686,$GPGGA,171529.000,1205.9777,S,07701.5056,W,1,07,0.9,137.4,M,8.4,M,,0000*66,0
1778778929670631869,$GPGSA,M,3,05,21,17,14,24,30,11,,,,,,2.0,0.9,1.7*33,0
1778778929831048409,$GPGSV,3,1,12,05,53,297,44,21,47,347,39,17,30,095,37,14,22,146,41*73,0
1778778929991478932,$GPGSV,3,2,12,24,18,237,25,30,11,121,35,11,09,357,35,13,52,158,31*77,0
1778778930138156141,$GPGSV,3,3,12,44,42,284,43,28,50,154,,26,47,124,,23,29,064,*72,0
1778778930303161126,$GPRMC,171529.000,A,1205.9777,S,07701.5056,W,9.27,134.87,140526,,,A*66,0
1778778930550674178,$GPGGA,171530.000,1205.9794,S,07701.5031,W,1,07,0.9,137.0,M,8.4,M,,0000*66,0
1778778930672121823,$GPGSA,M,3,05,21,17,14,24,30,11,,,,,,2.0,0.9,1.7*33,0
1778778930839423354,$GPRMC,171530.000,A,1205.9794,S,07701.5031,W,11.06,120.44,140526,,,A*52,0
1778778931546970520,$GPGGA,171531.000,1205.9809,S,07701.4998,W,1,07,0.9,136.9,M,8.4,M,,0000*6F,0
1778778931668442445,$GPGSA,M,3,05,21,17,14,24,30,11,,,,,,2.0,0.9,1.7*33,0
1778778931835759756,$GPRMC,171531.000,A,1205.9809,S,07701.4998,W,12.93,114.87,140526,,,A*54,0
1778778932545767336,$GPGGA,171532.000,1205.9824,S,07701.4960,W,1,07,0.9,137.1,M,8.4,M,,0000*6D,0
1778778932667215036,$GPGSA,M,3,05,21,17,14,24,30,11,,,,,,2.0,0.9,1.7*33,0
1778778932834523494,$GPRMC,171532.000,A,1205.9824,S,07701.4960,W,13.58,112.07,140526,,,A*57,0
1778778933549973912,$GPGGA,171533.000,1205.9837,S,07701.4922,W,1,07,0.9,137.3,M,8.4,M,,0000*6A,0
1778778933671433762,$GPGSA,M,3,05,21,17,14,24,30,11,,,,,,2.0,0.9,1.7*33,0
1778778933838744943,$GPRMC,171533.000,A,1205.9837,S,07701.4922,W,12.54,111.93,140526,,,A*51,0
1778778934550233734,$GPGGA,171534.000,1205.9848,S,07701.4888,W,1,07,0.9,137.7,M,8.4,M,,0000*60,0
1778778934671689398,$GPGSA,M,3,05,21,17,14,24,30,11,,,,,,2.0,0.9,1.7*33,0
1778778934832120199,$GPGSV,3,1,12,05,53,297,44,21,47,347,38,17,30,095,36,14,22,146,40*72,0
1778778934992540962,$GPGSV,3,2,12,24,18,237,25,30,11,121,38,11,09,357,20,06,00,033,15*77,0
1778778935143794207,$GPGSV,3,3,12,13,52,158,40,44,42,284,46,28,50,154,,26,47,124,*72,0
1778778935311101165,$GPRMC,171534.000,A,1205.9848,S,07701.4888,W,11.07,110.66,140526,,,A*51,0
1778778935556536709,$GPGGA,171535.000,1205.9859,S,07701.4858,W,1,07,0.9,137.9,M,8.4,M,,0000*62,0
1778778935677997874,$GPGSA,M,3,05,21,17,14,24,30,11,,,,,,2.0,0.9,1.7*33,0
1778778935845288145,$GPRMC,171535.000,A,1205.9859,S,07701.4858,W,10.24,111.19,140526,,,A*54,0
1778778936550529819,$GPGGA,171536.000,1205.9869,S,07701.4830,W,1,07,0.9,138.2,M,8.4,M,,0000*68,0
1778778936672033395,$GPGSA,M,3,05,21,17,14,24,30,11,,,,,,2.0,0.9,1.7*33,0
1778778936837089218,$GPRMC,171536.000,A,1205.9869,S,07701.4830,W,9.94,111.66,140526,,,A*61,0
1778778937552467204,$GPGGA,171537.000,1205.9881,S,07701.4800,W,1,07,0.9,138.6,M,8.4,M,,0000*68,0
1778778937673905644,$GPGSA,M,3,05,21,17,14,24,30,11,,,,,,2.0,0.9,1.7*33,0
1778778937841215991,$GPRMC,171537.000,A,1205.9881,S,07701.4800,W,11.42,115.84,140526,,,A*5F,0
1778778938555499931,$GPGGA,171538.000,1205.9897,S,07701.4767,W,1,07,0.9,138.9,M,8.4,M,,0000*61,0
1778778938676899682,$GPGSA,M,3,05,21,17,14,24,30,11,,,,,,2.0,0.9,1.7*33,0
1778778938844196176,$GPRMC,171538.000,A,1205.9897,S,07701.4767,W,13.41,117.49,140526,,,A*5B,0
1778778939551746102,$GPGGA,171539.000,1205.9915,S,07701.4732,W,1,07,0.9,139.1,M,8.4,M,,0000*62,0
1778778939673268995,$GPGSA,M,3,05,21,17,14,24,30,11,,,,,,2.0,0.9,1.7*33,0
1778778939833609843,$GPGSV,3,1,12,05,53,297,45,21,47,347,37,17,30,095,37,14,22,146,40*7D,0
1778778939994033754,$GPGSV,3,2,12,24,18,237,34,30,11,121,38,11,09,357,19,13,52,158,32*77,0
1778778940140709852,$GPGSV,3,3,12,44,42,284,46,28,50,154,,26,47,124,,23,29,064,*77,0
1778778940308004827,$GPRMC,171539.000,A,1205.9915,S,07701.4732,W,13.65,118.70,140526,,,A*52,0
1778778940554259096,$GPGGA,171540.000,1205.9935,S,07701.4696,W,1,07,0.9,139.3,M,8.4,M,,0000*63,0
1778778940675726020,$GPGSA,M,3,05,21,17,14,24,30,11,,,,,,2.0,0.9,1.7*33,0
1778778940843053165,$GPRMC,171540.000,A,1205.9935,S,07701.4696,W,14.27,119.31,140526,,,A*54,0
1778778941558691582,$GPGGA,171541.000,1205.9955,S,07701.4662,W,1,07,0.9,139.5,M,8.4,M,,0000*69,0
1778778941680158470,$GPGSA,M,3,05,21,17,14,24,30,11,,,,,,2.0,0.9,1.7*33,0
1778778941847451334,$GPRMC,171541.000,A,1205.9955,S,07701.4662,W,13.16,119.34,140526,,,A*58,0
1778778942548734344,$GPGGA,171542.000,1205.9972,S,07701.4633,W,1,07,0.9,139.6,M,8.4,M,,0000*68,0
1778778942670191508,$GPGSA,M,3,05,21,17,14,24,30,11,,,,,,2.0,0.9,1.7*33,0
1778778942837544971,$GPRMC,171542.000,A,1205.9972,S,07701.4633,W,10.34,119.12,140526,,,A*5D,0
1778778943552116733,$GPGGA,171543.000,1205.9985,S,07701.4609,W,1,07,0.9,139.9,M,8.4,M,,0000*67,0
1778778943673576787,$GPGSA,M,3,05,21,17,14,24,30,11,,,,,,2.0,0.9,1.7*33,0
1778778943838593865,$GPRMC,171543.000,A,1205.9985,S,07701.4609,W,8.50,118.75,140526,,,A*66,0
1778778944552993353,$GPGGA,171544.000,1205.9996,S,07701.4590,W,1,07,0.9,140.1,M,8.4,M,,0000*67,0
1778778944674467704,$GPGSA,M,3,05,21,17,14,24,30,11,,,,,,2.0,0.9,1.7*33,0
1778778944834902561,$GPGSV,3,1,12,05,53,297,46,21,47,347,44,17,30,095,29,14,22,146,39*7B,0
1778778944995298692,$GPGSV,3,2,12,24,18,237,24,30,11,121,38,11,09,357,26,13,52,158,44*7B,0
1778778945141979309,$GPGSV,3,3,12,44,42,284,45,28,50,154,,26,47,124,,23,29,064,*74,0
1778778945306998610,$GPRMC,171544.000,A,1205.9996,S,07701.4590,W,6.88,119.57,140526,,,A*6A,0
1778778945556376242,$GPGGA,171545.000,1206.0005,S,07701.4576,W,1,07,0.9,140.2,M,8.4,M,,0000*64,0
1778778945677836425,$GPGSA,M,3,05,21,17,14,24,30,11,,,,,,2.0,0.9,1.7*33,0
1778778945842840410,$GPRMC,171545.000,A,1206.0005,S,07701.4576,W,4.85,120.79,140526,,,A*63,0
1778778946552263324,$GPGGA,171546.000,1206.0010,S,07701.4568,W,1,07,0.9,140.5,M,8.4,M,,0000*6B,0
1778778946673727397,$GPGSA,M,3,05,21,17,14,24,30,11,,,,,,2.0,0.9,1.7*33,0
1778778946838727048,$GPRMC,171546.000,A,1206.0010,S,07701.4568,W,1.95,120.22,140526,,,A*61,0
1778778947553142407,$GPGGA,171547.000,1206.0011,S,07701.4567,W,1,07,0.9,140.4,M,8.4,M,,0000*65,1
1778778947674597775,$GPGSA,M,3,05,21,17,14,24,30,11,,,,,,2.0,0.9,1.7*33,1
1778778947839617354,$GPRMC,171547.000,A,1206.0011,S,07701.4567,W,0.06,120.22,140526,,,A*65,1
1778778948549232897,$GPGGA,171548.000,1206.0011,S,07701.4567,W,1,07,0.9,140.4,M,8.4,M,,0000*6A,1
1778778948670690617,$GPGSA,M,3,05,21,17,14,24,30,11,,,,,,2.0,0.9,1.7*33,1
1778778948835701806,$GPRMC,171548.000,A,1206.0011,S,07701.4567,W,0.00,120.22,140526,,,A*6C,1
1778778949553871403,$GPGGA,171549.000,1206.0011,S,07701.4567,W,1,07,0.9,140.4,M,8.4,M,,0000*6B,1
1778778949675329215,$GPGSA,M,3,05,21,17,14,24,30,11,,,,,,2.0,0.9,1.7*33,1
1778778949835733180,$GPGSV,3,1,12,05,53,297,46,21,47,347,43,17,30,095,37,14,22,146,41*7C,1
1778778949996156425,$GPGSV,3,2,12,24,18,237,23,30,11,121,38,11,09,357,36,06,00,033,17*74,1
1778778950147439247,$GPGSV,3,3,12,13,52,158,43,44,42,284,46,28,50,154,,26,47,124,*71,1
1778778950312435212,$GPRMC,171549.000,A,1206.0011,S,07701.4567,W,0.00,120.22,140526,,,A*6D,1
1778778950552033400,$GPGGA,171550.000,1206.0011,S,07701.4567,W,1,07,0.9,140.4,M,8.4,M,,0000*63,1
1778778950673482767,$GPGSA,M,3,05,21,17,14,24,30,11,,,,,,2.0,0.9,1.7*33,1
1778778950838501568,$GPRMC,171550.000,A,1206.0011,S,07701.4567,W,0.00,120.22,140526,,,A*65,1
1778778951553746949,$GPGGA,171551.000,1206.0011,S,07701.4567,W,1,07,0.9,140.4,M,8.4,M,,0000*62,1
1778778951675213299,$GPGSA,M,3,05,21,17,14,24,30,11,,,,,,2.0,0.9,1.7*33,1
1778778951840223507,$GPRMC,171551.000,A,1206.0011,S,07701.4567,W,0.00,120.22,140526,,,A*64,1
1778778952561083112,$GPGGA,171552.000,1206.0011,S,07701.4567,W,1,07,0.9,140.4,M,8.4,M,,0000*61,1
1778778952682539406,$GPGSA,M,3,05,21,17,14,24,30,11,,,,,,2.0,0.9,1.7*33,1
1778778952847550003,$GPRMC,171552.000,A,1206.0011,S,07701.4567,W,0.00,120.22,140526,,,A*67,1
