Unix_time,GPS_data,flagStop
1778777321705485890,$GPGSA,M,3,21,05,14,17,30,11,,,,,,,2.5,1.5,2.0*39,0
1778777321706014513,$GPRMC,164810.000,A,1205.9921,S,07701.4540,W,0.00,285.79,140526,,,A*6F,0
1778777321706733487,$GPGGA,164811.000,1205.9921,S,07701.4540,W,1,06,1.5,143.1,M,8.4,M,,0000*60,0
1778777321707498187,$GPGSA,M,3,21,05,14,17,30,11,,,,,,,2.5,1.5,2.0*39,0
1778777321708002679,$GPRMC,164811.000,A,1205.9921,S,07701.4540,W,0.00,285.79,140526,,,A*6E,0
1778777321708719597,$GPGGA,164812.000,1205.9921,S,07701.4540,W,1,06,1.5,143.1,M,8.4,M,,0000*63,0
1778777321709454814,$GPGSA,M,3,21,05,14,17,30,11,,,,,,,2.5,1.5,2.0*39,0
1778777321709949193,$GPRMC,164812.000,A,1205.9921,S,07701.4540,W,0.00,285.79,140526,,,A*6D,0
1778777321710646295,$GPGGA,164813.000,1205.9920,S,07701.4540,W,1,06,1.5,143.2,M,8.4,M,,0000*60,0
1778777321711381141,$GPGSA,M,3,21,05,14,17,30,11,,,,,,,2.5,1.5,2.0*39,0
1778777321711876335,$GPRMC,164813.000,A,1205.9920,S,07701.4540,W,0.08,285.79,140526,,,A*65,0
1778777321712587382,$GPGGA,164814.000,1205.9920,S,07701.4540,W,1,06,1.5,143.2,M,8.4,M,,0000*67,0
1778777321713323525,$GPGSA,M,3,21,05,14,17,30,11,,,,,,,2.5,1.5,2.0*39,0
1778777321713818033,$GPGSV,3,1,12,21,60,337,45,05,57,271,31,14,34,146,20,17,29,079,46*78,0
1778777321714493355,$GPGSV,3,2,12,30,16,132,30,11,12,346,18,13,44,174,26,24,38,194,30*71,0
1778777321715169863,$GPGSV,3,3,12,44,42,284,40,28,65,146,,26,44,144,,23,34,078,*70,0
1778777321715788364,$GPRMC,164814.000,A,1205.9920,S,07701.4540,W,0.01,285.79,140526,,,A*6B,0
1778777321716488670,$GPGGA,164815.000,1205.9920,S,07701.4540,W,1,06,1.5,143.2,M,8.4,M,,0000*66,0
1778777321717220183,$GPGSA,M,3,21,05,14,17,30,11,,,,,,,2.5,1.5,2.0*39,0
1778777321717712673,$GPRMC,164815.000,A,1205.9920,S,07701.4540,W,0.00,285.79,140526,,,A*6B,0
1778777321718407719,$GPGGA,164816.000,1205.9920,S,07701.4540,W,1,06,1.5,143.2,M,8.4,M,,0000*65,0
1778777321719139231,$GPGSA,M,3,21,05,14,17,30,11,,,,,,,2.5,1.5,2.0*39,0
1778777321719629795,$GPRMC,164816.000,A,1205.9920,S,07701.4540,W,0.00,285.79,140526,,,A*68,0
1778777321720328953,$GPGGA,164817.000,1205.9920,S,07701.4540,W,1,06,1.5,143.2,M,8.4,M,,0000*64,0
1778777321721058909,$GPGSA,M,3,21,05,14,17,30,11,,,,,,,2.5,1.5,2.0*39,0
1778777321721548436,$GPRMC,164817.000,A,1205.9920,S,07701.4540,W,0.00,285.79,140526,,,A*69,0
1778777321722241723,$GPGGA,164818.000,1205.9920,S,07701.4540,W,1,06,1.5,143.2,M,8.4,M,,0000*6B,0
1778777321722974846,$GPGSA,M,3,21,05,14,17,30,11,,,,,,,2.5,1.5,2.0*39,0
1778777321723467466,$GPRMC,164818.000,A,1205.9920,S,07701.4540,W,0.00,285.79,140526,,,A*66,0
1778777321724159993,$GPGGA,164819.000,1205.9920,S,07701.4540,W,1,06,1.5,143.2,M,8.4,M,,0000*6A,0
1778777321724899488,$GPGSA,M,3,21,05,14,17,30,11,,,,,,,2.5,1.5,2.0*39,0
1778777321725389682,$GPGSV,3,1,12,21,60,337,45,05,57,271,31,14,34,146,19,17,29,079,46*72,0
1778777321726061466,$GPGSV,3,2,12,30,16,132,25,11,12,346,17,06,02,022,13,13,44,174,25*7D,0
1778777321726735140,$GPGSV,3,3,12,24,38,194,31,44,42,284,40,28,65,146,,26,44,144,*7A,0
1778777321727369569,$GPRMC,164819.000,A,1205.9920,S,07701.4540,W,0.00,285.79,140526,,,A*67,0
1778777321728062059,$GPGGA,164820.000,1205.9920,S,07701.4540,W,1,06,1.5,143.2,M,8.4,M,,0000*60,0
1778777321728799961,$GPGSA,M,3,21,05,14,17,30,11,,,,,,,2.5,1.5,2.0*39,0
1778777321729288747,$GPRMC,164820.000,A,1205.9920,S,07701.4540,W,0.00,285.79,140526,,,A*6D,0
1778777321729979182,$GPGGA,164821.000,1205.9920,S,07701.4540,W,1,06,1.5,143.2,M,8.4,M,,0000*61,0
1778777321730706935,$GPGSA,M,3,21,05,14,17,30,11,,,,,,,2.5,1.5,2.0*39,0
1778777321731195943,$GPRMC,164821.000,A,1205.9920,S,07701.4540,W,0.00,285.79,140526,,,A*6C,0
1778777321731885748,$GPGGA,164822.000,1205.9920,S,07701.4540,W,1,06,1.5,143.2,M,8.4,M,,0000*62,0
1778777321732620297,$GPGSA,M,3,21,05,14,17,30,11,,,,,,,2.5,1.5,2.0*39,0
1778777321733107583,$GPRMC,164822.000,A,1205.9920,S,07701.4540,W,0.00,285.79,140526,,,A*6F,0
1778777321733794925,$GPGGA,164823.000,1205.9920,S,07701.4540,W,1,06,1.5,143.2,M,8.4,M,,0000*63,0
1778777321734519826,$GPGSA,M,3,21,05,14,17,30,11,,,,,,,2.5,1.5,2.0*39,0
1778777321735008556,$GPRMC,164823.000,A,1205.9920,S,07701.4540,W,0.00,285.79,140526,,,A*6E,0
1778777321735789388,$GPGGA,164824.000,1205.9920,S,07701.4540,W,1,06,1.5,143.2,M,8.4,M,,0000*64,0
1778777321736503769,$GPGSA,M,3,21,05,14,17,30,11,,,,,,,2.5,1.5,2.0*39,0
1778777321736998296,$GPGSV,3,1,12,21,60,337,45,05,57,271,31,14,34,146,20,17,29,079,46*78,0
1778777321737662099,$GPGSV,3,2,12,30,16,132,17,11,12,346,21,13,44,174,26,24,38,194,33*7D,0
1778777321738328994,$GPGSV,3,3,12,44,42,284,40,28,65,146,,26,44,144,,23,34,078,*70,0
1778777321738671637,$GPRMC,164824.000,A,1205.9920,S,07701.4540,W,0.00,285.79,140526,,,A*69,0
1778777321738806520,$GPGGA,164825.000,1205.9920,S,07701.4540,W,1,07,1.0,143.2,M,8.4,M,,0000*61,0
1778777321738949237,$GPGSA,M,3,21,05,14,17,30,11,24,,,,,,1.8,1.0,1.5*32,0
1778777321739049135,$GPRMC,164825.000,A,1205.9920,S,07701.4540,W,0.00,285.79,140526,,,A*68,0
1778777321739184833,$GPGGA,164826.000,1205.9920,S,07701.4540,W,1,07,1.0,143.2,M,8.4,M,,0000*62,0
1778777321739327920,$GPGSA,M,3,21,05,14,17,30,24,11,,,,,,1.8,1.0,1.5*32,0
1778777321739428059,$GPRMC,164826.000,A,1205.9920,S,07701.4540,W,0.00,285.79,140526,,,A*6B,0
1778777321739563461,$GPGGA,164827.000,1205.9920,S,07701.4540,W,1,07,1.0,143.3,M,8.4,M,,0000*62,0
1778777321739706307,$GPGSA,M,3,21,05,14,17,30,24,11,,,,,,1.8,1.0,1.5*32,0
1778777321739806353,$GPRMC,164827.000,A,1205.9920,S,07701.4540,W,0.00,285.79,140526,,,A*6A,0
1778777321739941996,$GPGGA,164828.000,1205.9920,S,07701.4540,W,1,07,1.0,143.3,M,8.4,M,,0000*6D,0
1778777321740084861,$GPGSA,M,3,21,05,14,17,30,24,11,,,,,,1.8,1.0,1.5*32,0
1778777321740184629,$GPRMC,164828.000,A,1205.9920,S,07701.4540,W,0.00,285.79,140526,,,A*65,0
1778777321740339162,$GPGGA,164829.000,1205.9920,S,07701.4540,W,1,07,1.0,143.3,M,8.4,M,,0000*6C,0
1778777321740481768,$GPGSA,M,3,21,05,14,17,30,24,11,,,,,,1.8,1.0,1.5*32,0
1778777321740581481,$GPGSV,3,1,12,21,59,337,45,05,57,273,32,14,33,146,20,17,29,080,46*72,0
1778777321740713141,$GPGSV,3,2,12,30,16,131,23,24,15,248,33,11,12,347,21,13,44,173,26*72,0
1778777321740845209,$GPGSV,3,3,12,44,42,284,40,28,64,147,,26,44,143,,23,34,078,*77,0
1778777321740965887,$GPRMC,164829.000,A,1205.9920,S,07701.4540,W,0.00,285.79,140526,,,A*64,0
1778777321741101640,$GPGGA,164830.000,1205.9920,S,07701.4540,W,1,07,1.0,143.3,M,8.4,M,,0000*64,0
1778777321741244024,$GPGSA,M,3,21,05,14,17,30,24,11,,,,,,1.8,1.0,1.5*32,0
1778777321741344218,$GPRMC,164830.000,A,1205.9920,S,07701.4540,W,0.00,285.79,140526,,,A*6C,0
1778777321741479750,$GPGGA,164831.000,1205.9920,S,07701.4540,W,1,07,1.0,143.3,M,8.4,M,,0000*65,0
1778777321741622726,$GPGSA,M,3,21,05,14,17,30,24,11,,,,,,1.8,1.0,1.5*32,0
1778777321741722865,$GPRMC,164831.000,A,1205.9920,S,07701.4540,W,0.00,285.79,140526,,,A*6D,0
1778777321741858803,$GPGGA,164832.000,1205.9920,S,07701.4540,W,1,07,1.0,143.3,M,8.4,M,,0000*66,0
1778777321742001761,$GPGSA,M,3,21,05,14,17,30,24,11,,,,,,1.8,1.0,1.5*32,0
1778777321742101770,$GPRMC,164832.000,A,1205.9920,S,07701.4540,W,0.00,285.79,140526,,,A*6E,0
1778777321742236690,$GPGGA,164833.000,1205.9920,S,07701.4540,W,1,07,1.0,143.3,M,8.4,M,,0000*67,0
1778777321742379796,$GPGSA,M,3,21,05,14,17,30,24,11,,,,,,1.8,1.0,1.5*32,0
1778777321742479935,$GPRMC,164833.000,A,1205.9920,S,07701.4540,W,0.00,285.79,140526,,,A*6F,0
1778777321742614725,$GPGGA,164834.000,1205.9920,S,07701.4540,W,1,06,1.5,143.3,M,8.4,M,,0000*64,0
1778777321742757739,$GPGSA,M,3,21,05,14,17,30,24,,,,,,,2.8,1.5,2.3*31,0
1778777321742854025,$GPGSV,3,1,12,21,59,337,45,05,57,273,31,14,33,146,18,17,29,080,46*7A,0
1778777321742985760,$GPGSV,3,2,12,30,16,131,26,24,15,248,32,11,12,347,05,13,44,173,26*70,0
1778777321743117457,$GPGSV,3,3,12,44,42,284,41,28,64,147,,26,44,143,,23,34,078,*76,0
1778777321743238024,$GPRMC,164834.000,A,1205.9920,S,07701.4540,W,0.00,285.79,140526,,,A*68,0
1778777321743373722,$GPGGA,164835.000,1205.9920,S,07701.4540,W,1,05,2.2,143.3,M,8.4,M,,0000*62,0
1778777321743516846,$GPGSA,M,3,21,05,17,30,24,,,,,,,,3.8,2.2,3.1*32,0
1778777321743609392,$GPRMC,164835.000,A,1205.9920,S,07701.4540,W,0.00,285.79,140526,,,A*69,0
1778777321743744904,$GPGGA,164836.000,1205.9920,S,07701.4540,W,1,05,2.2,143.3,M,8.4,M,,0000*61,0
1778777321743947942,$GPGSA,M,3,21,05,17,30,24,,,,,,,,3.8,2.2,3.1*32,0
1778777321744040302,$GPRMC,164836.000,A,1205.9920,S,07701.4540,W,0.00,285.79,140526,,,A*6A,0
1778777321744175222,$GPGGA,164837.000,1205.9920,S,07701.4540,W,1,05,2.2,143.3,M,8.4,M,,0000*60,0
1778777321744327273,$GPGSA,M,3,21,05,17,30,24,,,,,,,,3.8,2.2,3.1*32,0
1778777321744418837,$GPRMC,164837.000,A,1205.9920,S,07701.4540,W,0.00,285.79,140526,,,A*6B,0
1778777321744554220,$GPGGA,164838.000,1205.9920,S,07701.4538,W,1,05,2.2,143.9,M,8.4,M,,0000*6A,0
1778777321744696919,$GPGSA,M,3,21,05,17,30,24,,,,,,,,3.8,2.2,3.1*32,0
1778777321744788538,$GPRMC,164838.000,A,1205.9920,S,07701.4538,W,0.17,285.79,140526,,,A*6D,0
1778777321744923773,$GPGGA,164839.000,1205.9919,S,07701.4536,W,1,05,2.2,144.4,M,8.4,M,,0000*65,0
1778777321745066434,$GPGSA,M,3,21,05,17,30,24,,,,,,,,3.8,2.2,3.1*32,0
1778777321745158665,$GPGSV,3,1,12,21,59,337,45,05,57,273,28,17,29,080,46,30,16,131,27*7F,0
1778777321745290085,$GPGSV,3,2,12,24,15,248,32,13,44,173,25,44,42,284,41,28,64,147,*71,0
1778777321745417893,$GPGSV,3,3,12,26,44,143,,23,34,078,,14,33,146,,16,31,146,*71,0
1778777321745534496,$GPRMC,164839.000,A,1205.9919,S,07701.4536,W,0.21,285.79,140526,,,A*6D,0
1778777321745669768,$GPGGA,164840.000,1205.9919,S,07701.4536,W,1,06,1.5,144.4,M,8.4,M,,0000*6C,0
1778777321745812374,$GPGSA,M,3,21,05,14,17,30,24,,,,,,,2.8,1.5,2.3*31,0
1778777321745908494,$GPRMC,164840.000,A,1205.9919,S,07701.4536,W,0.01,285.79,140526,,,A*61,0
1778777321746043729,$GPGGA,164841.000,1205.9919,S,07701.4536,W,1,06,1.5,144.4,M,8.4,M,,0000*6D,0
1778777321746187353,$GPGSA,M,3,21,05,14,17,30,24,,,,,,,2.8,1.5,2.3*31,0
1778777321746284603,$GPRMC,164841.000,A,1205.9919,S,07701.4536,W,0.00,285.79,140526,,,A*61,0
1778777322380752133,$GPGGA,164842.000,1205.9919,S,07701.4536,W,1,06,1.5,144.4,M,8.4,M,,0000*6E,0
1778777322497654152,$GPGSA,M,3,21,05,14,17,30,24,,,,,,,2.8,1.5,2.3*31,0
1778777322662701438,$GPRMC,164842.000,A,1205.9919,S,07701.4536,W,0.00,285.79,140526,,,A*62,0
1778777323380365099,$GPGGA,164843.000,1205.9919,S,07701.4536,W,1,06,1.5,144.4,M,8.4,M,,0000*6F,0
1778777323497250542,$GPGSA,M,3,21,05,14,17,30,24,,,,,,,2.8,1.5,2.4*36,0
1778777323662245082,$GPRMC,164843.000,A,1205.9919,S,07701.4536,W,0.00,285.79,140526,,,A*63,0
1778777324375855792,$GPGGA,164844.000,1205.9919,S,07701.4536,W,1,06,1.5,144.4,M,8.4,M,,0000*68,0
1778777324492699269,$GPGSA,M,3,21,05,14,17,30,24,,,,,,,2.8,1.5,2.4*36,0
1778777324653179334,$GPGSV,3,1,12,21,59,337,45,05,57,273,27,14,33,146,23,17,29,080,46*75,0
1778777324813591244,$GPGSV,3,2,12,30,16,131,29,24,15,248,31,13,44,173,26,44,42,284,41*77,0
1778777324955733959,$GPGSV,3,3,12,28,64,147,,26,44,143,,23,34,078,,16,31,146,*7D,0
1778777325120668974,$GPRMC,164844.000,A,1205.9919,S,07701.4536,W,0.00,285.79,140526,,,A*64,0
1778777325380356693,$GPGGA,164845.000,1205.9919,S,07701.4536,W,1,06,1.5,144.4,M,8.4,M,,0000*69,0
1778777325497131904,$GPGSA,M,3,21,05,14,17,30,24,,,,,,,2.8,1.5,2.4*36,0
1778777325662163095,$GPRMC,164845.000,A,1205.9919,S,07701.4536,W,0.00,285.79,140526,,,A*65,0
1778777326381343805,$GPGGA,164846.000,1205.9919,S,07701.4536,W,1,06,1.5,144.4,M,8.4,M,,0000*6A,1
1778777326498241749,$GPGSA,M,3,21,05,14,17,30,24,,,,,,,2.8,1.5,2.4*36,1
1778777326663219287,$GPRMC,164846.000,A,1205.9919,S,07701.4536,W,0.00,285.79,140526,,,A*66,1
1778777327380602107,$GPGGA,164847.000,1205.9919,S,07701.4536,W,1,06,1.5,144.4,M,8.4,M,,0000*6B,1
1778777327497488255,$GPGSA,M,3,21,05,14,17,30,24,,,,,,,2.8,1.5,2.4*36,1
1778777327662468849,$GPRMC,164847.000,A,1205.9919,S,07701.4536,W,0.00,285.79,140526,,,A*67,1
1778777328379993886,$GPGGA,164848.000,1205.9919,S,07701.4536,W,1,06,1.5,144.4,M,8.4,M,,0000*64,1
1778777328496904183,$GPGSA,M,3,21,05,14,17,30,24,,,,,,,2.8,1.5,2.4*36,1
1778777328661895371,$GPRMC,164848.000,A,1205.9919,S,07701.4536,W,0.00,285.79,140526,,,A*68,1
1778777329381951272,$GPGGA,164849.000,1205.9919,S,07701.4536,W,1,06,1.5,144.4,M,8.4,M,,0000*65,1
1778777329498786526,$GPGSA,M,3,21,05,14,17,30,24,,,,,,,2.8,1.5,2.4*36,1
1778777329659235699,$GPGSV,3,1,12,21,59,337,45,05,57,273,22,14,33,146,24,17,29,080,46*77,1
1778777329819631941,$GPGSV,3,2,12,30,16,131,30,24,15,248,31,13,44,173,26,44,42,284,40*7E,1
1778777329961725725,$GPGSV,3,3,12,28,64,147,,26,44,143,,23,34,078,,16,31,146,*7D,1
1778777330126783233,$GPRMC,164849.000,A,1205.9919,S,07701.4536,W,0.00,285.79,140526,,,A*69,1
1778777330376580812,$GPGGA,164850.000,1205.9919,S,07701.4536,W,1,06,1.5,144.4,M,8.4,M,,0000*6D,1
1778777330493465645,$GPGSA,M,3,21,05,14,17,30,24,,,,,,,2.8,1.5,2.4*36,1
1778777330658441349,$GPRMC,164850.000,A,1205.9919,S,07701.4536,W,0.00,285.79,140526,,,A*61,1
1778777331380554534,$GPGGA,164851.000,1205.9919,S,07701.4536,W,1,06,1.5,144.4,M,8.4,M,,0000*6C,1
1778777331497453979,$GPGSA,M,3,21,05,14,17,30,24,,,,,,,2.8,1.5,2.4*36,1
1778777331662434999,$GPRMC,164851.000,A,1205.9919,S,07701.4536,W,0.00,285.79,140526,,,A*60,1
1778777332380427487,$GPGGA,164852.000,1205.9919,S,07701.4536,W,1,06,1.5,144.4,M,8.4,M,,0000*6F,1
1778777332497271593,$GPGSA,M,3,21,05,14,17,30,24,,,,,,,2.8,1.5,2.4*36,1
1778777332662313933,$GPRMC,164852.000,A,1205.9919,S,07701.4536,W,0.00,285.79,140526,,,A*63,1
1778777333380679789,$GPGGA,164853.000,1205.9919,S,07701.4536,W,1,06,1.5,144.4,M,8.4,M,,0000*6E,1
1778777333497517340,$GPGSA,M,3,21,05,14,17,30,24,,,,,,,2.8,1.5,2.4*36,1
1778777333662554198,$GPRMC,164853.000,A,1205.9919,S,07701.4536,W,0.00,285.79,140526,,,A*62,1
1778777334382985245,$GPGGA,164854.000,1205.9919,S,07701.4536,W,1,06,1.5,144.4,M,8.4,M,,0000*69,1
1778777334499873486,$GPGSA,M,3,21,05,14,17,30,24,,,,,,,2.8,1.5,2.4*36,1
1778777334660302823,$GPGSV,3,1,12,21,59,337,44,05,57,273,21,14,33,146,24,17,29,080,46*75,1
1778777334820720179,$GPGSV,3,2,12,30,16,131,31,24,15,248,32,11,12,347,15,13,44,173,26*77,1
1778777334967376756,$GPGSV,3,3,12,44,42,284,40,28,64,147,,26,44,143,,23,34,078,*77,1
1778777335132401354,$GPRMC,164854.000,A,1205.9919,S,07701.4536,W,0.00,285.79,140526,,,A*65,1
1778777335381581357,$GPGGA,164855.000,1205.9919,S,07701.4536,W,1,06,1.5,144.4,M,8.4,M,,0000*68,1
1778777335498461856,$GPGSA,M,3,21,05,14,17,30,24,,,,,,,2.8,1.5,2.4*36,1
1778777335663471508,$GPRMC,164855.000,A,1205.9919,S,07701.4536,W,0.00,285.79,140526,,,A*64,1
1778777336381822955,$GPGGA,164856.000,1205.9919,S,07701.4536,W,1,06,1.5,144.4,M,8.4,M,,0000*6B,1
1778777336498703028,$GPGSA,M,3,21,05,14,17,30,24,,,,,,,2.8,1.5,2.4*36,1
1778777336663722347,$GPRMC,164856.000,A,1205.9919,S,07701.4536,W,0.00,285.79,140526,,,A*67,1
1778777337382491555,$GPGGA,164857.000,1205.9919,S,07701.4536,W,1,06,1.5,144.4,M,8.4,M,,0000*6A,1
1778777337499372850,$GPGSA,M,3,21,05,14,17,30,24,,,,,,,2.8,1.5,2.4*36,1
1778777337664384965,$GPRMC,164857.000,A,1205.9919,S,07701.4536,W,0.00,285.79,140526,,,A*66,1
1778777338383793326,$GPGGA,164858.000,1205.9919,S,07701.4536,W,1,06,1.5,144.4,M,8.4,M,,0000*65,1
1778777338500664583,$GPGSA,M,3,21,05,14,17,30,24,,,,,,,2.8,1.5,2.4*36,1
1778777338665697385,$GPRMC,164858.000,A,1205.9919,S,07701.4536,W,0.00,285.79,140526,,,A*69,1
1778777339386546453,$GPGGA,164859.000,1205.9919,S,07701.4536,W,1,06,1.5,144.4,M,8.4,M,,0000*64,0
1778777339503439175,$GPGSA,M,3,21,05,14,17,30,24,,,,,,,2.8,1.5,2.4*36,0
1778777339663861957,$GPGSV,3,1,12,21,59,337,45,05,57,273,21,14,33,146,24,17,29,080,46*74,0
1778777339824278404,$GPGSV,3,2,12,30,16,131,31,24,15,248,32,06,01,023,17,11,12,347,11*70,0
1778777339975536539,$GPGSV,3,3,12,13,44,173,26,44,42,284,40,28,64,147,,26,44,143,*7D,0
1778777340140563785,$GPRMC,164859.000,A,1205.9919,S,07701.4536,W,0.00,285.79,140526,,,A*68,0
1778777340381394291,$GPGGA,164900.000,1205.9919,S,07701.4536,W,1,06,1.5,144.4,M,8.4,M,,0000*69,0
1778777340498279771,$GPGSA,M,3,21,05,14,17,30,24,,,,,,,2.8,1.5,2.4*36,0
1778777340663273977,$GPRMC,164900.000,A,1205.9919,S,07701.4536,W,0.00,285.79,140526,,,A*65,0
1778777341382062761,$GPGGA,164901.000,1205.9918,S,07701.4535,W,1,06,1.5,144.7,M,8.4,M,,0000*69,0
1778777341498944223,$GPGSA,M,3,21,05,14,17,30,24,,,,,,,2.8,1.5,2.4*36,0
1778777341663950615,$GPRMC,164901.000,A,1205.9918,S,07701.4535,W,0.38,285.79,140526,,,A*6D,0
1778777342381285950,$GPGGA,164902.000,1205.9916,S,07701.4537,W,1,06,1.5,145.0,M,8.4,M,,0000*60,0
1778777342498146428,$GPGSA,M,3,21,05,14,17,30,24,,,,,,,2.8,1.5,2.4*36,0
1778777342663185564,$GPRMC,164902.000,A,1205.9916,S,07701.4537,W,1.60,303.43,140526,,,A*68,0
1778777343378615648,$GPGGA,164903.000,1205.9910,S,07701.4541,W,1,06,1.5,145.0,M,8.4,M,,0000*66,0
1778777343495508203,$GPGSA,M,3,21,05,14,17,30,24,,,,,,,2.8,1.5,2.4*36,0
1778777343660511076,$GPRMC,164903.000,A,1205.9910,S,07701.4541,W,2.60,310.43,140526,,,A*6F,0
1778777344376588572,$GPGGA,164904.000,1205.9903,S,07701.4547,W,1,06,1.5,145.2,M,8.4,M,,0000*67,0
1778777344493471367,$GPGSA,M,3,21,05,14,17,30,24,,,,,,,2.8,1.5,2.4*36,0
1778777344653907076,$GPGSV,3,1,12,21,59,337,45,05,57,273,33,14,33,146,35,17,29,080,45*74,0
1778777344814319449,$GPGSV,3,2,12,30,16,131,37,24,15,248,27,13,44,173,30,44,42,284,34*7A,0
1778777344956392546,$GPGSV,3,3,12,28,64,147,,26,44,143,,23,34,078,,16,31,146,*7D,0
1778777345121409958,$GPRMC,164904.000,A,1205.9903,S,07701.4547,W,3.65,312.69,140526,,,A*62,0
1778777345377256857,$GPGGA,164905.000,1205.9895,S,07701.4556,W,1,06,1.5,145.4,M,8.4,M,,0000*6E,0
1778777345494138115,$GPGSA,M,3,21,05,14,17,30,24,,,,,,,2.8,1.5,2.4*36,0
1778777345659147990,$GPRMC,164905.000,A,1205.9895,S,07701.4556,W,4.44,312.46,140526,,,A*64,0
1778777346383762296,$GPGGA,164906.000,1205.9888,S,07701.4567,W,1,06,1.5,145.4,M,8.4,M,,0000*63,0
1778777346500645147,$GPGSA,M,3,21,05,14,17,30,24,,,,,,,2.8,1.5,2.4*36,0
1778777346665671745,$GPRMC,164906.000,A,1205.9888,S,07701.4567,W,4.76,309.12,140526,,,A*63,0
1778777347382153351,$GPGGA,164907.000,1205.9881,S,07701.4579,W,1,06,1.5,145.4,M,8.4,M,,0000*64,0
1778777347499021979,$GPGSA,M,3,21,05,14,17,30,24,,,,,,,2.8,1.5,2.4*36,0
1778777347664044724,$GPRMC,164907.000,A,1205.9881,S,07701.4579,W,4.91,303.90,140526,,,A*6D,0
1778777348376995596,$GPGGA,164908.000,1205.9875,S,07701.4593,W,1,06,1.5,145.5,M,8.4,M,,0000*65,0
1778777348493873243,$GPGSA,M,3,21,05,14,17,30,24,,,,,,,2.8,1.5,2.4*36,0
1778777348658886025,$GPRMC,164908.000,A,1205.9875,S,07701.4593,W,5.17,298.04,140526,,,A*6C,0
1778777349382241751,$GPGGA,164909.000,1205.9870,S,07701.4608,W,1,06,1.5,145.6,M,8.4,M,,0000*63,0
1778777349499125843,$GPGSA,M,3,21,05,14,17,30,24,,,,,,,2.8,1.5,2.4*36,0
1778777349659551495,$GPGSV,3,1,12,21,59,337,44,05,57,273,43,14,33,146,34,17,29,080,42*74,0
1778777349819975166,$GPGSV,3,2,12,30,16,131,28,24,15,248,21,13,44,173,39,44,42,284,44*7C,0
1778777349962062227,$GPGSV,3,3,12,28,64,147,,26,44,143,,23,34,078,,16,31,146,*7D,0
1778777350127071230,$GPRMC,164909.000,A,1205.9870,S,07701.4608,W,4.88,298.00,140526,,,A*6A,0
1778777350382718056,$GPGGA,164910.000,1205.9862,S,07701.4620,W,1,06,1.5,145.6,M,8.4,M,,0000*62,0
1778777350499593073,$GPGSA,M,3,21,05,14,17,30,24,,,,,,,2.8,1.5,2.4*36,0
1778777350664600113,$GPRMC,164910.000,A,1205.9862,S,07701.4620,W,4.70,304.53,140526,,,A*6E,0
1778777351382563617,$GPGGA,164911.000,1205.9851,S,07701.4630,W,1,06,1.5,145.6,M,8.4,M,,0000*62,0
1778777351499439948,$GPGSA,M,3,21,05,14,17,30,24,,,,,,,2.8,1.5,2.4*36,0
1778777351664442915,$GPRMC,164911.000,A,1205.9851,S,07701.4630,W,5.12,317.51,140526,,,A*6B,0
1778777352381773285,$GPGGA,164912.000,1205.9837,S,07701.4637,W,1,06,1.5,145.6,M,8.4,M,,0000*66,0
1778777352498640450,$GPGSA,M,3,21,05,14,17,30,24,,,,,,,2.8,1.5,2.4*36,0
1778777352663669788,$GPRMC,164912.000,A,1205.9837,S,07701.4637,W,5.42,327.73,140526,,,A*69,0
1778777353384937988,$GPGGA,164913.000,1205.9820,S,07701.4637,W,1,06,1.5,145.7,M,8.4,M,,0000*60,0
1778777353501823005,$GPGSA,M,3,21,05,14,17,30,24,,,,,,,2.8,1.5,2.4*36,0
1778777353664540334,$GPRMC,164913.000,A,1205.9820,S,07701.4637,W,7.74,13.77,140526,,,A*59,0
1778777354382293947,$GPGGA,164914.000,1205.9797,S,07701.4627,W,1,06,1.5,145.8,M,8.4,M,,0000*6A,0
1778777354499177669,$GPGSA,M,3,21,05,14,17,30,24,,,,,,,2.8,1.5,2.4*36,0
1778777354659597098,$GPGSV,3,1,12,21,59,337,44,05,57,273,43,14,33,146,39,17,29,080,42*79,0
1778777354815427750,$GPGSV,3,2,12,30,16,131,25,24,15,248,21,44,42,284,42,28,64,147,*70,0
1778777354957552814,$GPGSV,3,3,12,26,44,143,,13,44,173,,23,34,078,,16,31,146,*70,0
1778777355120231491,$GPRMC,164914.000,A,1205.9797,S,07701.4627,W,9.37,23.88,140526,,,A*56,0
1778777355385888634,$GPGGA,164915.000,1205.9770,S,07701.4616,W,1,07,1.0,145.8,M,8.4,M,,0000*64,0
1778777355507336390,$GPGSA,M,3,21,05,14,17,30,24,11,,,,,,1.8,1.0,1.5*32,0
1778777355672357488,$GPRMC,164915.000,A,1205.9770,S,07701.4616,W,10.50,24.31,140526,,,A*60,0
1778777356385919472,$GPGGA,164916.000,1205.9741,S,07701.4602,W,1,07,1.0,145.8,M,8.4,M,,0000*60,0
1778777356507374395,$GPGSA,M,3,21,05,14,17,30,24,11,,,,,,1.8,1.0,1.5*32,0
1778777356672389084,$GPRMC,164916.000,A,1205.9741,S,07701.4602,W,11.11,24.79,140526,,,A*6C,0
1778777357386175311,$GPGGA,164917.000,1205.9712,S,07701.4588,W,1,07,1.0,146.2,M,8.4,M,,0000*6F,0
1778777357507635828,$GPGSA,M,3,21,05,14,17,30,24,11,,,,,,1.8,1.0,1.5*32,0
1778777357672643683,$GPRMC,164917.000,A,1205.9712,S,07701.4588,W,11.30,25.20,140526,,,A*64,0
1778777358382261560,$GPGGA,164918.000,1205.9682,S,07701.4573,W,1,07,1.0,146.2,M,8.4,M,,0000*6C,0
1778777358503716002,$GPGSA,M,3,21,05,14,17,30,24,11,,,,,,1.8,1.0,1.5*32,0
1778777358668741619,$GPRMC,164918.000,A,1205.9682,S,07701.4573,W,11.60,25.02,140526,,,A*62,0
1778777359384633782,$GPGGA,164919.000,1205.9652,S,07701.4559,W,1,07,1.0,146.3,M,8.4,M,,0000*69,0
1778777359506071370,$GPGSA,M,3,21,05,14,17,30,24,11,,,,,,1.8,1.0,1.5*32,0
1778777359666497467,$GPGSV,3,1,12,21,59,337,42,05,57,273,43,14,33,146,45,17,29,080,43*75,0
1778777359826909044,$GPGSV,3,2,12,30,16,131,28,24,15,248,25,11,12,347,26,44,42,284,43*75,0
1778777359969012551,$GPGSV,3,3,12,28,64,147,,26,44,143,,13,44,173,,23,34,078,*7C,0
1778777360134020295,$GPRMC,164919.000,A,1205.9652,S,07701.4559,W,11.76,24.97,140526,,,A*6C,0
1778777360385910642,$GPGGA,164920.000,1205.9622,S,07701.4544,W,1,07,1.0,146.7,M,8.4,M,,0000*6C,0
1778777360507389438,$GPGSA,M,3,21,05,14,17,30,24,11,,,,,,1.8,1.0,1.5*32,0
1778777360672373792,$GPRMC,164920.000,A,1205.9622,S,07701.4544,W,11.81,24.68,140526,,,A*65,0
1778777361386595355,$GPGGA,164921.000,1205.9592,S,07701.4528,W,1,07,1.0,147.7,M,8.4,M,,0000*6E,0
1778777361508036203,$GPGSA,M,3,21,05,14,17,30,24,11,,,,,,1.8,1.0,1.5*32,0
1778777361673073469,$GPRMC,164921.000,A,1205.9592,S,07701.4528,W,11.88,24.53,140526,,,A*67,0
1778777362386414432,$GPGGA,164922.000,1205.9562,S,07701.4512,W,1,07,1.0,148.7,M,8.4,M,,0000*64,0
1778777362507882005,$GPGSA,M,3,21,05,14,17,30,24,11,,,,,,1.8,1.0,1.5*32,0
1778777362672886175,$GPRMC,164922.000,A,1205.9562,S,07701.4512,W,12.16,25.05,140526,,,A*64,0
1778777363386884051,$GPGGA,164923.000,1205.9531,S,07701.4498,W,1,07,1.0,148.7,M,8.4,M,,0000*60,0
1778777363508345123,$GPGSA,M,3,21,05,14,17,30,24,11,,,,,,1.8,1.0,1.5*32,0
1778777363673356609,$GPRMC,164923.000,A,1205.9531,S,07701.4498,W,12.24,24.93,140526,,,A*6F,0
1778777364381936464,$GPGGA,164924.000,1205.9500,S,07701.4484,W,1,07,1.0,148.8,M,8.4,M,,0000*67,0
1778777364503404203,$GPGSA,M,3,21,05,14,17,30,24,11,,,,,,1.8,1.0,1.5*32,0
1778777364663823169,$GPGSV,3,1,12,21,59,337,42,05,57,273,43,14,33,146,40,17,29,080,39*7D,0
1778777364824238024,$GPGSV,3,2,12,30,16,131,25,24,15,248,31,11,12,347,22,44,42,284,43*79,0
1778777364966340476,$GPGSV,3,3,12,28,64,147,,26,44,143,,13,44,173,,23,34,078,*7C,0
1778777365131351776,$GPRMC,164924.000,A,1205.9500,S,07701.4484,W,12.29,23.60,140526,,,A*61,0
1778777365380952484,$GPGGA,164925.000,1205.9468,S,07701.4469,W,1,07,1.0,149.0,M,8.4,M,,0000*63,0
1778777365502488415,$GPGSA,M,3,21,05,14,17,30,24,11,,,,,,1.8,1.0,1.5*32,0
1778777365667407744,$GPRMC,164925.000,A,1205.9468,S,07701.4469,W,12.32,24.02,140526,,,A*65,0
1778777366384739800,$GPGGA,164926.000,1205.9437,S,07701.4454,W,1,07,1.0,149.2,M,8.4,M,,0000*66,0
1778777366506209429,$GPGSA,M,3,21,05,14,17,30,24,11,,,,,,1.8,1.0,1.5*32,0
1778777366671223211,$GPRMC,164926.000,A,1205.9437,S,07701.4454,W,12.08,24.24,140526,,,A*6F,0
1778777367388744044,$GPGGA,164927.000,1205.9408,S,07701.4439,W,1,07,1.0,149.3,M,8.4,M,,0000*61,0
1778777367510227488,$GPGSA,M,3,21,05,14,17,30,24,11,,,,,,1.8,1.0,1.5*32,0
1778777367675206193,$GPRMC,164927.000,A,1205.9408,S,07701.4439,W,11.99,25.07,140526,,,A*62,0
1778777368381097372,$GPGGA,164928.000,1205.9380,S,07701.4425,W,1,07,1.0,149.5,M,8.4,M,,0000*62,0
1778777368502546073,$GPGSA,M,3,21,05,14,17,30,24,11,,,,,,1.8,1.0,1.5*32,0
1778777368667554891,$GPRMC,164928.000,A,1205.9380,S,07701.4425,W,11.80,24.51,140526,,,A*6D,0
1778777369382060852,$GPGGA,164929.000,1205.9351,S,07701.4410,W,1,07,1.0,149.7,M,8.4,M,,0000*6B,0
1778777369503448565,$GPGSA,M,3,21,05,14,17,30,24,11,,,,,,1.8,1.0,1.5*32,0
1778777369663844696,$GPGSV,3,1,12,21,59,337,41,05,57,273,43,14,33,146,42,17,29,080,27*73,0
1778777369824291461,$GPGSV,3,2,12,30,16,131,33,24,15,248,22,11,12,347,24,06,01,023,21*70,0
1778777369970957058,$GPGSV,3,3,12,44,42,284,42,28,64,147,,26,44,143,,13,44,173,*7B,0
1778777370135978063,$GPRMC,164929.000,A,1205.9351,S,07701.4410,W,11.83,24.74,140526,,,A*62,0
1778777370386807201,$GPGGA,164930.000,1205.9322,S,07701.4396,W,1,07,1.0,149.9,M,8.4,M,,0000*60,0
1778777370508337409,$GPGSA,M,3,21,05,14,17,30,24,11,,,,,,1.8,1.0,1.5*32,0
1778777370673278777,$GPRMC,164930.000,A,1205.9322,S,07701.4396,W,11.77,24.42,140526,,,A*69,0
1778777371381231055,$GPGGA,164931.000,1205.9292,S,07701.4381,W,1,05,2.2,150.1,M,8.4,M,,0000*6E,0
1778777371493576114,$GPGSA,M,3,21,05,14,30,24,,,,,,,,3.7,2.2,2.9*37,0
1778777371658532872,$GPRMC,164931.000,A,1205.9292,S,07701.4381,W,12.00,24.74,140526,,,A*62,0
1778777372383988904,$GPGGA,164932.000,1205.9261,S,07701.4366,W,1,06,1.5,150.1,M,8.4,M,,0000*6F,0
1778777372500863421,$GPGSA,M,3,21,05,14,17,30,24,,,,,,,2.8,1.5,2.4*36,0
1778777372665869776,$GPRMC,164932.000,A,1205.9261,S,07701.4366,W,12.33,24.01,140526,,,A*66,0
1778777373379267838,$GPGGA,164933.000,1205.9229,S,07701.4354,W,1,06,1.5,149.8,M,8.4,M,,0000*62,0
1778777373496126464,$GPGSA,M,3,21,05,14,17,30,24,,,,,,,2.8,1.5,2.4*36,0
1778777373661126411,$GPRMC,164933.000,A,1205.9229,S,07701.4354,W,12.53,22.10,140526,,,A*6A,0
1778777374386797742,$GPGGA,164934.000,1205.9197,S,07701.4341,W,1,06,1.5,150.1,M,8.4,M,,0000*66,0
1778777374503685334,$GPGSA,M,3,21,05,14,17,30,24,,,,,,,2.8,1.5,2.4*36,0
1778777374664099003,$GPGSV,3,1,12,21,59,337,41,05,57,273,44,14,33,146,25,17,29,080,44*70,0
1778777374824530712,$GPGSV,3,2,12,30,16,131,23,24,15,248,35,11,12,347,32,44,42,284,39*77,0
1778777374966617069,$GPGSV,3,3,12,28,64,147,,26,44,143,,13,44,173,,23,34,078,*7C,0
1778777375131610942,$GPRMC,164934.000,A,1205.9197,S,07701.4341,W,12.21,24.04,140526,,,A*69,0
1778777375383151497,$GPGGA,164935.000,1205.9171,S,07701.4324,W,1,07,1.0,151.1,M,8.4,M,,0000*69,0
1778777375504552063,$GPGSA,M,3,21,05,14,17,30,24,11,,,,,,1.8,1.0,1.5*32,0
1778777375669597052,$GPRMC,164935.000,A,1205.9171,S,07701.4324,W,12.43,24.91,140526,,,A*6B,0
1778777376382514328,$GPGGA,164936.000,1205.9143,S,07701.4307,W,1,07,1.0,151.9,M,8.4,M,,0000*62,0
1778777376503794531,$GPGSA,M,3,21,05,14,17,30,24,11,,,,,,1.8,1.0,1.5*32,0
1778777376668829519,$GPRMC,164936.000,A,1205.9143,S,07701.4307,W,12.38,25.38,140526,,,A*66,0
1778777377382016450,$GPGGA,164937.000,1205.9112,S,07701.4291,W,1,07,1.0,151.8,M,8.4,M,,0000*68,0
1778777377503405867,$GPGSA,M,3,21,05,14,17,30,24,11,,,,,,1.8,1.0,1.5*32,0
1778777377668399110,$GPRMC,164937.000,A,1205.9112,S,07701.4291,W,12.42,24.48,140526,,,A*66,0
1778777378383875716,$GPGGA,164938.000,1205.9078,S,07701.4275,W,1,07,1.0,151.6,M,8.4,M,,0000*6E,0
1778777378505323898,$GPGSA,M,3,21,05,14,17,30,24,11,,,,,,1.8,1.0,1.5*32,0
1778777378670332846,$GPRMC,164938.000,A,1205.9078,S,07701.4275,W,12.52,23.70,140526,,,A*63,0
1778777379385584931,$GPGGA,164939.000,1205.9045,S,07701.4261,W,1,06,1.5,151.7,M,8.4,M,,0000*61,0
1778777379502570421,$GPGSA,M,3,21,05,14,17,30,11,,,,,,,2.5,1.5,2.0*39,0
1778777379662869525,$GPGSV,3,1,12,21,59,337,41,05,57,273,43,14,33,146,43,17,29,080,43*70,0
1778777379823345737,$GPGSV,3,2,12,30,16,131,28,11,12,347,29,24,15,248,22,44,42,284,43*7D,0
1778777379965395128,$GPGSV,3,3,12,28,64,147,,26,44,143,,13,44,173,,23,34,078,*7C,0
1778777380130413911,$GPRMC,164939.000,A,1205.9045,S,07701.4261,W,12.40,24.03,140526,,,A*69,0
1778777380386256513,$GPGGA,164940.000,1205.9017,S,07701.4245,W,1,07,1.0,153.1,M,8.4,M,,0000*6E,0
1778777380507764108,$GPGSA,M,3,21,05,14,17,30,24,11,,,,,,1.8,1.0,1.5*32,0
1778777380672716533,$GPRMC,164940.000,A,1205.9017,S,07701.4245,W,12.49,24.82,140526,,,A*66,0
1778777381384231808,$GPGGA,164941.000,1205.8985,S,07701.4231,W,1,06,1.5,153.2,M,8.4,M,,0000*68,0
1778777381501092342,$GPGSA,M,3,21,05,14,17,30,24,,,,,,,2.8,1.5,2.4*36,0
1778777381666105105,$GPRMC,164941.000,A,1205.8985,S,07701.4231,W,12.31,25.03,140526,,,A*60,0
1778777382391357582,$GPGGA,164942.000,1205.8953,S,07701.4217,W,1,06,1.5,153.5,M,8.4,M,,0000*63,0
1778777382508262509,$GPGSA,M,3,21,05,14,17,30,24,,,,,,,2.8,1.5,2.4*36,0
1778777382673302812,$GPRMC,164942.000,A,1205.8953,S,07701.4217,W,12.37,23.08,140526,,,A*67,0
1778777383380973990,$GPGGA,164943.000,1205.8921,S,07701.4203,W,1,06,1.5,153.7,M,8.4,M,,0000*60,0
1778777383497861896,$GPGSA,M,3,21,05,14,17,30,24,,,,,,,2.8,1.5,2.4*36,0
1778777383662859158,$GPRMC,164943.000,A,1205.8921,S,07701.4203,W,12.11,23.36,140526,,,A*6F,0
1778777384386456740,$GPGGA,164944.000,1205.8891,S,07701.4191,W,1,06,1.5,153.9,M,8.4,M,,0000*6B,0
1778777384503336998,$GPGSA,M,3,21,05,14,17,30,24,,,,,,,2.8,1.5,2.4*36,0
1778777384663781949,$GPGSV,3,1,12,21,59,337,42,05,57,273,43,14,33,146,29,17,29,080,40*7C,0
1778777384824179135,$GPGSV,3,2,12,30,16,131,21,24,15,248,27,06,01,023,26,11,12,347,23*76,0
1778777384970851918,$GPGSV,3,3,12,44,42,284,42,28,64,147,,26,44,143,,13,44,173,*7B,0
1778777385135886406,$GPRMC,164944.000,A,1205.8891,S,07701.4191,W,11.82,23.11,140526,,,A*66,0
1778777385390873226,$GPGGA,164945.000,1205.8860,S,07701.4177,W,1,06,1.5,154.1,M,8.4,M,,0000*63,0
1778777385507749557,$GPGSA,M,3,21,05,14,17,30,24,,,,,,,2.8,1.5,2.4*36,0
1778777385672767932,$GPRMC,164945.000,A,1205.8860,S,07701.4177,W,11.91,24.99,140526,,,A*64,0
1778777386388002405,$GPGGA,164946.000,1205.8827,S,07701.4164,W,1,07,1.0,154.3,M,8.4,M,,0000*67,0
1778777386509471552,$GPGSA,M,3,21,05,14,17,30,24,11,,,,,,1.8,1.0,1.5*32,0
1778777386674487352,$GPRMC,164946.000,A,1205.8827,S,07701.4164,W,12.27,22.15,140526,,,A*6A,0
1778777387388059467,$GPGGA,164947.000,1205.8795,S,07701.4152,W,1,07,1.0,154.4,M,8.4,M,,0000*62,0
1778777387509511483,$GPGSA,M,3,21,05,14,17,30,24,11,,,,,,1.8,1.0,1.5*32,0
1778777387674519301,$GPRMC,164947.000,A,1205.8795,S,07701.4152,W,12.04,21.14,140526,,,A*6B,0
1778777388388930271,$GPGGA,164948.000,1205.8764,S,07701.4140,W,1,07,1.0,154.4,M,8.4,M,,0000*60,0
1778777388510385176,$GPGSA,M,3,21,05,14,17,30,24,11,,,,,,1.8,1.0,1.5*32,0
1778777388675437147,$GPRMC,164948.000,A,1205.8764,S,07701.4140,W,11.38,21.16,140526,,,A*67,0
1778777389388572091,$GPGGA,164949.000,1205.8736,S,07701.4131,W,1,07,1.0,154.4,M,8.4,M,,0000*60,0
1778777389510040441,$GPGSA,M,3,21,05,14,17,30,24,11,,,,,,1.8,1.0,1.5*32,0
1778777389670455352,$GPGSV,3,1,12,21,59,337,42,05,57,273,44,14,33,146,27,17,29,080,32*70,0
1778777389830879023,$GPGSV,3,2,12,30,16,131,25,24,15,248,29,11,12,347,28,06,01,023,15*77,0
1778777389977548268,$GPGSV,3,3,12,44,42,284,42,28,64,147,,26,44,143,,13,44,173,*7B,0
1778777390142562421,$GPRMC,164949.000,A,1205.8736,S,07701.4131,W,10.27,18.10,140526,,,A*64,0
1778777390388192649,$GPGGA,164950.000,1205.8710,S,07701.4124,W,1,07,1.0,154.3,M,8.4,M,,0000*6F,0
1778777390509664519,$GPGSA,M,3,21,05,14,17,30,24,11,,,,,,1.8,1.0,1.5*32,0
1778777390672371661,$GPRMC,164950.000,A,1205.8710,S,07701.4124,W,9.46,13.74,140526,,,A*5A,0
1778777391389300920,$GPGGA,164951.000,1205.8684,S,07701.4126,W,1,07,1.0,154.3,M,8.4,M,,0000*60,0
1778777391510747546,$GPGSA,M,3,21,05,14,17,30,24,11,,,,,,1.8,1.0,1.5*32,0
1778777391671177292,$GPRMC,164951.000,A,1205.8684,S,07701.4126,W,9.02,6.18,140526,,,A*6B,0
1778777392388709533,$GPGGA,164952.000,1205.8664,S,07701.4139,W,1,07,1.0,154.5,M,8.4,M,,0000*65,0
1778777392510182588,$GPGSA,M,3,21,05,14,17,30,24,11,,,,,,1.8,1.0,1.5*32,0
1778777392675184832,$GPRMC,164952.000,A,1205.8664,S,07701.4139,W,8.11,352.13,140526,,,A*62,0
1778777393390647196,$GPGGA,164953.000,1205.8655,S,07701.4164,W,1,07,1.0,155.0,M,8.4,M,,0000*6A,0
1778777393512090285,$GPGSA,M,3,21,05,14,17,30,24,11,,,,,,1.8,1.0,1.5*32,0
1778777393677123346,$GPRMC,164953.000,A,1205.8655,S,07701.4164,W,8.02,307.77,140526,,,A*69,0
1778777394390893868,$GPGGA,164954.000,1205.8654,S,07701.4200,W,1,07,1.0,155.4,M,8.4,M,,0000*69,0
1778777394512354088,$GPGSA,M,3,21,05,14,17,30,24,11,,,,,,1.8,1.0,1.5*32,0
1778777394672783722,$GPGSV,3,1,12,21,59,337,45,05,57,273,44,14,33,146,41,17,29,080,41*73,0
1778777394833263694,$GPGSV,3,2,12,30,16,131,29,24,15,248,33,11,12,347,23,44,42,284,47*72,0
1778777394975283119,$GPGSV,3,3,12,28,64,147,,26,44,143,,13,44,173,,23,34,078,*7C,0
1778777395142586706,$GPRMC,164954.000,A,1205.8654,S,07701.4200,W,11.40,277.96,140526,,,A*59,0
1778777395387405064,$GPGGA,164955.000,1205.8654,S,07701.4240,W,1,06,1.5,155.2,M,8.4,M,,0000*6E,0
1778777395504284210,$GPGSA,M,3,21,05,14,17,30,24,,,,,,,2.8,1.5,2.4*36,0
1778777395671585760,$GPRMC,164955.000,A,1205.8654,S,07701.4240,W,11.89,275.74,140526,,,A*57,0
1778777396380365504,$GPGGA,164956.000,1205.8652,S,07701.4276,W,1,05,2.7,155.6,M,8.4,M,,0000*68,0
1778777396492662744,$GPGSA,M,3,21,05,14,17,30,,,,,,,,7.1,2.7,6.6*3B,0
1778777396659954274,$GPRMC,164956.000,A,1205.8652,S,07701.4276,W,11.88,275.74,140526,,,A*56,0
1778777397385620345,$GPGGA,164957.000,1205.8650,S,07701.4312,W,1,06,1.5,155.7,M,8.4,M,,0000*6B,0
1778777397502510789,$GPGSA,M,3,21,05,14,17,30,24,,,,,,,2.8,1.5,2.4*36,0
1778777397669818636,$GPRMC,164957.000,A,1205.8650,S,07701.4312,W,11.84,276.65,140526,,,A*59,0
1778777398385875518,$GPGGA,164958.000,1205.8648,S,07701.4347,W,1,06,1.5,155.9,M,8.4,M,,0000*63,0
1778777398502769147,$GPGSA,M,3,21,05,14,17,30,24,,,,,,,2.8,1.5,2.4*36,0
1778777398670069586,$GPRMC,164958.000,A,1205.8648,S,07701.4347,W,11.89,276.33,140526,,,A*51,0
1778777399384455720,$GPGGA,164959.000,1205.8645,S,07701.4381,W,1,05,2.7,155.9,M,8.4,M,,0000*67,0
1778777399496764276,$GPGSA,M,3,21,05,14,17,30,,,,,,,,7.1,2.7,6.6*3B,0
1778777399657183335,$GPGSV,3,1,12,21,59,337,46,05,57,273,46,14,33,146,40,17,29,080,47*75,0
1778777399813021802,$GPGSV,3,2,12,30,16,131,37,24,15,248,20,44,42,284,48,28,64,147,*78,0
1778777399955121790,$GPGSV,3,3,12,26,44,143,,13,44,173,,23,34,078,,16,31,146,*70,0
1778777400122427563,$GPRMC,164959.000,A,1205.8645,S,07701.4381,W,11.35,276.80,140526,,,A*58,0
1778777400386801902,$GPGGA,165000.000,1205.8642,S,07701.4413,W,1,06,1.5,155.8,M,8.4,M,,0000*6B,0
1778777400503691717,$GPGSA,M,3,21,05,14,17,30,24,,,,,,,2.8,1.5,2.4*36,0
1778777400670987859,$GPRMC,165000.000,A,1205.8642,S,07701.4413,W,10.80,277.24,140526,,,A*57,0
1778777401389565456,$GPGGA,165001.000,1205.8639,S,07701.4443,W,1,07,1.0,155.0,M,8.4,M,,0000*6F,0
1778777401511025602,$GPGSA,M,3,21,05,14,17,30,24,11,,,,,,1.8,1.0,1.5*32,0
1778777401676046718,$GPRMC,165001.000,A,1205.8639,S,07701.4443,W,9.86,277.26,140526,,,A*63,0
1778777402387322953,$GPGGA,165002.000,1205.8635,S,07701.4470,W,1,06,1.5,154.5,M,8.4,M,,0000*60,0
1778777402504190173,$GPGSA,M,3,21,05,14,17,30,11,,,,,,,2.5,1.5,2.0*39,0
1778777402669204862,$GPRMC,165002.000,A,1205.8635,S,07701.4470,W,8.34,278.06,140526,,,A*69,0
1778777403389457115,$GPGGA,165003.000,1205.8632,S,07701.4490,W,1,07,1.0,154.8,M,8.4,M,,0000*61,0
1778777403510912613,$GPGSA,M,3,21,05,14,17,30,24,11,,,,,,1.8,1.0,1.5*32,0
1778777403675925969,$GPRMC,165003.000,A,1205.8632,S,07701.4490,W,6.42,277.15,140526,,,A*63,0
1778777404389700602,$GPGGA,165004.000,1205.8630,S,07701.4508,W,1,07,1.0,154.8,M,8.4,M,,0000*64,0
1778777404511172564,$GPGSA,M,3,21,05,14,17,30,24,11,,,,,,1.8,1.0,1.5*32,0
1778777404671655185,$GPGSV,3,1,12,21,59,337,46,05,57,273,46,14,33,146,40,17,29,080,47*75,0
1778777404832020387,$GPGSV,3,2,12,30,16,131,32,24,15,248,13,11,12,347,35,44,42,284,42*78,0
1778777404974104836,$GPGSV,3,3,12,28,64,147,,26,44,143,,13,44,173,,23,34,078,*7C,0
1778777405139132620,$GPRMC,165004.000,A,1205.8630,S,07701.4508,W,6.21,272.09,140526,,,A*6B,0
1778777405387687398,$GPGGA,165005.000,1205.8633,S,07701.4526,W,1,06,1.5,155.1,M,8.4,M,,0000*66,0
1778777405504562470,$GPGSA,M,3,21,05,14,17,30,24,,,,,,,2.8,1.5,2.4*36,0
1778777405669558676,$GPRMC,165005.000,A,1205.8633,S,07701.4526,W,7.12,257.90,140526,,,A*63,0
1778777406386470749,$GPGGA,165006.000,1205.8641,S,07701.4545,W,1,07,1.0,155.5,M,8.4,M,,0000*65,0
1778777406507927561,$GPGSA,M,3,21,05,14,17,30,24,11,,,,,,1.8,1.0,1.5*32,0
1778777406672933250,$GPRMC,165006.000,A,1205.8641,S,07701.4545,W,7.38,249.32,140526,,,A*6F,0
1778777407386724348,$GPGGA,165007.000,1205.8657,S,07701.4561,W,1,07,1.0,155.9,M,8.4,M,,0000*69,0
1778777407508197865,$GPGSA,M,3,21,05,14,17,30,24,11,,,,,,1.8,1.0,1.5*32,0
1778777407673209091,$GPRMC,165007.000,A,1205.8657,S,07701.4561,W,7.67,235.95,140526,,,A*63,0
1778777408386365390,$GPGGA,165008.000,1205.8682,S,07701.4574,W,1,07,1.0,156.3,M,8.4,M,,0000*63,0
1778777408507824091,$GPGSA,M,3,21,05,14,17,30,24,11,,,,,,1.8,1.0,1.5*32,0
1778777408672827168,$GPRMC,165008.000,A,1205.8682,S,07701.4574,W,8.70,218.05,140526,,,A*6F,0
1778777409385991949,$GPGGA,165009.000,1205.8703,S,07701.4584,W,1,07,1.0,156.8,M,8.4,M,,0000*6E,0
1778777409507469763,$GPGSA,M,3,21,05,14,17,30,24,11,,,,,,1.8,1.0,1.5*32,0
1778777409667882229,$GPGSV,3,1,12,21,59,337,45,05,57,273,26,14,33,146,37,17,29,080,38*78,0
1778777409828298140,$GPGSV,3,2,12,30,16,131,31,24,15,248,21,11,12,347,24,44,42,284,22*7C,0
1778777409970409555,$GPGSV,3,3,12,28,64,147,,26,44,143,,13,44,173,,23,34,078,*7C,0
1778777410135392889,$GPRMC,165009.000,A,1205.8703,S,07701.4584,W,8.71,210.54,140526,,,A*64,0
1778777410386873532,$GPGGA,165010.000,1205.8728,S,07701.4595,W,1,07,1.0,156.9,M,8.4,M,,0000*6E,0
1778777410508334530,$GPGSA,M,3,21,05,14,17,30,24,11,,,,,,1.8,1.0,1.5*32,0
1778777410673349478,$GPRMC,165010.000,A,1205.8728,S,07701.4595,W,9.62,207.16,140526,,,A*66,0
1778777411386933835,$GPGGA,165011.000,1205.8754,S,07701.4607,W,1,07,1.0,157.0,M,8.4,M,,0000*64,0
1778777411508386776,$GPGSA,M,3,21,05,14,17,30,24,11,,,,,,1.8,1.0,1.5*32,0
1778777411675692419,$GPRMC,165011.000,A,1205.8754,S,07701.4607,W,10.51,206.65,140526,,,A*59,0
1778777412388429104,$GPGGA,165012.000,1205.8776,S,07701.4621,W,1,07,1.0,157.1,M,8.4,M,,0000*62,0
1778777412509895010,$GPGSA,M,3,21,05,14,17,30,24,11,,,,,,1.8,1.0,1.5*32,0
1778777412677199264,$GPRMC,165012.000,A,1205.8776,S,07701.4621,W,10.55,206.41,140526,,,A*5C,0
1778777413387643051,$GPGGA,165013.000,1205.8798,S,07701.4637,W,1,07,1.0,157.3,M,8.4,M,,0000*66,0
1778777413509110327,$GPGSA,M,3,21,05,14,17,30,24,11,,,,,,1.8,1.0,1.5*32,0
1778777413676404839,$GPRMC,165013.000,A,1205.8798,S,07701.4637,W,10.54,209.22,140526,,,A*51,0
1778777414387506558,$GPGGA,165014.000,1205.8827,S,07701.4660,W,1,07,1.0,157.3,M,8.4,M,,0000*68,0
1778777414508940627,$GPGSA,M,3,21,05,14,17,30,24,11,,,,,,1.8,1.0,1.5*32,0
1778777414669370299,$GPGSV,3,1,12,21,59,337,47,05,57,273,43,14,33,146,30,17,29,080,31*77,0
1778777414829805359,$GPGSV,3,2,12,30,16,131,28,24,15,248,22,11,12,347,22,44,42,284,31*73,0
1778777414971886012,$GPGSV,3,3,12,28,64,147,,26,44,143,,13,44,173,,23,34,078,*7C,0
1778777415139191248,$GPRMC,165014.000,A,1205.8827,S,07701.4660,W,11.29,212.01,140526,,,A*5F,0
1778777415387952675,$GPGGA,165015.000,1205.8852,S,07701.4683,W,1,07,1.0,157.6,M,8.4,M,,0000*63,0
1778777415509407765,$GPGSA,M,3,21,05,14,17,30,24,11,,,,,,1.8,1.0,1.5*32,0
1778777415676704370,$GPRMC,165015.000,A,1205.8852,S,07701.4683,W,11.05,213.77,140526,,,A*5F,0
1778777416387004569,$GPGGA,165016.000,1205.8879,S,07701.4705,W,1,07,1.0,157.9,M,8.4,M,,0000*69,0
1778777416508420470,$GPGSA,M,3,21,05,14,17,30,24,11,,,,,,1.8,1.0,1.5*32,0
1778777416675710815,$GPRMC,165016.000,A,1205.8879,S,07701.4705,W,10.97,211.48,140526,,,A*5E,0
1778777417387431536,$GPGGA,165017.000,1205.8908,S,07701.4725,W,1,07,1.0,158.1,M,8.4,M,,0000*6A,0
1778777417508888645,$GPGSA,M,3,21,05,14,17,30,24,11,,,,,,1.8,1.0,1.5*32,0
1778777417676188287,$GPRMC,165017.000,A,1205.8908,S,07701.4725,W,11.08,209.45,140526,,,A*59,0
1778777418387882357,$GPGGA,165018.000,1205.8938,S,07701.4744,W,1,07,1.0,158.5,M,8.4,M,,0000*65,0
1778777418509346262,$GPGSA,M,3,21,05,14,17,30,24,11,,,,,,1.8,1.0,1.5*32,0
1778777418676640386,$GPRMC,165018.000,A,1205.8938,S,07701.4744,W,11.25,206.95,140526,,,A*5F,0
1778777419387111953,$GPGGA,165019.000,1205.8984,S,07701.4755,W,1,07,1.0,158.8,M,8.4,M,,0000*6E,0
1778777419508563524,$GPGSA,M,3,21,05,14,17,30,24,11,,,,,,1.8,1.0,1.5*32,0
1778777419668986213,$GPGSV,3,1,12,21,59,337,46,05,57,273,47,14,33,146,41,17,29,080,31*74,0
1778777419829407939,$GPGSV,3,2,12,30,16,131,28,24,15,248,40,11,12,347,18,44,42,284,29*77,0
1778777419971506686,$GPGSV,3,3,12,28,64,147,,26,44,143,,13,44,173,,23,34,078,*7C,0
1778777420138810070,$GPRMC,165019.000,A,1205.8984,S,07701.4755,W,11.54,204.16,140526,,,A*56,0
1778777420386728622,$GPGGA,165020.000,1205.9028,S,07701.4767,W,1,07,1.0,159.1,M,8.4,M,,0000*63,0
1778777420508195417,$GPGSA,M,3,21,05,14,17,30,24,11,,,,,,1.8,1.0,1.5*32,0
1778777420675535915,$GPRMC,165020.000,A,1205.9028,S,07701.4767,W,11.57,204.83,140526,,,A*5C,0
1778777421389091806,$GPGGA,165021.000,1205.9069,S,07701.4778,W,1,07,1.0,159.0,M,8.4,M,,0000*68,0
1778777421510533117,$GPGSA,M,3,21,05,14,17,30,24,11,,,,,,1.8,1.0,1.5*32,0
1778777421677842667,$GPRMC,165021.000,A,1205.9069,S,07701.4778,W,12.12,205.25,140526,,,A*59,0
1778777422390375982,$GPGGA,165022.000,1205.9109,S,07701.4791,W,1,07,1.0,159.1,M,8.4,M,,0000*6A,0
1778777422511821256,$GPGSA,M,3,21,05,14,17,30,24,11,,,,,,1.8,1.0,1.5*32,0
1778777422679142752,$GPRMC,165022.000,A,1205.9109,S,07701.4791,W,12.28,204.99,140526,,,A*55,0
1778777423391046341,$GPGGA,165023.000,1205.9147,S,07701.4805,W,1,07,1.0,159.0,M,8.4,M,,0000*62,0
1778777423512498116,$GPGSA,M,3,21,05,14,17,30,24,11,,,,,,1.8,1.0,1.5*32,0
1778777423679804037,$GPRMC,165023.000,A,1205.9147,S,07701.4805,W,12.07,204.90,140526,,,A*58,0
1778777424389637897,$GPGGA,165024.000,1205.9178,S,07701.4820,W,1,07,1.0,158.4,M,8.4,M,,0000*6B,0
1778777424511099950,$GPGSA,M,3,21,05,14,17,30,24,11,,,,,,1.8,1.0,1.5*32,0
1778777424671522380,$GPGSV,3,1,12,21,59,337,45,05,57,273,46,14,33,146,35,17,29,080,37*73,0
1778777424831938939,$GPGSV,3,2,12,30,16,131,25,24,15,248,39,11,12,347,23,06,01,023,18*70,0
1778777424978609889,$GPGSV,3,3,12,44,42,284,42,28,64,147,,26,44,143,,13,44,173,*7B,0
1778777425145917995,$GPRMC,165024.000,A,1205.9178,S,07701.4820,W,11.72,206.16,140526,,,A*59,0
1778777425389689532,$GPGGA,165025.000,1205.9207,S,07701.4835,W,1,07,1.0,157.2,M,8.4,M,,0000*6C,0
1778777425511149808,$GPGSA,M,3,21,05,14,17,30,24,11,,,,,,1.8,1.0,1.5*32,0
1778777425678451617,$GPRMC,165025.000,A,1205.9207,S,07701.4835,W,11.47,206.03,140526,,,A*55,0
1778777426385559835,$GPGGA,165026.000,1205.9238,S,07701.4849,W,1,05,1.5,156.3,M,8.4,M,,0000*6F,0
1778777426497859335,$GPGSA,M,3,21,05,14,17,24,,,,,,,,3.0,1.5,2.5*3D,0
1778777426665170682,$GPRMC,165026.000,A,1205.9238,S,07701.4849,W,11.79,204.41,140526,,,A*58,0
1778777427389360023,$GPGGA,165027.000,1205.9269,S,07701.4862,W,1,07,1.0,155.6,M,8.4,M,,0000*62,0
1778777427510825373,$GPGSA,M,3,21,05,14,17,30,24,11,,,,,,1.8,1.0,1.5*32,0
1778777427678127312,$GPRMC,165027.000,A,1205.9269,S,07701.4862,W,12.02,205.22,140526,,,A*5F,0
1778777428387331002,$GPGGA,165028.000,1205.9303,S,07701.4876,W,1,06,1.5,155.2,M,8.4,M,,0000*65,0
1778777428504205833,$GPGSA,M,3,21,05,14,17,30,24,,,,,,,2.9,1.5,2.4*37,0
1778777428671504920,$GPRMC,165028.000,A,1205.9303,S,07701.4876,W,12.34,204.98,140526,,,A*5D,0
1778777429387794509,$GPGGA,165029.000,1205.9337,S,07701.4890,W,1,06,1.5,154.7,M,8.4,M,,0000*6F,0
1778777429504687620,$GPGSA,M,3,21,05,14,17,30,24,,,,,,,2.9,1.5,2.4*37,0
1778777429665105957,$GPGSV,3,1,12,21,59,337,41,05,57,273,41,14,33,146,38,17,29,080,25*7E,0
1778777429825533109,$GPGSV,3,2,12,30,16,131,22,24,15,248,37,11,12,347,16,13,44,173,36*72,0
1778777429972200707,$GPGSV,3,3,12,44,42,284,37,28,64,147,,26,44,143,,23,34,078,*77,0
1778777430139494756,$GPRMC,165029.000,A,1205.9337,S,07701.4890,W,12.00,204.25,140526,,,A*52,0
1778777430390551322,$GPGGA,165030.000,1205.9369,S,07701.4904,W,1,07,1.0,154.3,M,8.4,M,,0000*60,0
1778777430512019080,$GPGSA,M,3,21,05,14,17,30,24,11,,,,,,1.8,1.0,1.5*32,0
1778777430679308443,$GPRMC,165030.000,A,1205.9369,S,07701.4904,W,11.54,204.50,140526,,,A*5D,0
1778777431391846165,$GPGGA,165031.000,1205.9398,S,07701.4915,W,1,06,1.5,153.2,M,8.4,M,,0000*6D,0
1778777431508720626,$GPGSA,M,3,21,05,14,17,30,24,,,,,,,2.9,1.5,2.4*37,0
1778777431676029436,$GPRMC,165031.000,A,1205.9398,S,07701.4915,W,11.30,204.70,140526,,,A*52,0
1778777432391276113,$GPGGA,165032.000,1205.9428,S,07701.4928,W,1,07,1.0,152.8,M,8.4,M,,0000*63,0
1778777432512726462,$GPGSA,M,3,21,05,14,17,30,24,11,,,,,,1.8,1.0,1.5*32,0
1778777432680037420,$GPRMC,165032.000,A,1205.9428,S,07701.4928,W,11.90,204.87,140526,,,A*51,0
1778777433388400662,$GPGGA,165033.000,1205.9458,S,07701.4942,W,1,07,1.0,152.6,M,8.4,M,,0000*67,0
1778777433509862272,$GPGSA,M,3,21,05,14,17,30,24,11,,,,,,1.8,1.0,1.5*32,0
1778777433677185009,$GPRMC,165033.000,A,1205.9458,S,07701.4942,W,11.76,205.35,140526,,,A*5B,0
1778777434388459484,$GPGGA,165034.000,1205.9488,S,07701.4956,W,1,06,1.0,152.7,M,8.4,M,,0000*68,0
1778777434505331204,$GPGSA,M,3,21,05,14,17,24,11,,,,,,,1.9,1.0,1.6*33,0
1778777434665756449,$GPGSV,3,1,12,21,59,337,41,05,57,273,41,14,33,146,22,17,29,080,34*75,0
1778777434826178360,$GPGSV,3,2,12,24,15,248,18,11,12,347,27,13,44,173,36,30,16,131,12*7E,0
1778777434972840994,$GPGSV,3,3,12,44,42,284,34,28,64,147,,26,44,143,,23,34,078,*74,0
1778777435140163583,$GPRMC,165034.000,A,1205.9488,S,07701.4956,W,11.73,205.40,140526,,,A*53,0
1778777435388912990,$GPGGA,165035.000,1205.9517,S,07701.4969,W,1,06,1.0,152.6,M,8.4,M,,0000*63,0
1778777435505789322,$GPGSA,M,3,21,05,14,17,24,11,,,,,,,1.9,1.0,1.6*33,0
1778777435673102336,$GPRMC,165035.000,A,1205.9517,S,07701.4969,W,11.52,205.18,140526,,,A*57,0
1778777436387360514,$GPGGA,165036.000,1205.9544,S,07701.4983,W,1,06,1.0,152.6,M,8.4,M,,0000*62,0
1778777436504176692,$GPGSA,M,3,21,05,14,17,24,11,,,,,,,1.9,1.0,1.6*33,0
1778777436671474000,$GPRMC,165036.000,A,1205.9544,S,07701.4983,W,11.03,206.28,140526,,,A*52,0
1778777437387339828,$GPGGA,165037.000,1205.9570,S,07701.4997,W,1,06,1.0,152.4,M,8.4,M,,0000*63,0
1778777437504242643,$GPGSA,M,3,21,05,14,17,24,11,,,,,,,1.9,1.0,1.6*33,0
1778777437671549509,$GPRMC,165037.000,A,1205.9570,S,07701.4997,W,10.44,206.07,140526,,,A*5E,0
1778777438387600964,$GPGGA,165038.000,1205.9591,S,07701.5009,W,1,06,1.0,152.2,M,8.4,M,,0000*6A,0
1778777438504481204,$GPGSA,M,3,21,05,14,17,24,11,,,,,,,1.9,1.0,1.6*33,0
1778777438669487985,$GPRMC,165038.000,A,1205.9591,S,07701.5009,W,8.86,206.72,140526,,,A*64,0
1778777439388273250,$GPGGA,165039.000,1205.9604,S,07701.5017,W,1,06,1.0,151.6,M,8.4,M,,0000*6C,0
1778777439505158212,$GPGSA,M,3,21,05,14,17,24,11,,,,,,,1.9,1.0,1.6*33,0
1778777439665584179,$GPGSV,3,1,12,21,59,337,37,05,57,273,37,14,33,146,31,17,29,080,21*73,0
1778777439826007998,$GPGSV,3,2,12,24,15,248,15,11,12,347,31,13,44,173,23,30,16,131,04*77,0
1778777439972679522,$GPGSV,3,3,12,44,42,284,38,28,64,147,,26,44,143,,23,34,078,*78,0
1778777440137680450,$GPRMC,165039.000,A,1205.9604,S,07701.5017,W,6.47,207.30,140526,,,A*61,0
1778777440389159185,$GPGGA,165040.000,1205.9613,S,07701.5022,W,1,07,1.0,150.9,M,8.4,M,,0000*6D,0
1778777440510621702,$GPGSA,M,3,21,05,14,17,30,24,11,,,,,,1.8,1.0,1.5*32,0
1778777440675622779,$GPRMC,165040.000,A,1205.9613,S,07701.5022,W,4.44,206.98,140526,,,A*6D,0
1778777441391079216,$GPGGA,165041.000,1205.9624,S,07701.5027,W,1,07,1.0,150.4,M,8.4,M,,0000*60,0
1778777441512604517,$GPGSA,M,3,21,05,14,17,30,24,11,,,,,,1.8,1.0,1.5*32,0
1778777441677552459,$GPRMC,165041.000,A,1205.9624,S,07701.5027,W,5.48,203.79,140526,,,A*6A,0
1778777442390093274,$GPGGA,165042.000,1205.9638,S,07701.5035,W,1,07,1.0,150.1,M,8.4,M,,0000*68,0
1778777442511567792,$GPGSA,M,3,21,05,14,17,30,24,11,,,,,,1.8,1.0,1.5*32,0
1778777442676557386,$GPRMC,165042.000,A,1205.9638,S,07701.5035,W,6.57,202.14,140526,,,A*60,0
1778777443391595341,$GPGGA,165043.000,1205.9656,S,07701.5043,W,1,07,1.0,149.6,M,8.4,M,,0000*6F,0
1778777443513093675,$GPGSA,M,3,21,05,14,17,30,24,11,,,,,,1.8,1.0,1.5*32,0
1778777443678140127,$GPRMC,165043.000,A,1205.9656,S,07701.5043,W,7.56,204.85,140526,,,A*66,0
1778777444389975154,$GPGGA,165044.000,1205.9676,S,07701.5053,W,1,07,1.0,149.1,M,8.4,M,,0000*6C,0
1778777444511442746,$GPGSA,M,3,21,05,14,17,30,24,11,,,,,,1.8,1.0,1.5*32,0
1778777444671879436,$GPGSV,3,1,12,21,59,337,43,05,57,273,44,14,33,146,37,17,29,080,22*71,0
1778777444832287994,$GPGSV,3,2,12,30,16,131,30,24,15,248,14,11,12,347,35,13,44,173,20*76,0
1778777444978957277,$GPGSV,3,3,12,44,42,284,42,28,64,147,,26,44,143,,23,34,078,*75,0
1778777445143989820,$GPRMC,165044.000,A,1205.9676,S,07701.5053,W,8.50,205.63,140526,,,A*62,0
1778777445393147024,$GPGGA,165045.000,1205.9694,S,07701.5062,W,1,07,1.0,148.6,M,8.4,M,,0000*65,0
1778777445514625635,$GPGSA,M,3,21,05,14,17,30,24,11,,,,,,1.8,1.0,1.5*32,0
1778777445679625823,$GPRMC,165045.000,A,1205.9694,S,07701.5062,W,7.66,205.29,140526,,,A*69,0
1778777446394673426,$GPGGA,165046.000,1205.9711,S,07701.5069,W,1,07,1.0,148.1,M,8.4,M,,0000*66,0
1778777446516127960,$GPGSA,M,3,21,05,14,17,30,24,11,,,,,,1.8,1.0,1.5*32,0
1778777446681175449,$GPRMC,165046.000,A,1205.9711,S,07701.5069,W,6.59,200.23,140526,,,A*6F,0
1778777447394295448,$GPGGA,165047.000,1205.9726,S,07701.5073,W,1,07,1.0,148.0,M,8.4,M,,0000*69,0
1778777447515749741,$GPGSA,M,3,21,05,14,17,30,24,11,,,,,,1.8,1.0,1.5*32,0
1778777447680752022,$GPRMC,165047.000,A,1205.9726,S,07701.5073,W,5.61,195.39,140526,,,A*6D,0
1778777448395175030,$GPGGA,165048.000,1205.9743,S,07701.5071,W,1,07,1.0,147.6,M,8.4,M,,0000*6E,0
1778777448516639473,$GPGSA,M,3,21,05,14,17,30,24,11,,,,,,1.8,1.0,1.5*32,0
1778777448681647125,$GPRMC,165048.000,A,1205.9743,S,07701.5071,W,5.63,186.57,140526,,,A*6B,0
1778777449393780587,$GPGGA,165049.000,1205.9766,S,07701.5057,W,1,07,1.0,147.1,M,8.4,M,,0000*6B,0
1778777449515222232,$GPGSA,M,3,21,05,14,17,30,24,11,,,,,,1.8,1.0,1.5*32,0
1778777449675656625,$GPGSV,3,1,12,21,59,337,44,05,57,273,45,14,33,146,45,17,29,080,36*77,0
1778777449836077481,$GPGSV,3,2,12,30,16,131,37,24,15,248,27,11,12,347,30,13,44,173,20*74,0
1778777449982743560,$GPGSV,3,3,12,44,42,284,44,28,64,147,,26,44,143,,23,34,078,*73,0
1778777450147754526,$GPRMC,165049.000,A,1205.9766,S,07701.5057,W,7.12,167.90,140526,,,A*69,0
1778777450395486821,$GPGGA,165050.000,1205.9783,S,07701.5034,W,1,07,1.0,146.9,M,8.4,M,,0000*64,0
1778777450516946337,$GPGSA,M,3,21,05,14,17,30,24,11,,,,,,1.8,1.0,1.5*32,0
1778777450681961879,$GPRMC,165050.000,A,1205.9783,S,07701.5034,W,9.24,130.96,140526,,,A*60,0
1778777451395328937,$GPGGA,165051.000,1205.9798,S,07701.5008,W,1,07,1.0,146.3,M,8.4,M,,0000*6A,0
1778777451516801955,$GPGSA,M,3,21,05,14,17,30,24,11,,,,,,1.8,1.0,1.5*32,0
1778777451684082354,$GPRMC,165051.000,A,1205.9798,S,07701.5008,W,10.09,118.20,140526,,,A*54,0
1778777452396268896,$GPGGA,165052.000,1205.9810,S,07701.4979,W,1,07,1.0,145.8,M,8.4,M,,0000*60,0
1778777452517668184,$GPGSA,M,3,21,05,14,17,30,24,11,,,,,,1.8,1.0,1.5*32,0
1778777452684955640,$GPRMC,165052.000,A,1205.9810,S,07701.4979,W,10.84,115.48,140526,,,A*50,0
1778777453395837079,$GPGGA,165053.000,1205.9824,S,07701.4950,W,1,07,1.0,145.0,M,8.4,M,,0000*65,0
1778777453517298744,$GPGSA,M,3,21,05,14,17,30,24,11,,,,,,1.8,1.0,1.5*32,0
1778777453684602090,$GPRMC,165053.000,A,1205.9824,S,07701.4950,W,11.37,115.54,140526,,,A*59,0
1778777454393999169,$GPGGA,165054.000,1205.9839,S,07701.4918,W,1,07,1.0,144.6,M,8.4,M,,0000*65,0
1778777454515476409,$GPGSA,M,3,21,05,14,17,30,24,11,,,,,,1.8,1.0,1.5*32,0
1778777454675894783,$GPGSV,3,1,12,21,59,337,41,05,57,273,45,14,33,146,44,17,29,080,29*7D,0
1778777454836315694,$GPGSV,3,2,12,30,16,131,39,24,15,248,30,11,12,347,28,06,01,023,14*73,0
1778777454982995792,$GPGSV,3,3,12,44,42,284,46,28,64,147,,26,44,143,,13,44,173,*7F,0
1778777455150291156,$GPRMC,165054.000,A,1205.9839,S,07701.4918,W,12.41,115.15,140526,,,A*59,0
1778777455395986373,$GPGGA,165055.000,1205.9855,S,07701.4885,W,1,07,1.0,144.5,M,8.4,M,,0000*68,0
1778777455517394088,$GPGSA,M,3,21,05,14,17,30,24,11,,,,,,1.8,1.0,1.5*32,0
1778777455684691730,$GPRMC,165055.000,A,1205.9855,S,07701.4885,W,12.64,116.12,140526,,,A*54,0
1778777456394729628,$GPGGA,165056.000,1205.9872,S,07701.4852,W,1,07,1.0,144.3,M,8.4,M,,0000*62,0
1778777456516272022,$GPGSA,M,3,21,05,14,17,30,24,11,,,,,,1.8,1.0,1.5*32,0
1778777456683494453,$GPRMC,165056.000,A,1205.9872,S,07701.4852,W,12.42,116.47,140526,,,A*5C,0
1778777457394355798,$GPGGA,165057.000,1205.9888,S,07701.4821,W,1,07,1.0,144.2,M,8.4,M,,0000*63,0
1778777457515822185,$GPGSA,M,3,21,05,14,17,30,24,11,,,,,,1.8,1.0,1.5*32,0
1778777457683124828,$GPRMC,165057.000,A,1205.9888,S,07701.4821,W,11.76,115.36,140526,,,A*5D,0
1778777458397114981,$GPGGA,165058.000,1205.9903,S,07701.4792,W,1,07,1.0,144.3,M,8.4,M,,0000*68,0
1778777458518565756,$GPGSA,M,3,21,05,14,17,30,24,11,,,,,,1.8,1.0,1.5*32,0
1778777458685873751,$GPRMC,165058.000,A,1205.9903,S,07701.4792,W,10.69,116.02,140526,,,A*5C,0
1778777459397170969,$GPGGA,165059.000,1205.9916,S,07701.4765,W,1,07,1.0,144.1,M,8.4,M,,0000*67,0
1778777459518620169,$GPGSA,M,3,21,05,14,17,30,24,11,,,,,,1.8,1.0,1.5*32,0
1778777459679051933,$GPGSV,3,1,12,21,59,337,41,05,57,273,45,14,33,146,43,17,29,080,31*73,0
1778777459839478882,$GPGSV,3,2,12,30,16,131,39,24,15,248,23,11,12,347,33,06,01,023,04*7A,0
1778777459986154665,$GPGSV,3,3,12,44,42,284,46,28,64,147,,26,44,143,,13,44,173,*7F,0
1778777460151159039,$GPRMC,165059.000,A,1205.9916,S,07701.4765,W,9.94,116.73,140526,,,A*6D,0
1778777460391996212,$GPGGA,165100.000,1205.9928,S,07701.4739,W,1,07,1.0,143.8,M,8.4,M,,0000*60,0
1778777460513482119,$GPGSA,M,3,21,05,14,17,30,24,11,,,,,,1.8,1.0,1.5*32,0
1778777460678468973,$GPRMC,165100.000,A,1205.9928,S,07701.4739,W,9.89,116.01,140526,,,A*6D,0
1778777461396643533,$GPGGA,165101.000,1205.9939,S,07701.4712,W,1,07,1.0,143.7,M,8.4,M,,0000*67,0
1778777461518094789,$GPGSA,M,3,21,05,14,17,30,24,11,,,,,,1.8,1.0,1.5*32,0
1778777461685399117,$GPRMC,165101.000,A,1205.9939,S,07701.4712,W,10.19,116.24,140526,,,A*53,0
1778777462395022884,$GPGGA,165102.000,1205.9951,S,07701.4685,W,1,07,1.0,143.7,M,8.4,M,,0000*65,0
1778777462516479233,$GPGSA,M,3,21,05,14,17,30,24,11,,,,,,1.8,1.0,1.5*32,0
1778777462683774468,$GPRMC,165102.000,A,1205.9951,S,07701.4685,W,10.22,115.96,140526,,,A*53,0
1778777463396318450,$GPGGA,165103.000,1205.9965,S,07701.4659,W,1,07,1.0,143.7,M,8.4,M,,0000*62,0
1778777463517771206,$GPGSA,M,3,21,05,14,17,30,24,11,,,,,,1.8,1.0,1.5*32,0
1778777463685072423,$GPRMC,165103.000,A,1205.9965,S,07701.4659,W,10.19,116.41,140526,,,A*55,0
1778777464395542823,$GPGGA,165104.000,1205.9977,S,07701.4635,W,1,07,1.0,143.6,M,8.4,M,,0000*6D,0
1778777464516993987,$GPGSA,M,3,21,05,14,17,30,24,11,,,,,,1.8,1.0,1.5*32,0
1778777464677415879,$GPGSV,3,1,12,21,59,337,43,05,57,273,45,14,33,146,40,17,29,080,32*71,0
1778777464837837420,$GPGSV,3,2,12,30,16,131,34,24,15,248,23,11,12,347,22,06,01,023,18*7A,0
1778777464984509111,$GPGSV,3,3,12,44,42,284,45,28,64,147,,26,44,143,,13,44,173,*7C,0
1778777465149521263,$GPRMC,165104.000,A,1205.9977,S,07701.4635,W,9.27,116.76,140526,,,A*6A,0
1778777465395582550,$GPGGA,165105.000,1205.9989,S,07701.4614,W,1,07,1.0,143.7,M,8.4,M,,0000*6F,0
1778777465517046585,$GPGSA,M,3,21,05,14,17,30,24,11,,,,,,1.8,1.0,1.5*32,0
1778777465682055367,$GPRMC,165105.000,A,1205.9989,S,07701.4614,W,7.84,117.92,140526,,,A*65,0
1778777466398141900,$GPGGA,165106.000,1205.9998,S,07701.4597,W,1,07,1.0,143.6,M,8.4,M,,0000*65,0
1778777466519579914,$GPGSA,M,3,21,05,14,17,30,24,11,,,,,,1.8,1.0,1.5*32,0
1778777466684602697,$GPRMC,165106.000,A,1205.9998,S,07701.4597,W,6.49,117.76,140526,,,A*64,0
1778777467394650095,$GPGGA,165107.000,1206.0005,S,07701.4584,W,1,07,1.0,143.4,M,8.4,M,,0000*63,1
1778777467516089369,$GPGSA,M,3,21,05,14,17,30,24,11,,,,,,1.8,1.0,1.5*32,1
1778777467681095724,$GPRMC,165107.000,A,1206.0005,S,07701.4584,W,5.19,117.96,140526,,,A*68,1
1778777468395719474,$GPGGA,165108.000,1206.0010,S,07701.4574,W,1,07,1.0,143.4,M,8.4,M,,0000*67,1
1778777468517186176,$GPGSA,M,3,21,05,14,17,30,24,11,,,,,,1.8,1.0,1.5*32,1
1778777468682211922,$GPRMC,165108.000,A,1206.0010,S,07701.4574,W,2.65,117.63,140526,,,A*6A,1
1778777469398478268,$GPGGA,165109.000,1206.0013,S,07701.4571,W,1,07,1.0,143.6,M,8.4,M,,0000*62,1
1778777469519936247,$GPGSA,M,3,21,05,14,17,30,24,11,,,,,,1.8,1.0,1.5*32,1
1778777469680364751,$GPGSV,3,1,12,21,59,337,43,05,57,273,45,14,33,146,40,17,29,080,30*73,1
1778777469840799627,$GPGSV,3,2,12,30,16,131,36,24,15,248,21,11,12,347,21,06,01,023,15*74,1
1778777469992041334,$GPGSV,3,3,12,13,44,173,41,44,42,284,45,28,64,147,,26,44,143,*79,1
1778777470157074618,$GPRMC,165109.000,A,1206.0013,S,07701.4571,W,0.46,117.63,140526,,,A*6E,1
1778777470398519643,$GPGGA,165110.000,1206.0013,S,07701.4571,W,1,07,1.0,143.5,M,8.4,M,,0000*69,1
1778777470519994050,$GPGSA,M,3,21,05,14,17,30,24,11,,,,,,1.8,1.0,1.5*32,1
1778777470684993145,$GPRMC,165110.000,A,1206.0013,S,07701.4571,W,0.05,117.63,140526,,,A*61,1
1778777471394879417,$GPGGA,165111.000,1206.0013,S,07701.4572,W,1,06,1.5,143.5,M,8.4,M,,0000*6F,1
1778777471511706670,$GPGSA,M,3,21,05,14,17,30,24,,,,,,,2.9,1.5,2.5*36,1
1778777471676721471,$GPRMC,165111.000,A,1206.0013,S,07701.4572,W,0.02,117.63,140526,,,A*64,1
1778777472400499866,$GPGGA,165112.000,1206.0013,S,07701.4572,W,1,07,1.0,143.5,M,8.4,M,,0000*68,1
1778777472521958568,$GPGSA,M,3,21,05,14,17,30,24,11,,,,,,1.8,1.0,1.5*32,1
1778777472686980017,$GPRMC,165112.000,A,1206.0013,S,07701.4572,W,0.01,117.63,140526,,,A*64,1
1778777473398049677,$GPGGA,165113.000,1206.0013,S,07701.4572,W,1,07,1.0,143.5,M,8.4,M,,0000*69,1
1778777473519515416,$GPGSA,M,3,21,05,14,17,30,24,11,,,,,,1.8,1.0,1.5*32,1
1778777473684516549,$GPRMC,165113.000,A,1206.0013,S,07701.4572,W,0.00,117.63,140526,,,A*64,1
1778777474394758132,$GPGGA,165114.000,1206.0013,S,07701.4572,W,1,07,1.0,143.5,M,8.4,M,,0000*6E,1
1778777474516228519,$GPGSA,M,3,21,05,14,17,30,24,11,,,,,,1.8,1.0,1.5*32,1
1778777474676679137,$GPGSV,3,1,12,21,59,337,44,05,57,273,46,14,33,146,40,17,29,080,31*76,1
1778777474837081287,$GPGSV,3,2,12,30,16,131,35,24,15,248,21,11,12,347,27,13,44,173,42*72,1
1778777474983746347,$GPGSV,3,3,12,44,42,284,44,28,64,147,,26,44,143,,23,34,078,*73,1
1778777475148792762,$GPRMC,165114.000,A,1206.0013,S,07701.4572,W,0.00,117.63,140526,,,A*63,1
1778777475404609566,$GPGGA,165115.000,1206.0013,S,07701.4572,W,1,07,1.0,143.5,M,8.4,M,,0000*6F,1
1778777475526052451,$GPGSA,M,3,21,05,14,17,30,24,11,,,,,,1.8,1.0,1.5*32,1
1778777475691069548,$GPRMC,165115.000,A,1206.0013,S,07701.4572,W,0.00,117.63,140526,,,A*62,1
1778777476398186804,$GPGGA,165116.000,1206.0013,S,07701.4572,W,1,07,1.0,143.5,M,8.4,M,,0000*6C,1
1778777476519654858,$GPGSA,M,3,21,05,14,17,30,24,11,,,,,,1.8,1.0,1.5*32,1
1778777476684667084,$GPRMC,165116.000,A,1206.0013,S,07701.4572,W,0.00,117.63,140526,,,A*61,1
1778777477403035292,$GPGGA,165117.000,1206.0013,S,07701.4572,W,1,07,1.0,143.5,M,8.4,M,,0000*6D,1
1778777477524498068,$GPGSA,M,3,21,05,14,17,30,24,11,,,,,,1.8,1.0,1.5*32,1
1778777477689499793,$GPRMC,165117.000,A,1206.0013,S,07701.4572,W,0.00,117.63,140526,,,A*60,1
1778777478395455460,$GPGGA,165118.000,1206.0013,S,07701.4572,W,1,07,1.0,143.5,M,8.4,M,,0000*62,1
1778777478516839636,$GPGSA,M,3,21,05,14,17,30,24,11,,,,,,1.8,1.0,1.5*32,1
1778777478681847677,$GPRMC,165118.000,A,1206.0013,S,07701.4572,W,0.00,117.63,140526,,,A*6F,1
1778777479399179159,$GPGGA,165119.000,1206.0013,S,07701.4572,W,1,07,1.0,143.5,M,8.4,M,,0000*63,1
1778777479520628248,$GPGSA,M,3,21,05,14,17,30,24,11,,,,,,1.8,1.0,1.5*32,1
1778777479681057679,$GPGSV,3,1,12,21,59,337,44,05,57,273,47,14,33,146,40,17,29,080,30*76,1
1778777479841490961,$GPGSV,3,2,12,30,16,131,35,24,15,248,20,11,12,347,21,13,44,173,43*74,1
1778777479988159577,$GPGSV,3,3,12,44,42,284,45,28,64,147,,26,44,143,,23,34,078,*72,1
