Unix_time,GPS_data,flagStop
1778778344611427297,$GPGSA,M,3,05,21,17,14,24,30,11,,,,,,1.9,0.9,1.6*38,0
1778778376764058464,$GPGSV,3,1,12,05,56,287,40,21,52,344,44,17,30,088,44,14,27,147,36*72,0
1778778376764775660,$GPGSV,3,2,12,24,17,242,32,30,13,126,34,11,10,352,14,13,48,165,40*75,0
1778778376765472373,$GPGSV,3,3,12,44,42,284,37,28,56,152,,26,46,133,,23,31,070,*7A,0
1778778376765612571,$GPRMC,170544.000,A,1205.9934,S,07701.4543,W,0.00,294.66,140526,,,A*6F,0
1778778376765748287,$GPGGA,170545.000,1205.9934,S,07701.4542,W,1,07,0.9,147.0,M,8.4,M,,0000*66,0
1778778376765891893,$GPGSA,M,3,05,21,17,14,24,30,11,,,,,,1.9,0.9,1.6*38,0
1778778376765991755,$GPRMC,170545.000,A,1205.9934,S,07701.4542,W,0.07,294.66,140526,,,A*68,0
1778778376766126637,$GPGGA,170546.000,1205.9934,S,07701.4542,W,1,07,0.9,147.0,M,8.4,M,,0000*65,0
1778778376766269132,$GPGSA,M,3,05,21,17,14,24,30,11,,,,,,1.9,0.9,1.6*38,0
1778778376766369049,$GPRMC,170546.000,A,1205.9934,S,07701.4542,W,0.00,294.66,140526,,,A*6C,0
1778778376766504524,$GPGGA,170547.000,1205.9934,S,07701.4542,W,1,07,0.9,147.0,M,8.4,M,,0000*64,0
1778778376766647297,$GPGSA,M,3,05,21,17,14,24,30,11,,,,,,1.9,0.9,1.6*38,0
1778778376766747028,$GPRMC,170547.000,A,1205.9934,S,07701.4542,W,0.00,294.66,140526,,,A*6D,0
1778778376766882319,$GPGGA,170548.000,1205.9934,S,07701.4542,W,1,07,0.9,146.9,M,8.4,M,,0000*63,0
1778778376767025165,$GPGSA,M,3,05,21,17,14,24,30,11,,,,,,1.9,0.9,1.6*38,0
1778778376767124934,$GPRMC,170548.000,A,1205.9934,S,07701.4542,W,0.08,294.66,140526,,,A*6A,0
1778778376767260391,$GPGGA,170549.000,1205.9934,S,07701.4542,W,1,07,0.9,146.9,M,8.4,M,,0000*62,0
1778778376767403089,$GPGSA,M,3,05,21,17,14,24,30,11,,,,,,1.9,0.9,1.6*38,0
1778778376767502987,$GPGSV,3,1,12,05,56,287,39,21,52,344,44,17,30,088,45,14,27,147,35*7E,0
1778778376767634759,$GPGSV,3,2,12,24,17,242,33,30,13,126,33,11,10,352,12,13,48,165,39*7B,0
1778778376767766456,$GPGSV,3,3,12,44,42,284,37,28,56,152,,26,46,133,,23,31,070,*7A,0
1778778376767886912,$GPRMC,170549.000,A,1205.9934,S,07701.4542,W,0.00,294.66,140526,,,A*63,0
1778778376768022573,$GPGGA,170550.000,1205.9934,S,07701.4542,W,1,07,0.9,146.9,M,8.4,M,,0000*6A,0
1778778376768164975,$GPGSA,M,3,05,21,17,14,24,30,11,,,,,,1.9,0.9,1.6*38,0
1778778376768929027,$GPRMC,170550.000,A,1205.9934,S,07701.4542,W,0.00,294.66,140526,,,A*6B,0
1778778376769634759,$GPGGA,170551.000,1205.9934,S,07701.4542,W,1,07,0.9,146.9,M,8.4,M,,0000*6B,0
1778778376770380255,$GPGSA,M,3,05,21,17,14,24,30,11,,,,,,1.9,0.9,1.6*38,0
1778778376770898932,$GPRMC,170551.000,A,1205.9934,S,07701.4542,W,0.00,294.66,140526,,,A*6A,0
1778778376771556975,$GPGGA,170552.000,1205.9934,S,07701.4542,W,1,07,0.9,146.9,M,8.4,M,,0000*68,0
1778778376772308304,$GPGSA,M,3,05,21,17,14,24,30,11,,,,,,1.9,0.9,1.6*38,0
1778778376772826963,$GPRMC,170552.000,A,1205.9934,S,07701.4542,W,0.00,294.66,140526,,,A*69,0
1778778376773532992,$GPGGA,170553.000,1205.9934,S,07701.4542,W,1,07,0.9,146.9,M,8.4,M,,0000*69,0
1778778376774275209,$GPGSA,M,3,05,21,17,14,24,30,11,,,,,,1.9,0.9,1.6*38,0
1778778376774789979,$GPRMC,170553.000,A,1205.9934,S,07701.4542,W,0.00,294.66,140526,,,A*68,0
1778778376775492340,$GPGGA,170554.000,1205.9934,S,07701.4542,W,1,07,0.9,146.9,M,8.4,M,,0000*6E,0
1778778376775801665,$GPGSA,M,3,05,21,17,14,24,30,11,,,,,,1.9,0.9,1.6*38,0
1778778376775900730,$GPGSV,3,1,12,05,56,287,38,21,52,344,45,17,30,088,45,14,27,147,35*7E,0
1778778376776031724,$GPGSV,3,2,12,24,17,242,33,30,13,126,32,11,10,352,19,13,48,165,39*71,0
1778778376776162958,$GPGSV,3,3,12,44,42,284,37,28,56,152,,26,46,133,,23,31,070,*7A,0
1778778376776298211,$GPRMC,170554.000,A,1205.9934,S,07701.4542,W,0.00,294.66,140526,,,A*6F,0
1778778376776511120,$GPGGA,170555.000,1205.9934,S,07701.4542,W,1,07,0.9,146.9,M,8.4,M,,0000*6F,0
1778778376777242114,$GPGSA,M,3,05,21,17,14,24,30,11,,,,,,1.9,0.9,1.6*38,0
1778778376777750920,$GPRMC,170555.000,A,1205.9934,S,07701.4542,W,0.00,294.66,140526,,,A*6E,0
1778778376778441577,$GPGGA,170556.000,1205.9934,S,07701.4542,W,1,07,0.9,146.9,M,8.4,M,,0000*6C,0
1778778376779171867,$GPGSA,M,3,05,21,17,14,24,30,11,,,,,,1.9,0.9,1.6*38,0
1778778376779680822,$GPRMC,170556.000,A,1205.9934,S,07701.4542,W,0.00,294.66,140526,,,A*6D,0
1778778376780417890,$GPGGA,170557.000,1205.9934,S,07701.4542,W,1,07,0.9,146.8,M,8.4,M,,0000*6C,0
1778778376781153514,$GPGSA,M,3,05,21,17,14,24,30,11,,,,,,1.9,0.9,1.6*38,0
1778778376781660617,$GPRMC,170557.000,A,1205.9934,S,07701.4542,W,0.07,294.66,140526,,,A*6B,0
1778778376782347014,$GPGGA,170558.000,1205.9934,S,07701.4542,W,1,07,0.9,146.8,M,8.4,M,,0000*63,0
1778778376782609519,$GPGSA,M,3,05,21,17,14,24,30,11,,,,,,1.9,0.9,1.6*38,0
1778778376782709177,$GPRMC,170558.000,A,1205.9934,S,07701.4542,W,0.00,294.66,140526,,,A*63,0
1778778376782843967,$GPGGA,170559.000,1205.9934,S,07701.4542,W,1,07,0.9,146.8,M,8.4,M,,0000*62,0
1778778376782986554,$GPGSA,M,3,05,21,17,14,24,30,11,,,,,,1.9,0.9,1.6*38,0
1778778376783085804,$GPGSV,3,1,12,05,56,287,39,21,52,344,46,17,30,088,46,14,27,147,35*7F,0
1778778376783217224,$GPGSV,3,2,12,24,17,242,35,30,13,126,32,11,10,352,24,13,48,165,39*79,0
1778778376783347921,$GPGSV,3,3,12,44,42,284,38,28,56,152,,26,46,133,,23,31,070,*75,0
1778778376783468136,$GPRMC,170559.000,A,1205.9934,S,07701.4542,W,0.00,294.66,140526,,,A*62,0
1778778376783603704,$GPGGA,170600.000,1205.9934,S,07701.4542,W,1,07,0.9,146.9,M,8.4,M,,0000*6C,0
1778778376783745273,$GPGSA,M,3,05,21,17,14,24,30,11,,,,,,1.9,0.9,1.6*38,0
1778778376783844838,$GPRMC,170600.000,A,1205.9934,S,07701.4542,W,0.00,294.66,140526,,,A*6D,0
1778778376783979035,$GPGGA,170601.000,1205.9934,S,07701.4542,W,1,07,0.9,146.9,M,8.4,M,,0000*6D,0
1778778376784121438,$GPGSA,M,3,05,21,17,14,24,30,11,,,,,,1.9,0.9,1.6*38,0
1778778376784220391,$GPRMC,170601.000,A,1205.9934,S,07701.4542,W,0.00,294.66,140526,,,A*6C,0
1778778376784381277,$GPGGA,170602.000,1205.9934,S,07701.4542,W,1,07,0.9,146.9,M,8.4,M,,0000*6E,0
1778778376784535309,$GPGSA,M,3,05,21,17,14,24,30,11,,,,,,1.9,0.9,1.6*38,0
1778778376784635578,$GPRMC,170602.000,A,1205.9934,S,07701.4542,W,0.00,294.66,140526,,,A*6F,0
1778778376784769831,$GPGGA,170603.000,1205.9934,S,07701.4542,W,1,07,0.9,146.9,M,8.4,M,,0000*6F,0
1778778376784912011,$GPGSA,M,3,05,21,17,14,24,30,11,,,,,,1.9,0.9,1.6*38,0
1778778376785011316,$GPRMC,170603.000,A,1205.9934,S,07701.4542,W,0.00,294.66,140526,,,A*6E,0
1778778376785146977,$GPGGA,170604.000,1205.9935,S,07701.4542,W,1,07,0.9,146.9,M,8.4,M,,0000*69,0
1778778376785289898,$GPGSA,M,3,05,21,17,14,24,30,11,,,,,,1.9,0.9,1.6*38,0
1778778376785389852,$GPGSV,3,1,12,05,56,287,40,21,52,344,46,17,30,088,46,14,27,147,36*72,0
1778778376785521568,$GPGSV,3,2,12,24,17,242,36,30,13,126,33,11,10,352,25,13,48,165,39*7A,0
1778778376785653265,$GPGSV,3,3,12,44,42,284,38,28,56,152,,26,46,133,,23,31,070,*75,0
1778778376785773795,$GPRMC,170604.000,A,1205.9935,S,07701.4542,W,0.00,294.66,140526,,,A*68,0
1778778376785909289,$GPGGA,170605.000,1205.9935,S,07701.4542,W,1,07,0.9,146.9,M,8.4,M,,0000*68,0
1778778376786052321,$GPGSA,M,3,05,21,17,14,24,30,11,,,,,,1.9,0.9,1.6*38,0
1778778376786152311,$GPRMC,170605.000,A,1205.9935,S,07701.4542,W,0.00,294.66,140526,,,A*69,0
1778778376786287842,$GPGGA,170606.000,1205.9935,S,07701.4542,W,1,07,0.9,146.6,M,8.4,M,,0000*64,0
1778778376786430911,$GPGSA,M,3,05,21,17,14,24,30,11,,,,,,1.9,0.9,1.6*38,0
1778778376786529680,$GPRMC,170606.000,A,1205.9935,S,07701.4542,W,0.06,294.66,140526,,,A*6C,0
1778778376786664766,$GPGGA,170607.000,1205.9935,S,07701.4542,W,1,07,0.9,146.6,M,8.4,M,,0000*65,0
1778778376786807724,$GPGSA,M,3,05,21,17,14,24,30,11,,,,,,1.9,0.9,1.6*38,0
1778778376786907493,$GPRMC,170607.000,A,1205.9935,S,07701.4542,W,0.00,294.66,140526,,,A*6B,0
1778778376787042838,$GPGGA,170608.000,1205.9935,S,07701.4542,W,1,07,0.9,146.6,M,8.4,M,,0000*6A,0
1778778376787185574,$GPGSA,M,3,05,21,17,14,24,30,11,,,,,,1.9,0.9,1.6*38,0
1778778376787285417,$GPRMC,170608.000,A,1205.9935,S,07701.4542,W,0.00,294.66,140526,,,A*64,0
1778778376787420336,$GPGGA,170609.000,1205.9935,S,07701.4542,W,1,07,0.9,146.6,M,8.4,M,,0000*6B,0
1778778376787563313,$GPGSA,M,3,05,21,17,14,24,30,11,,,,,,1.9,0.9,1.6*38,0
1778778376787663081,$GPGSV,3,1,12,05,56,287,41,21,52,344,46,17,30,088,46,14,27,147,37*72,0
1778778376787794723,$GPGSV,3,2,12,24,17,242,37,30,13,126,33,11,10,352,26,13,48,165,39*78,0
1778778376787965961,$GPGSV,3,3,12,44,42,284,37,28,56,152,,26,46,133,,23,31,070,*7A,0
1778778376788086472,$GPRMC,170609.000,A,1205.9935,S,07701.4542,W,0.00,294.66,140526,,,A*65,0
1778778376788221633,$GPGGA,170610.000,1205.9935,S,07701.4542,W,1,07,0.9,146.6,M,8.4,M,,0000*63,0
1778778376788372443,$GPGSA,M,3,05,21,17,14,24,30,11,,,,,,1.9,0.9,1.6*38,0
1778778376788471953,$GPRMC,170610.000,A,1205.9935,S,07701.4542,W,0.00,294.66,140526,,,A*6D,0
1778778376788607317,$GPGGA,170611.000,1205.9935,S,07701.4542,W,1,07,0.9,146.6,M,8.4,M,,0000*62,0
1778778376788750071,$GPGSA,M,3,05,21,17,14,24,30,11,,,,,,1.9,0.9,1.6*38,0
1778778376788849802,$GPRMC,170611.000,A,1205.9935,S,07701.4542,W,0.00,294.66,140526,,,A*6C,0
1778778376788985000,$GPGGA,170612.000,1205.9935,S,07701.4542,W,1,07,0.9,146.6,M,8.4,M,,0000*61,0
1778778376789127773,$GPGSA,M,3,05,21,17,14,24,30,11,,,,,,1.9,0.9,1.6*38,0
1778778376789227523,$GPRMC,170612.000,A,1205.9935,S,07701.4542,W,0.00,294.66,140526,,,A*6F,0
1778778376789362776,$GPGGA,170613.000,1205.9934,S,07701.4543,W,1,07,0.9,146.3,M,8.4,M,,0000*65,0
1778778376789505493,$GPGSA,M,3,05,21,17,14,24,30,11,,,,,,1.9,0.9,1.6*38,0
1778778376789605280,$GPRMC,170613.000,A,1205.9934,S,07701.4543,W,0.07,294.66,140526,,,A*69,0
1778778376789740459,$GPGGA,170614.000,1205.9934,S,07701.4543,W,1,07,0.9,146.3,M,8.4,M,,0000*62,0
1778778376789883269,$GPGSA,M,3,05,21,17,14,24,30,11,,,,,,1.9,0.9,1.6*38,0
1778778376789983000,$GPGSV,3,1,12,05,56,287,41,21,52,344,46,17,30,088,45,14,27,147,37*71,0
1778778376790114568,$GPGSV,3,2,12,24,17,242,36,30,13,126,33,11,10,352,25,13,48,165,38*7B,0
1778778376790246062,$GPGSV,3,3,12,44,42,284,37,28,56,152,,26,46,133,,23,31,070,*7A,0
1778778376790366425,$GPRMC,170614.000,A,1205.9934,S,07701.4543,W,0.00,294.66,140526,,,A*69,0
1778778376790501660,$GPGGA,170615.000,1205.9934,S,07701.4543,W,1,07,0.9,146.3,M,8.4,M,,0000*63,0
1778778376790644358,$GPGSA,M,3,05,21,17,14,24,30,11,,,,,,1.9,0.9,1.6*38,0
1778778376790744071,$GPRMC,170615.000,A,1205.9934,S,07701.4543,W,0.00,294.66,140526,,,A*68,0
1778778376790879361,$GPGGA,170616.000,1205.9934,S,07701.4543,W,1,07,0.9,146.3,M,8.4,M,,0000*60,0
1778778376791022634,$GPGSA,M,3,05,21,17,14,24,30,11,,,,,,1.9,0.9,1.6*38,0
1778778376791125254,$GPRMC,170616.000,A,1205.9934,S,07701.4543,W,0.00,294.66,140526,,,A*6B,0
1778778377493206673,$GPGGA,170617.000,1205.9934,S,07701.4543,W,1,07,0.9,146.3,M,8.4,M,,0000*61,0
1778778377614709674,$GPGSA,M,3,05,21,17,14,24,30,11,,,,,,1.9,0.9,1.6*38,0
1778778377779699880,$GPRMC,170617.000,A,1205.9934,S,07701.4543,W,0.00,294.66,140526,,,A*6A,0
1778778378493686811,$GPGGA,170618.000,1205.9934,S,07701.4543,W,1,07,0.9,146.3,M,8.4,M,,0000*6E,0
1778778378615144864,$GPGSA,M,3,05,21,17,14,24,30,11,,,,,,1.9,0.9,1.6*38,0
1778778378780130458,$GPRMC,170618.000,A,1205.9934,S,07701.4543,W,0.00,294.66,140526,,,A*65,0
1778778379493746225,$GPGGA,170619.000,1205.9934,S,07701.4543,W,1,07,0.9,146.3,M,8.4,M,,0000*6F,0
1778778379615206537,$GPGSA,M,3,05,21,17,14,24,30,11,,,,,,1.9,0.9,1.6*38,0
1778778379775599613,$GPGSV,3,1,12,05,56,287,42,21,52,344,46,17,30,088,46,14,27,147,37*71,1
1778778379936039840,$GPGSV,3,2,12,24,17,242,37,30,13,126,32,11,10,352,25,13,48,165,38*7B,1
1778778380082769740,$GPGSV,3,3,12,44,42,284,38,28,56,152,,26,46,133,,23,31,070,*75,1
1778778380247809709,$GPRMC,170619.000,A,1205.9934,S,07701.4543,W,0.00,294.66,140526,,,A*64,1
1778778380494616084,$GPGGA,170620.000,1205.9934,S,07701.4543,W,1,07,0.9,146.3,M,8.4,M,,0000*65,1
1778778380616081509,$GPGSA,M,3,05,21,17,14,24,30,11,,,,,,1.9,0.9,1.6*38,1
1778778380781067695,$GPRMC,170620.000,A,1205.9934,S,07701.4543,W,0.00,294.66,140526,,,A*6E,1
1778778381494238032,$GPGGA,170621.000,1205.9935,S,07701.4543,W,1,07,0.9,146.3,M,8.4,M,,0000*65,1
1778778381615691455,$GPGSA,M,3,05,21,17,14,24,30,11,,,,,,1.9,0.9,1.6*38,1
1778778381780734647,$GPRMC,170621.000,A,1205.9935,S,07701.4543,W,0.00,294.66,140526,,,A*6E,1
1778778382494730023,$GPGGA,170622.000,1205.9935,S,07701.4543,W,1,07,0.9,146.3,M,8.4,M,,0000*66,1
1778778382616185243,$GPGSA,M,3,05,21,17,14,24,30,11,,,,,,1.9,0.9,1.6*38,1
1778778382781163003,$GPRMC,170622.000,A,1205.9935,S,07701.4543,W,0.00,294.66,140526,,,A*6D,1
1778778383495603716,$GPGGA,170623.000,1205.9935,S,07701.4543,W,1,07,0.9,146.3,M,8.4,M,,0000*67,1
1778778383617057714,$GPGSA,M,3,05,21,17,14,24,30,11,,,,,,1.9,0.9,1.6*38,1
1778778383782041511,$GPRMC,170623.000,A,1205.9935,S,07701.4543,W,0.00,294.66,140526,,,A*6C,1
1778778384494851796,$GPGGA,170624.000,1205.9935,S,07701.4543,W,1,07,0.9,146.3,M,8.4,M,,0000*60,1
1778778384616240009,$GPGSA,M,3,05,21,17,14,24,30,11,,,,,,1.9,0.9,1.6*38,1
1778778384776692257,$GPGSV,3,1,12,05,56,287,42,21,52,344,46,17,30,088,45,14,27,147,37*72,1
1778778384937140967,$GPGSV,3,2,12,24,17,242,37,30,13,126,29,11,10,352,19,13,48,165,38*7E,1
1778778385083760467,$GPGSV,3,3,12,44,42,284,37,28,56,152,,26,46,133,,23,31,070,*7A,1
1778778385248831087,$GPRMC,170624.000,A,1205.9935,S,07701.4543,W,0.00,294.66,140526,,,A*6B,1
1778778385491963640,$GPGGA,170625.000,1205.9935,S,07701.4543,W,1,07,0.9,146.3,M,8.4,M,,0000*61,1
1778778385613468716,$GPGSA,M,3,05,21,17,14,24,30,11,,,,,,1.9,0.9,1.6*38,1
1778778385778406528,$GPRMC,170625.000,A,1205.9935,S,07701.4543,W,0.00,294.66,140526,,,A*6A,1
1778778386491766345,$GPGGA,170626.000,1205.9935,S,07701.4543,W,1,07,0.9,146.3,M,8.4,M,,0000*62,1
1778778386613236881,$GPGSA,M,3,05,21,17,14,24,30,11,,,,,,1.9,0.9,1.6*38,1
1778778386778264219,$GPRMC,170626.000,A,1205.9935,S,07701.4543,W,0.00,294.66,140526,,,A*69,1
1778778387495355012,$GPGGA,170627.000,1205.9935,S,07701.4543,W,1,07,0.9,146.3,M,8.4,M,,0000*63,1
1778778387616855755,$GPGSA,M,3,05,21,17,14,24,30,11,,,,,,1.9,0.9,1.6*38,1
1778778387781824644,$GPRMC,170627.000,A,1205.9935,S,07701.4543,W,0.00,294.66,140526,,,A*68,1
1778778388494820501,$GPGGA,170628.000,1205.9935,S,07701.4543,W,1,07,0.9,146.3,M,8.4,M,,0000*6C,1
1778778388616278943,$GPGSA,M,3,05,21,17,14,24,30,11,,,,,,1.9,0.9,1.6*38,1
1778778388781261611,$GPRMC,170628.000,A,1205.9935,S,07701.4543,W,0.00,294.66,140526,,,A*67,1
1778778389494613909,$GPGGA,170629.000,1205.9935,S,07701.4543,W,1,07,0.9,146.3,M,8.4,M,,0000*6D,0
1778778389616084111,$GPGSA,M,3,05,21,17,14,24,30,11,,,,,,1.9,0.9,1.6*38,0
1778778389776504633,$GPGSV,3,1,12,05,55,290,42,21,51,345,46,17,30,090,46,14,26,147,37*7E,0
1778778389936964122,$GPGSV,3,2,12,24,17,241,37,30,13,124,30,11,10,354,19,13,49,163,38*76,0
1778778390083624293,$GPGSV,3,3,12,44,42,284,37,28,55,153,,26,47,131,,23,31,068,*72,0
1778778390248615313,$GPRMC,170629.000,A,1205.9935,S,07701.4543,W,0.00,294.66,140526,,,A*66,0
1778778390495295121,$GPGGA,170630.000,1205.9935,S,07701.4543,W,1,07,0.9,146.3,M,8.4,M,,0000*65,0
1778778390616766398,$GPGSA,M,3,05,21,17,14,24,30,11,,,,,,1.9,0.9,1.6*38,0
1778778390781746417,$GPRMC,170630.000,A,1205.9935,S,07701.4543,W,0.00,294.66,140526,,,A*6E,0
1778778391495164277,$GPGGA,170631.000,1205.9933,S,07701.4545,W,1,07,0.9,146.0,M,8.4,M,,0000*67,0
1778778391616571159,$GPGSA,M,3,05,21,17,14,24,30,11,,,,,,1.9,0.9,1.6*38,0
1778778391781624463,$GPRMC,170631.000,A,1205.9933,S,07701.4545,W,1.66,299.12,140526,,,A*60,0
1778778392491858860,$GPGGA,170632.000,1205.9929,S,07701.4554,W,1,07,0.9,145.7,M,8.4,M,,0000*6B,0
1778778392613298356,$GPGSA,M,3,05,21,17,14,24,30,11,,,,,,1.9,0.9,1.6*38,0
1778778392778299303,$GPRMC,170632.000,A,1205.9929,S,07701.4554,W,4.11,297.74,140526,,,A*63,0
1778778393491057638,$GPGGA,170633.000,1205.9921,S,07701.4567,W,1,07,0.9,145.7,M,8.4,M,,0000*62,0
1778778393612503413,$GPGSA,M,3,05,21,17,14,24,30,11,,,,,,1.9,0.9,1.6*38,0
1778778393777523584,$GPRMC,170633.000,A,1205.9921,S,07701.4567,W,6.65,300.86,140526,,,A*69,0
1778778394491720460,$GPGGA,170634.000,1205.9911,S,07701.4584,W,1,07,0.9,145.7,M,8.4,M,,0000*6B,0
1778778394613184792,$GPGSA,M,3,05,21,17,14,24,30,11,,,,,,1.9,0.9,1.6*38,0
1778778394773613833,$GPGSV,3,1,12,05,55,290,41,21,51,345,46,17,30,090,46,14,26,147,37*7D,0
1778778394934025447,$GPGSV,3,2,12,24,17,241,30,30,13,124,31,11,10,354,23,13,49,163,38*79,0
1778778395080694211,$GPGSV,3,3,12,44,42,284,43,28,55,153,,26,47,131,,23,31,068,*71,0
1778778395245717568,$GPRMC,170634.000,A,1205.9911,S,07701.4584,W,6.98,301.05,140526,,,A*68,0
1778778395495715980,$GPGGA,170635.000,1205.9900,S,07701.4601,W,1,07,0.9,145.9,M,8.4,M,,0000*6A,0
1778778395617188850,$GPGSA,M,3,05,21,17,14,24,30,11,,,,,,1.9,0.9,1.6*38,0
1778778395782212744,$GPRMC,170635.000,A,1205.9900,S,07701.4601,W,6.50,304.88,140526,,,A*63,0
1778778396492033399,$GPGGA,170636.000,1205.9889,S,07701.4615,W,1,07,0.9,145.9,M,8.4,M,,0000*6C,0
1778778396613481340,$GPGSA,M,3,05,21,17,14,24,30,11,,,,,,1.9,0.9,1.6*38,0
1778778396778488733,$GPRMC,170636.000,A,1205.9889,S,07701.4615,W,6.20,309.21,140526,,,A*6C,0
1778778397494781711,$GPGGA,170637.000,1205.9877,S,07701.4628,W,1,07,0.9,145.8,M,8.4,M,,0000*63,0
1778778397616244690,$GPGSA,M,3,05,21,17,14,24,30,11,,,,,,1.9,0.9,1.6*38,0
1778778397781255731,$GPRMC,170637.000,A,1205.9877,S,07701.4628,W,6.59,319.95,140526,,,A*62,0
1778778398492539374,$GPGGA,170638.000,1205.9861,S,07701.4637,W,1,07,0.9,145.8,M,8.4,M,,0000*65,0
1778778398613992205,$GPGSA,M,3,05,21,17,14,24,30,11,,,,,,1.9,0.9,1.6*38,0
1778778398779010913,$GPRMC,170638.000,A,1205.9861,S,07701.4637,W,6.33,334.98,140526,,,A*6A,0
1778778399491753191,$GPGGA,170639.000,1205.9842,S,07701.4640,W,1,07,0.9,145.8,M,8.4,M,,0000*65,0
1778778399613201114,$GPGSA,M,3,05,21,17,14,24,30,11,,,,,,1.9,0.9,1.6*38,0
1778778399773632044,$GPGSV,3,1,12,05,55,290,42,21,51,345,43,17,30,090,32,14,26,147,30*7F,0
1778778399934051011,$GPGSV,3,2,12,24,17,241,28,30,13,124,22,11,10,354,23,06,00,030,18*7E,0
1778778400085308034,$GPGSV,3,3,12,13,49,163,38,44,42,284,41,28,55,153,,26,47,131,*7E,0
1778778400250321075,$GPRMC,170639.000,A,1205.9842,S,07701.4640,W,7.41,352.85,140526,,,A*62,0
1778778400495139117,$GPGGA,170640.000,1205.9818,S,07701.4636,W,1,07,0.9,145.7,M,8.4,M,,0000*6A,0
1778778400616583762,$GPGSA,M,3,05,21,17,14,24,30,11,,,,,,1.9,0.9,1.6*38,0
1778778400779308961,$GPRMC,170640.000,A,1205.9818,S,07701.4636,W,9.19,10.07,140526,,,A*5E,0
1778778401494138303,$GPGGA,170641.000,1205.9789,S,07701.4625,W,1,07,0.9,145.7,M,8.4,M,,0000*6E,0
1778778401615602691,$GPGSA,M,3,05,21,17,14,24,30,11,,,,,,1.9,0.9,1.6*38,0
1778778401780608972,$GPRMC,170641.000,A,1205.9789,S,07701.4625,W,11.30,21.56,140526,,,A*6E,0
1778778402496272280,$GPGGA,170642.000,1205.9755,S,07701.4611,W,1,07,0.9,145.8,M,8.4,M,,0000*64,0
1778778402617730315,$GPGSA,M,3,05,21,17,14,24,30,11,,,,,,1.9,0.9,1.6*38,0
1778778402782760191,$GPRMC,170642.000,A,1205.9755,S,07701.4611,W,13.33,24.06,140526,,,A*6A,0
1778778403495061873,$GPGGA,170643.000,1205.9717,S,07701.4592,W,1,07,0.9,145.9,M,8.4,M,,0000*6A,0
1778778403616522630,$GPGSA,M,3,05,21,17,14,24,30,11,,,,,,1.9,0.9,1.6*38,0
1778778403781533301,$GPRMC,170643.000,A,1205.9717,S,07701.4592,W,15.38,24.05,140526,,,A*6B,0
1778778404492401534,$GPGGA,170644.000,1205.9674,S,07701.4571,W,1,07,0.9,146.3,M,8.4,M,,0000*6D,0
1778778404613858865,$GPGSA,M,3,05,21,17,14,24,30,11,,,,,,1.9,0.9,1.6*38,0
1778778404776267498,$GPGSV,3,1,12,05,55,290,43,21,51,345,43,17,30,090,41,14,26,147,40*7D,0
1778778404934709651,$GPGSV,3,2,12,24,17,241,28,30,13,124,25,11,10,354,27,13,49,163,34*7D,0
1778778405081390231,$GPGSV,3,3,12,44,42,284,41,28,55,153,,26,47,131,,23,31,068,*73,0
1778778405246399865,$GPRMC,170644.000,A,1205.9674,S,07701.4571,W,17.25,23.70,140526,,,A*6E,0
1778778405496832613,$GPGGA,170645.000,1205.9626,S,07701.4550,W,1,07,0.9,146.5,M,8.4,M,,0000*6E,0
1778778405618293352,$GPGSA,M,3,05,21,17,14,24,30,11,,,,,,1.9,0.9,1.6*38,0
1778778405783296318,$GPRMC,170645.000,A,1205.9626,S,07701.4550,W,18.83,23.74,140526,,,A*6C,0
1778778406495627243,$GPGGA,170646.000,1205.9577,S,07701.4527,W,1,07,0.9,147.3,M,8.4,M,,0000*6D,0
1778778406617103372,$GPGSA,M,3,05,21,17,14,24,30,11,,,,,,1.9,0.9,1.6*38,0
1778778406782094967,$GPRMC,170646.000,A,1205.9577,S,07701.4527,W,20.21,23.82,140526,,,A*62,0
1778778407495255025,$GPGGA,170647.000,1205.9524,S,07701.4502,W,1,07,0.9,147.7,M,8.4,M,,0000*69,0
1778778407616714708,$GPGSA,M,3,05,21,17,14,24,30,11,,,,,,1.9,0.9,1.6*38,0
1778778407784268207,$GPRMC,170647.000,A,1205.9524,S,07701.4502,W,21.03,24.81,140526,,,A*67,0
1778778408495931885,$GPGGA,170648.000,1205.9469,S,07701.4475,W,1,07,0.9,148.0,M,8.4,M,,0000*67,0
1778778408617391698,$GPGSA,M,3,05,21,17,14,24,30,11,,,,,,1.9,0.9,1.7*39,0
1778778408782392423,$GPRMC,170648.000,A,1205.9469,S,07701.4475,W,22.02,24.43,140526,,,A*6D,0
1778778409494965426,$GPGGA,170649.000,1205.9411,S,07701.4447,W,1,07,0.9,148.3,M,8.4,M,,0000*6B,0
1778778409616399755,$GPGSA,M,3,05,21,17,14,24,30,11,,,,,,1.9,0.9,1.7*39,0
1778778409776823962,$GPGSV,3,1,12,05,55,290,44,21,51,345,40,17,30,090,44,14,26,147,31*7A,0
1778778409937250504,$GPGSV,3,2,12,24,17,241,31,30,13,124,23,11,10,354,21,06,00,030,21*7F,0
1778778410088505545,$GPGSV,3,3,12,13,49,163,29,44,42,284,38,28,55,153,,26,47,131,*70,0
1778778410253507289,$GPRMC,170649.000,A,1205.9411,S,07701.4447,W,23.24,25.14,140526,,,A*64,0
1778778410491033321,$GPGGA,170650.000,1205.9346,S,07701.4417,W,1,07,0.9,148.5,M,8.4,M,,0000*65,0
1778778410612495227,$GPGSA,M,3,05,21,17,14,24,30,11,,,,,,1.9,0.9,1.7*39,0
1778778410777492489,$GPRMC,170650.000,A,1205.9346,S,07701.4417,W,25.73,24.51,140526,,,A*68,0
1778778411498422008,$GPGGA,170651.000,1205.9275,S,07701.4386,W,1,07,0.9,148.7,M,8.4,M,,0000*68,0
1778778411619824779,$GPGSA,M,3,05,21,17,14,24,30,11,,,,,,1.9,0.9,1.7*39,0
1778778411784842302,$GPRMC,170651.000,A,1205.9275,S,07701.4386,W,27.01,24.06,140526,,,A*62,0
1778778412492791098,$GPGGA,170652.000,1205.9208,S,07701.4358,W,1,07,0.9,149.1,M,8.4,M,,0000*65,0
1778778412614242391,$GPGSA,M,3,05,21,17,14,24,30,11,,,,,,1.9,0.9,1.7*39,0
1778778412779266822,$GPRMC,170652.000,A,1205.9208,S,07701.4358,W,25.32,22.87,140526,,,A*65,0
1778778413491581357,$GPGGA,170653.000,1205.9145,S,07701.4328,W,1,07,0.9,149.6,M,8.4,M,,0000*6E,0
1778778413613051893,$GPGSA,M,3,05,21,17,14,24,30,11,,,,,,1.9,0.9,1.7*39,0
1778778413778059304,$GPRMC,170653.000,A,1205.9145,S,07701.4328,W,24.23,24.96,140526,,,A*6E,0
1778778414491840752,$GPGGA,170654.000,1205.9084,S,07701.4299,W,1,07,0.9,150.0,M,8.4,M,,0000*60,0
1778778414613303436,$GPGSA,M,3,05,21,17,14,24,30,11,,,,,,1.9,0.9,1.7*39,0
1778778414773719476,$GPGSV,3,1,12,05,55,290,43,21,51,345,41,17,30,090,39,14,26,147,35*72,0
1778778414934142628,$GPGSV,3,2,12,24,17,241,37,30,13,124,21,11,10,354,20,06,00,030,18*70,0
1778778415085405226,$GPGSV,3,3,12,13,49,163,13,44,42,284,34,28,55,153,,26,47,131,*75,0
1778778415250420304,$GPRMC,170654.000,A,1205.9084,S,07701.4299,W,23.19,25.20,140526,,,A*6C,0
1778778415492096685,$GPGGA,170655.000,1205.9027,S,07701.4271,W,1,07,0.9,150.9,M,8.4,M,,0000*67,0
1778778415613560016,$GPGSA,M,3,05,21,17,14,24,30,11,,,,,,1.9,0.9,1.7*39,0
1778778415778582280,$GPRMC,170655.000,A,1205.9027,S,07701.4271,W,22.01,25.46,140526,,,A*6A,0
1778778416498198141,$GPGGA,170656.000,1205.8972,S,07701.4244,W,1,07,0.9,151.0,M,8.4,M,,0000*62,0
1778778416619662361,$GPGSA,M,3,05,21,17,14,24,30,11,,,,,,1.9,0.9,1.7*39,0
1778778416784700868,$GPRMC,170656.000,A,1205.8972,S,07701.4244,W,20.69,25.62,140526,,,A*6D,0
1778778417495942210,$GPGGA,170657.000,1205.8919,S,07701.4220,W,1,07,0.9,151.0,M,8.4,M,,0000*6C,0
1778778417617411894,$GPGSA,M,3,05,21,17,14,24,30,11,,,,,,1.9,0.9,1.7*39,0
1778778417782424046,$GPRMC,170657.000,A,1205.8919,S,07701.4220,W,20.44,25.63,140526,,,A*6D,0
1778778418492866833,$GPGGA,170658.000,1205.8870,S,07701.4196,W,1,07,0.9,151.1,M,8.4,M,,0000*62,0
1778778418614326202,$GPGSA,M,3,05,21,17,14,24,30,11,,,,,,1.9,0.9,1.7*39,0
1778778418779342447,$GPRMC,170658.000,A,1205.8870,S,07701.4196,W,18.31,25.49,140526,,,A*63,0
1778778419493366973,$GPGGA,170659.000,1205.8824,S,07701.4176,W,1,07,0.9,150.8,M,8.4,M,,0000*64,0
1778778419614793227,$GPGSA,M,3,05,21,17,14,24,30,11,,,,,,1.9,0.9,1.7*39,0
1778778419775218806,$GPGSV,3,1,12,05,55,290,43,21,51,345,42,17,30,090,32,14,26,147,27*79,0
1778778419935626845,$GPGSV,3,2,12,24,17,241,25,30,13,124,20,11,10,354,29,06,00,030,20*70,0
1778778420086899926,$GPGSV,3,3,12,13,49,163,28,44,42,284,41,28,55,153,,26,47,131,*7F,0
1778778420251910800,$GPRMC,170659.000,A,1205.8824,S,07701.4176,W,16.95,22.34,140526,,,A*60,0
1778778420493371938,$GPGGA,170700.000,1205.8782,S,07701.4159,W,1,07,0.9,150.5,M,8.4,M,,0000*6A,0
1778778420614849826,$GPGSA,M,3,05,21,17,14,24,30,11,,,,,,1.9,0.9,1.7*39,0
1778778420779848403,$GPRMC,170700.000,A,1205.8782,S,07701.4159,W,15.01,22.42,140526,,,A*6C,0
1778778421500518306,$GPGGA,170701.000,1205.8744,S,07701.4146,W,1,07,0.9,150.5,M,8.4,M,,0000*6F,0
1778778421621968636,$GPGSA,M,3,05,21,17,14,24,30,11,,,,,,1.9,0.9,1.7*39,0
1778778421786984456,$GPRMC,170701.000,A,1205.8744,S,07701.4146,W,13.23,22.59,140526,,,A*65,0
1778778422495765773,$GPGGA,170702.000,1205.8712,S,07701.4137,W,1,07,0.9,150.3,M,8.4,M,,0000*6F,0
1778778422617242143,$GPGSA,M,3,05,21,17,14,24,30,11,,,,,,1.9,0.9,1.7*39,0
1778778422779942525,$GPRMC,170702.000,A,1205.8712,S,07701.4137,W,9.97,16.60,140526,,,A*5A,0
1778778423496649412,$GPGGA,170703.000,1205.8687,S,07701.4135,W,1,07,0.9,150.3,M,8.4,M,,0000*61,0
1778778423618114503,$GPGSA,M,3,05,21,17,14,24,30,11,,,,,,1.9,0.9,1.7*39,0
1778778423783121914,$GPRMC,170703.000,A,1205.8687,S,07701.4135,W,8.40,357.02,140526,,,A*6D,0
1778778424496282694,$GPGGA,170704.000,1205.8664,S,07701.4145,W,1,07,0.9,150.2,M,8.4,M,,0000*6D,0
1778778424617733265,$GPGSA,M,3,05,21,17,14,24,30,11,,,,,,1.9,0.9,1.7*39,0
1778778424778171104,$GPGSV,3,1,12,05,55,290,44,21,51,345,43,17,30,090,42,14,26,147,33*7D,0
1778778424938580643,$GPGSV,3,2,12,24,17,241,35,30,13,124,31,11,10,354,20,06,00,030,11*7A,0
1778778425089849890,$GPGSV,3,3,12,13,49,163,38,44,42,284,42,28,55,153,,26,47,131,*7D,0
1778778425254871006,$GPRMC,170704.000,A,1205.8664,S,07701.4145,W,9.41,334.89,140526,,,A*66,0
1778778425496106938,$GPGGA,170705.000,1205.8642,S,07701.4170,W,1,07,0.9,149.8,M,8.4,M,,0000*6C,0
1778778425617581382,$GPGSA,M,3,05,21,17,14,24,30,11,,,,,,1.9,0.9,1.7*39,0
1778778425784896377,$GPRMC,170705.000,A,1205.8642,S,07701.4170,W,11.20,309.97,140526,,,A*5A,0
1778778426497619431,$GPGGA,170706.000,1205.8633,S,07701.4205,W,1,07,0.9,150.2,M,8.4,M,,0000*6A,0
1778778426619091875,$GPGSA,M,3,05,21,17,14,24,30,11,,,,,,1.9,0.9,1.7*39,0
1778778426786390776,$GPRMC,170706.000,A,1205.8633,S,07701.4205,W,13.27,280.88,140526,,,A*55,0
1778778427498092995,$GPGGA,170707.000,1205.8630,S,07701.4248,W,1,07,0.9,150.6,M,8.4,M,,0000*65,0
1778778427619544862,$GPGSA,M,3,05,21,17,14,24,30,11,,,,,,1.9,0.9,1.7*39,0
1778778427786857302,$GPRMC,170707.000,A,1205.8630,S,07701.4248,W,15.74,276.92,140526,,,A*5C,0
1778778428494174947,$GPGGA,170708.000,1205.8628,S,07701.4297,W,1,07,0.9,151.2,M,8.4,M,,0000*64,0
1778778428615637075,$GPGSA,M,3,05,21,17,14,24,30,11,,,,,,1.9,0.9,1.7*39,0
1778778428782930550,$GPRMC,170708.000,A,1205.8628,S,07701.4297,W,18.23,274.51,140526,,,A*5A,0
1778778429498594599,$GPGGA,170709.000,1205.8626,S,07701.4350,W,1,07,0.9,151.5,M,8.4,M,,0000*66,0
1778778429620057708,$GPGSA,M,3,05,21,17,14,24,30,11,,,,,,1.9,0.9,1.7*39,0
1778778429780479990,$GPGSV,3,1,12,05,55,290,46,21,51,345,44,17,30,090,45,14,26,147,40*7B,0
1778778429940899234,$GPGSV,3,2,12,24,17,241,28,30,13,124,29,11,10,354,19,13,49,163,35*7D,0
1778778430087586315,$GPGSV,3,3,12,44,42,284,46,28,55,153,,26,47,131,,23,31,068,*74,0
1778778430254894439,$GPRMC,170709.000,A,1205.8626,S,07701.4350,W,18.42,276.15,140526,,,A*5A,0
1778778430498849642,$GPGGA,170710.000,1205.8620,S,07701.4402,W,1,07,0.9,150.5,M,8.4,M,,0000*69,0
1778778430620303029,$GPGSA,M,3,05,21,17,14,24,30,11,,,,,,1.9,0.9,1.7*39,0
1778778430787610875,$GPRMC,170710.000,A,1205.8620,S,07701.4402,W,16.95,278.01,140526,,,A*5B,0
1778778431497446532,$GPGGA,170711.000,1205.8614,S,07701.4447,W,1,07,0.9,150.4,M,8.4,M,,0000*6F,0
1778778431618910882,$GPGSA,M,3,05,21,17,14,24,30,11,,,,,,1.9,0.9,1.7*39,0
1778778431786230896,$GPRMC,170711.000,A,1205.8614,S,07701.4447,W,14.68,280.17,140526,,,A*5C,0
1778778432495006066,$GPGGA,170712.000,1205.8608,S,07701.4483,W,1,06,1.6,150.1,M,8.4,M,,0000*63,0
1778778432611870822,$GPGSA,M,3,05,21,17,14,30,11,,,,,,,2.6,1.6,2.1*38,0
1778778432779171816,$GPRMC,170712.000,A,1205.8608,S,07701.4483,W,12.03,279.78,140526,,,A*5E,0
1778778433494198695,$GPGGA,170713.000,1205.8607,S,07701.4513,W,1,06,1.6,150.5,M,8.4,M,,0000*61,0
1778778433611079564,$GPGSA,M,3,05,21,17,14,30,11,,,,,,,2.6,1.6,2.1*38,0
1778778433776084475,$GPRMC,170713.000,A,1205.8607,S,07701.4513,W,9.82,274.68,140526,,,A*67,0
1778778434490708058,$GPGGA,170714.000,1205.8613,S,07701.4538,W,1,06,1.6,151.2,M,8.4,M,,0000*6C,0
1778778434607587686,$GPGSA,M,3,05,21,17,14,30,11,,,,,,,2.6,1.6,2.1*38,0
1778778434768077363,$GPGSV,3,1,12,05,55,290,46,21,51,345,42,17,30,090,46,14,26,147,43*7D,0
1778778434928432675,$GPGSV,3,2,12,30,13,124,34,11,10,354,17,13,49,163,24,44,42,284,34*7D,0
1778778435070526348,$GPGSV,3,3,12,28,55,153,,26,47,131,,23,31,068,,16,24,147,*7D,0
1778778435235527054,$GPRMC,170714.000,A,1205.8613,S,07701.4538,W,8.65,258.45,140526,,,A*65,0
1778778435491382325,$GPGGA,170715.000,1205.8624,S,07701.4559,W,1,06,1.6,151.7,M,8.4,M,,0000*6B,0
1778778435608275306,$GPGSA,M,3,05,21,17,14,30,11,,,,,,,2.6,1.6,2.1*38,0
1778778435773320147,$GPRMC,170715.000,A,1205.8624,S,07701.4559,W,9.08,238.05,140526,,,A*6F,0
1778778436495602440,$GPGGA,170716.000,1205.8644,S,07701.4576,W,1,06,1.6,152.3,M,8.4,M,,0000*64,0
1778778436612518423,$GPGSA,M,3,05,21,17,14,30,11,,,,,,,2.6,1.6,2.1*38,0
1778778436777567079,$GPRMC,170716.000,A,1205.8644,S,07701.4576,W,9.98,226.89,140526,,,A*65,0
1778778437491062353,$GPGGA,170717.000,1205.8675,S,07701.4591,W,1,06,1.6,153.0,M,8.4,M,,0000*6C,0
1778778437607948482,$GPGSA,M,3,05,21,17,14,30,11,,,,,,,2.6,1.6,2.1*38,0
1778778437775239512,$GPRMC,170717.000,A,1205.8675,S,07701.4591,W,12.21,211.03,140526,,,A*51,0
1778778438494055891,$GPGGA,170718.000,1205.8707,S,07701.4601,W,1,07,0.9,153.2,M,8.4,M,,0000*60,0
1778778438615481719,$GPGSA,M,3,05,21,17,14,24,30,11,,,,,,1.9,0.9,1.7*39,0
1778778438782939135,$GPRMC,170718.000,A,1205.8707,S,07701.4601,W,11.89,201.53,140526,,,A*55,0
1778778439494491729,$GPGGA,170719.000,1205.8738,S,07701.4609,W,1,07,0.9,153.3,M,8.4,M,,0000*64,0
1778778439615949893,$GPGSA,M,3,05,21,17,14,24,30,11,,,,,,1.9,0.9,1.7*39,0
1778778439776376175,$GPGSV,3,1,12,05,55,290,25,21,51,345,43,17,30,090,40,14,26,147,29*73,0
1778778439936811440,$GPGSV,3,2,12,24,17,241,25,30,13,124,27,11,10,354,18,13,49,163,24*7F,0
1778778440078887351,$GPGSV,3,3,12,44,42,284,,28,55,153,,26,47,131,,23,31,068,*76,0
1778778440246187975,$GPRMC,170719.000,A,1205.8738,S,07701.4609,W,14.08,198.70,140526,,,A*5E,0
1778778440493719881,$GPGGA,170720.000,1205.8772,S,07701.4621,W,1,07,0.9,153.4,M,8.4,M,,0000*6D,0
1778778440615173082,$GPGSA,M,3,05,21,17,14,24,30,11,,,,,,1.9,0.9,1.7*39,0
1778778440782541397,$GPRMC,170720.000,A,1205.8772,S,07701.4621,W,15.67,196.13,140526,,,A*53,0
1778778441492942291,$GPGGA,170721.000,1205.8831,S,07701.4664,W,1,07,0.9,153.4,M,8.4,M,,0000*65,0
1778778441614377657,$GPGSA,M,3,05,21,17,14,24,30,11,,,,,,1.9,0.9,1.7*39,0
1778778441781687208,$GPRMC,170721.000,A,1205.8831,S,07701.4664,W,22.16,202.37,140526,,,A*51,0
1778778442493813336,$GPGGA,170722.000,1205.8899,S,07701.4709,W,1,07,0.9,153.7,M,8.4,M,,0000*6D,0
1778778442615252110,$GPGSA,M,3,05,21,17,14,24,30,11,,,,,,1.9,0.9,1.7*39,0
1778778442782570920,$GPRMC,170722.000,A,1205.8899,S,07701.4709,W,23.07,205.16,140526,,,A*5F,0
1778778443493233802,$GPGGA,170723.000,1205.8988,S,07701.4758,W,1,07,0.9,152.8,M,8.4,M,,0000*67,0
1778778443614685040,$GPGSA,M,3,05,21,17,14,24,30,11,,,,,,1.9,0.9,1.7*39,0
1778778443781999387,$GPRMC,170723.000,A,1205.8988,S,07701.4758,W,24.18,205.55,140526,,,A*55,0
1778778444494104717,$GPGGA,170724.000,1205.9064,S,07701.4797,W,1,07,0.9,152.5,M,8.4,M,,0000*64,0
1778778444615583161,$GPGSA,M,3,05,21,17,14,24,30,11,,,,,,1.9,0.9,1.7*39,0
1778778444776006221,$GPGSV,3,1,12,05,55,290,38,21,51,345,27,17,30,090,35,14,26,147,39*7E,0
1778778444931834279,$GPGSV,3,2,12,24,17,241,38,30,13,124,30,11,10,354,16,44,42,284,*7E,0
1778778445073925211,$GPGSV,3,3,12,28,55,153,,13,49,163,,26,47,131,,23,31,068,*75,0
1778778445241241133,$GPRMC,170724.000,A,1205.9064,S,07701.4797,W,23.94,205.12,140526,,,A*5B,0
1778778445494156538,$GPGGA,170725.000,1205.9138,S,07701.4834,W,1,07,0.9,152.4,M,8.4,M,,0000*6A,0
1778778445615610035,$GPGSA,M,3,05,21,17,14,24,30,11,,,,,,1.9,0.9,1.7*39,0
1778778445782915993,$GPRMC,170725.000,A,1205.9138,S,07701.4834,W,22.77,204.88,140526,,,A*5A,0
1778778446500934724,$GPGGA,170726.000,1205.9201,S,07701.4862,W,1,07,0.9,151.9,M,8.4,M,,0000*6D,0
1778778446622323030,$GPGSA,M,3,05,21,17,14,24,30,11,,,,,,1.9,0.9,1.7*39,0
1778778446789645193,$GPRMC,170726.000,A,1205.9201,S,07701.4862,W,21.93,203.97,140526,,,A*53,0
1778778447496538465,$GPGGA,170727.000,1205.9259,S,07701.4886,W,1,07,0.9,151.6,M,8.4,M,,0000*64,0
1778778447617995370,$GPGSA,M,3,05,21,17,14,24,30,11,,,,,,1.9,0.9,1.7*39,0
1778778447785295345,$GPRMC,170727.000,A,1205.9259,S,07701.4886,W,21.50,204.37,140526,,,A*57,0
1778778448495411898,$GPGGA,170728.000,1205.9315,S,07701.4910,W,1,07,0.9,151.3,M,8.4,M,,0000*69,0
1778778448616792111,$GPGSA,M,3,05,21,17,14,24,30,11,,,,,,1.9,0.9,1.7*39,0
1778778448784101958,$GPRMC,170728.000,A,1205.9315,S,07701.4910,W,20.63,203.87,140526,,,A*52,0
1778778449496009566,$GPGGA,170729.000,1205.9375,S,07701.4932,W,1,07,0.9,152.0,M,8.4,M,,0000*6E,0
1778778449617482158,$GPGSA,M,3,05,21,17,14,24,30,11,,,,,,1.9,0.9,1.7*39,0
1778778449777891216,$GPGSV,3,1,12,05,55,290,36,21,51,345,38,17,30,090,29,14,26,147,37*7D,0
1778778449938321220,$GPGSV,3,2,12,24,17,241,24,30,13,124,21,11,10,354,17,13,49,163,32*70,0
1778778450084992336,$GPGSV,3,3,12,44,42,284,34,28,55,153,,26,47,131,,23,31,068,*71,0
1778778450252302202,$GPRMC,170729.000,A,1205.9375,S,07701.4932,W,20.88,204.65,140526,,,A*5B,0
1778778450495636995,$GPGGA,170730.000,1205.9431,S,07701.4953,W,1,07,0.9,152.3,M,8.4,M,,0000*65,0
1778778450617100345,$GPGSA,M,3,05,21,17,14,24,30,11,,,,,,1.9,0.9,1.7*39,0
1778778450784402210,$GPRMC,170730.000,A,1205.9431,S,07701.4953,W,19.96,205.55,140526,,,A*54,0
1778778451496746951,$GPGGA,170731.000,1205.9478,S,07701.4976,W,1,07,0.9,152.3,M,8.4,M,,0000*6E,0
1778778451618198800,$GPGSA,M,3,05,21,17,14,24,30,11,,,,,,1.9,0.9,1.7*39,0
1778778451785495720,$GPRMC,170731.000,A,1205.9478,S,07701.4976,W,18.83,208.56,140526,,,A*54,0
1778778452495526561,$GPGGA,170732.000,1205.9521,S,07701.4999,W,1,06,1.0,152.3,M,8.4,M,,0000*68,0
1778778452612416783,$GPGSA,M,3,05,21,17,14,24,11,,,,,,,2.0,1.0,1.7*38,0
1778778452779706610,$GPRMC,170732.000,A,1205.9521,S,07701.4999,W,16.66,208.99,140526,,,A*5D,0
1778778453496405107,$GPGGA,170733.000,1205.9555,S,07701.5021,W,1,07,0.9,152.3,M,8.4,M,,0000*68,0
1778778453617885125,$GPGSA,M,3,05,21,17,14,24,30,11,,,,,,1.9,0.9,1.7*39,0
1778778453785163877,$GPRMC,170733.000,A,1205.9555,S,07701.5021,W,13.28,212.41,140526,,,A*55,0
1778778454493951936,$GPGGA,170734.000,1205.9580,S,07701.5039,W,1,05,1.6,152.1,M,8.4,M,,0000*60,0
1778778454606261584,$GPGSA,M,3,05,21,17,14,11,,,,,,,,2.8,1.6,2.3*37,0
1778778454766685810,$GPGSV,3,1,12,05,55,290,30,21,51,345,35,17,30,090,21,14,26,147,15*7E,0
1778778454927092368,$GPGSV,3,2,12,11,10,354,19,13,49,163,20,24,17,241,07,30,13,124,05*7A,0
1778778455073783338,$GPGSV,3,3,12,44,42,284,31,28,55,153,,26,47,131,,23,31,068,*74,0
1778778455241074295,$GPRMC,170734.000,A,1205.9580,S,07701.5039,W,10.36,213.01,140526,,,A*5A,0
1778778455493804571,$GPGGA,170735.000,1205.9598,S,07701.5049,W,1,05,1.6,151.9,M,8.4,M,,0000*64,0
1778778455606139722,$GPGSA,M,3,05,21,17,14,11,,,,,,,,2.8,1.6,2.3*37,0
1778778455771115723,$GPRMC,170735.000,A,1205.9598,S,07701.5049,W,6.77,211.92,140526,,,A*6F,0
1778778456493422463,$GPGGA,170736.000,1205.9612,S,07701.5051,W,1,05,1.6,151.7,M,8.4,M,,0000*61,0
1778778456605716740,$GPGSA,M,3,05,21,17,14,11,,,,,,,,2.8,1.6,2.3*37,0
1778778456770721132,$GPRMC,170736.000,A,1205.9612,S,07701.5051,W,3.77,210.51,140526,,,A*6F,0
1778778457493076858,$GPGGA,170737.000,1205.9624,S,07701.5053,W,1,05,1.6,151.4,M,8.4,M,,0000*64,0
1778778457605363708,$GPGSA,M,3,05,21,17,14,11,,,,,,,,2.8,1.6,2.3*37,0
1778778457770363266,$GPRMC,170737.000,A,1205.9624,S,07701.5053,W,4.12,205.58,140526,,,A*60,0
1778778458493525382,$GPGGA,170738.000,1205.9637,S,07701.5054,W,1,06,1.6,150.9,M,8.4,M,,0000*61,0
1778778458610394917,$GPGSA,M,3,05,21,17,14,30,11,,,,,,,2.6,1.6,2.1*38,0
1778778458775409884,$GPRMC,170738.000,A,1205.9637,S,07701.5054,W,6.35,200.24,140526,,,A*63,0
1778778459493575425,$GPGGA,170739.000,1205.9659,S,07701.5055,W,1,06,1.6,148.1,M,8.4,M,,0000*68,0
1778778459610445663,$GPGSA,M,3,05,21,17,14,30,11,,,,,,,2.6,1.6,2.1*38,0
1778778459770880613,$GPGSV,3,1,12,05,55,290,42,21,51,345,45,17,30,090,26,14,26,147,40*7B,0
1778778459931317229,$GPGSV,3,2,12,30,13,124,33,11,10,354,36,13,49,163,24,44,42,284,37*7A,0
1778778460073385455,$GPGSV,3,3,12,28,55,153,,26,47,131,,23,31,068,,16,24,147,*7D,0
1778778460238399941,$GPRMC,170739.000,A,1205.9659,S,07701.5055,W,8.01,199.27,140526,,,A*62,0
1778778460493828542,$GPGGA,170740.000,1205.9678,S,07701.5063,W,1,06,1.6,147.1,M,8.4,M,,0000*6F,0
1778778460610709837,$GPGSA,M,3,05,21,17,14,30,11,,,,,,,2.6,1.6,2.1*38,0
1778778460775706636,$GPRMC,170740.000,A,1205.9678,S,07701.5063,W,8.28,205.17,140526,,,A*64,0
1778778461493666639,$GPGGA,170741.000,1205.9698,S,07701.5071,W,1,06,1.6,146.7,M,8.4,M,,0000*64,0
1778778461610595087,$GPGSA,M,3,05,21,17,14,30,11,,,,,,,2.6,1.6,2.1*38,0
1778778461775552882,$GPRMC,170741.000,A,1205.9698,S,07701.5071,W,9.16,202.41,140526,,,A*60,0
1778778462499967873,$GPGGA,170742.000,1205.9718,S,07701.5079,W,1,06,1.6,146.5,M,8.4,M,,0000*64,0
1778778462616846168,$GPGSA,M,3,05,21,17,14,30,11,,,,,,,2.6,1.6,2.1*38,0
1778778462781875840,$GPRMC,170742.000,A,1205.9718,S,07701.5079,W,7.23,204.49,140526,,,A*64,0
1778778463495061326,$GPGGA,170743.000,1205.9728,S,07701.5084,W,1,06,1.6,146.2,M,8.4,M,,0000*63,0
1778778463611892635,$GPGSA,M,3,05,21,17,14,30,11,,,,,,,2.6,1.6,2.1*38,0
1778778463776901269,$GPRMC,170743.000,A,1205.9728,S,07701.5084,W,4.37,202.93,140526,,,A*63,0
1778778464495302924,$GPGGA,170744.000,1205.9733,S,07701.5087,W,1,06,1.6,145.7,M,8.4,M,,0000*6B,0
1778778464612141215,$GPGSA,M,3,05,21,17,14,30,11,,,,,,,2.6,1.6,2.1*38,0
1778778464772565145,$GPGSV,3,1,12,05,55,290,43,21,51,345,44,17,30,090,37,14,26,147,34*78,0
1778778464932999872,$GPGSV,3,2,12,30,13,124,30,11,10,354,33,13,49,163,24,24,17,241,18*7E,0
1778778465079680545,$GPGSV,3,3,12,44,42,284,43,28,55,153,,26,47,131,,23,31,068,*71,0
1778778465244676566,$GPRMC,170744.000,A,1205.9733,S,07701.5087,W,2.52,200.58,140526,,,A*6D,0
1778778465494545003,$GPGGA,170745.000,1205.9734,S,07701.5088,W,1,06,1.6,145.4,M,8.4,M,,0000*61,0
1778778465611357014,$GPGSA,M,3,05,21,17,14,30,11,,,,,,,2.6,1.6,2.1*38,0
1778778465776366462,$GPRMC,170745.000,A,1205.9734,S,07701.5088,W,1.79,193.50,140526,,,A*6F,0
1778778466498080128,$GPGGA,170746.000,1205.9736,S,07701.5087,W,1,06,1.6,145.1,M,8.4,M,,0000*6A,0
1778778466614954497,$GPGSA,M,3,05,21,17,14,30,11,,,,,,,2.6,1.6,2.1*38,0
1778778466779973668,$GPRMC,170746.000,A,1205.9736,S,07701.5087,W,2.16,184.79,140526,,,A*66,0
1778778467498322800,$GPGGA,170747.000,1205.9742,S,07701.5084,W,1,06,1.6,145.0,M,8.4,M,,0000*6A,0
1778778467615204725,$GPGSA,M,3,05,21,17,14,30,11,,,,,,,2.6,1.6,2.1*38,0
1778778467780216562,$GPRMC,170747.000,A,1205.9742,S,07701.5084,W,4.75,165.93,140526,,,A*6F,0
1778778468496920671,$GPGGA,170748.000,1205.9750,S,07701.5074,W,1,06,1.6,145.5,M,8.4,M,,0000*6C,0
1778778468613783112,$GPGSA,M,3,05,21,17,14,30,11,,,,,,,2.6,1.6,2.1*38,0
1778778468778803339,$GPRMC,170748.000,A,1205.9750,S,07701.5074,W,7.76,140.90,140526,,,A*68,0
1778778469495292132,$GPGGA,170749.000,1205.9759,S,07701.5052,W,1,06,1.6,145.0,M,8.4,M,,0000*65,0
1778778469612185928,$GPGSA,M,3,05,21,17,14,30,11,,,,,,,2.6,1.6,2.1*38,0
1778778469772597598,$GPGSV,3,1,12,05,55,290,44,21,51,345,36,17,30,090,37,14,26,147,43*7A,0
1778778469933014823,$GPGSV,3,2,12,30,13,124,40,11,10,354,34,13,49,163,28,44,42,284,44*74,0
1778778470075108144,$GPGSV,3,3,12,28,55,153,,26,47,131,,23,31,068,,16,24,147,*7D,0
1778778470240122833,$GPRMC,170749.000,A,1205.9759,S,07701.5052,W,9.43,120.96,140526,,,A*6C,0
1778778470504100988,$GPGGA,170750.000,1205.9768,S,07701.5023,W,1,06,1.6,144.9,M,8.4,M,,0000*61,0
1778778470620965004,$GPGSA,M,3,05,21,17,14,30,11,,,,,,,2.6,1.6,2.1*38,0
1778778470788277554,$GPRMC,170750.000,A,1205.9768,S,07701.5023,W,11.16,112.00,140526,,,A*57,0
1778778471499562401,$GPGGA,170751.000,1205.9779,S,07701.4991,W,1,06,1.6,144.7,M,8.4,M,,0000*6F,0
1778778471616434566,$GPGSA,M,3,05,21,17,14,30,11,,,,,,,2.6,1.6,2.1*38,0
1778778471783739116,$GPRMC,170751.000,A,1205.9779,S,07701.4991,W,12.10,110.78,140526,,,A*5F,0
1778778472498986608,$GPGGA,170752.000,1205.9790,S,07701.4957,W,1,06,1.6,144.6,M,8.4,M,,0000*60,0
1778778472615847420,$GPGSA,M,3,05,21,17,14,30,11,,,,,,,2.6,1.6,2.1*38,0
1778778472783153655,$GPRMC,170752.000,A,1205.9790,S,07701.4957,W,12.40,110.83,140526,,,A*50,0
1778778473501944013,$GPGGA,170753.000,1205.9803,S,07701.4921,W,1,06,1.6,144.3,M,8.4,M,,0000*60,0
1778778473618805880,$GPGSA,M,3,05,21,17,14,30,11,,,,,,,2.6,1.6,2.1*38,0
1778778473786128062,$GPRMC,170753.000,A,1205.9803,S,07701.4921,W,13.48,114.68,140526,,,A*5D,0
1778778474501165275,$GPGGA,170754.000,1205.9819,S,07701.4883,W,1,06,1.6,144.1,M,8.4,M,,0000*67,0
1778778474618023013,$GPGSA,M,3,05,21,17,14,30,11,,,,,,,2.6,1.6,2.1*38,0
1778778474778462648,$GPGSV,3,1,12,05,55,290,45,21,51,345,36,17,30,090,32,14,26,147,42*7F,0
1778778474938886485,$GPGSV,3,2,12,30,13,124,40,11,10,354,23,13,49,163,29,24,17,241,28*76,0
1778778475085556490,$GPGSV,3,3,12,44,42,284,47,28,55,153,,26,47,131,,23,31,068,*75,0
1778778475252908637,$GPRMC,170754.000,A,1205.9819,S,07701.4883,W,14.80,115.35,140526,,,A*52,0
1778778475495989722,$GPGGA,170755.000,1205.9836,S,07701.4845,W,1,06,1.6,143.7,M,8.4,M,,0000*60,0
1778778475612873202,$GPGSA,M,3,05,21,17,14,30,11,,,,,,,2.6,1.6,2.1*38,0
1778778475780178141,$GPRMC,170755.000,A,1205.9836,S,07701.4845,W,14.10,115.90,140526,,,A*52,0
1778778476501884066,$GPGGA,170756.000,1205.9853,S,07701.4809,W,1,07,0.9,143.4,M,8.4,M,,0000*64,0
1778778476623352398,$GPGSA,M,3,05,21,17,14,24,30,11,,,,,,1.9,0.9,1.7*39,0
1778778476790653763,$GPRMC,170756.000,A,1205.9853,S,07701.4809,W,13.21,115.47,140526,,,A*55,0
1778778477501297217,$GPGGA,170757.000,1205.9868,S,07701.4775,W,1,07,0.9,143.1,M,8.4,M,,0000*6C,0
1778778477622751455,$GPGSA,M,3,05,21,17,14,24,30,11,,,,,,1.9,0.9,1.7*39,0
1778778477790064932,$GPRMC,170757.000,A,1205.9868,S,07701.4775,W,12.49,115.99,140526,,,A*54,0
1778778478500093050,$GPGGA,170758.000,1205.9885,S,07701.4746,W,1,07,0.9,141.9,M,8.4,M,,0000*6A,0
1778778478621557882,$GPGSA,M,3,05,21,17,14,24,30,11,,,,,,1.9,0.9,1.7*39,0
1778778478788876082,$GPRMC,170758.000,A,1205.9885,S,07701.4746,W,12.44,116.55,140526,,,A*56,0
1778778479502011470,$GPGGA,170759.000,1205.9900,S,07701.4712,W,1,07,0.9,141.4,M,8.4,M,,0000*6B,0
1778778479623492563,$GPGSA,M,3,05,21,17,14,24,30,11,,,,,,1.9,0.9,1.7*39,0
1778778479783915474,$GPGSV,3,1,12,05,55,290,45,21,51,345,36,17,30,090,39,14,26,147,41*77,0
1778778479944326958,$GPGSV,3,2,12,24,17,241,35,30,13,124,40,11,10,354,17,06,00,030,20*7A,0
1778778480095587945,$GPGSV,3,3,12,13,49,163,30,44,42,284,46,28,55,153,,26,47,131,*71,0
1778778480262898199,$GPRMC,170759.000,A,1205.9900,S,07701.4712,W,12.99,117.00,140526,,,A*5B,0
1778778480504563430,$GPGGA,170800.000,1205.9918,S,07701.4681,W,1,07,0.9,140.7,M,8.4,M,,0000*68,0
1778778480626016817,$GPGSA,M,3,05,21,17,14,24,30,11,,,,,,1.9,0.9,1.7*39,0
1778778480793330553,$GPRMC,170800.000,A,1205.9918,S,07701.4681,W,12.36,119.91,140526,,,A*59,0
1778778481503173562,$GPGGA,170801.000,1205.9935,S,07701.4653,W,1,07,0.9,140.1,M,8.4,M,,0000*6F,0
1778778481624612780,$GPGSA,M,3,05,21,17,14,24,30,11,,,,,,1.9,0.9,1.7*39,0
1778778481791919534,$GPRMC,170801.000,A,1205.9935,S,07701.4653,W,11.39,122.21,140526,,,A*57,0
1778778482499038790,$GPGGA,170802.000,1205.9952,S,07701.4628,W,1,07,0.9,139.5,M,8.4,M,,0000*6B,0
1778778482620483657,$GPGSA,M,3,05,21,17,14,24,30,11,,,,,,1.9,0.9,1.7*39,0
1778778482785510848,$GPRMC,170802.000,A,1205.9952,S,07701.4628,W,9.68,123.08,140526,,,A*6E,0
1778778483505124578,$GPGGA,170803.000,1205.9966,S,07701.4608,W,1,07,0.9,138.8,M,8.4,M,,0000*63,0
1778778483626584169,$GPGSA,M,3,05,21,17,14,24,30,11,,,,,,1.9,0.9,1.7*39,0
1778778483791610174,$GPRMC,170803.000,A,1205.9966,S,07701.4608,W,7.90,122.17,140526,,,A*6C,0
1778778484503928024,$GPGGA,170804.000,1205.9976,S,07701.4592,W,1,07,0.9,138.5,M,8.4,M,,0000*68,0
1778778484625376743,$GPGSA,M,3,05,21,17,14,24,30,11,,,,,,1.9,0.9,1.7*39,0
1778778484785817267,$GPGSV,3,1,12,05,55,290,45,21,51,345,42,17,30,090,29,14,26,147,37*74,0
1778778484946268477,$GPGSV,3,2,12,24,17,241,26,30,13,124,37,11,10,354,17,13,49,163,42*72,0
1778778485092902053,$GPGSV,3,3,12,44,42,284,44,28,55,153,,26,47,131,,23,31,068,*76,0
1778778485257917835,$GPRMC,170804.000,A,1205.9976,S,07701.4592,W,5.52,120.05,140526,,,A*67,0
1778778485503565028,$GPGGA,170805.000,1205.9981,S,07701.4584,W,1,07,0.9,138.3,M,8.4,M,,0000*60,0
1778778485625027656,$GPGSA,M,3,05,21,17,14,24,30,11,,,,,,1.9,0.9,1.7*39,0
1778778485790038160,$GPRMC,170805.000,A,1205.9981,S,07701.4584,W,2.29,118.95,140526,,,A*60,0
1778778486509652169,$GPGGA,170806.000,1205.9982,S,07701.4583,W,1,07,0.9,138.2,M,8.4,M,,0000*66,0
1778778486631099888,$GPGSA,M,3,05,21,17,14,24,30,11,,,,,,1.9,0.9,1.7*39,0
1778778486796113892,$GPRMC,170806.000,A,1205.9982,S,07701.4583,W,0.22,118.95,140526,,,A*6E,0
1778778487504689098,$GPGGA,170807.000,1205.9982,S,07701.4583,W,1,07,0.9,138.2,M,8.4,M,,0000*67,1
1778778487626158911,$GPGSA,M,3,05,21,17,14,24,30,11,,,,,,1.9,0.9,1.7*39,1
1778778487791165582,$GPRMC,170807.000,A,1205.9982,S,07701.4583,W,0.02,118.95,140526,,,A*6D,1
1778778488505998498,$GPGGA,170808.000,1205.9982,S,07701.4583,W,1,07,0.9,138.2,M,8.4,M,,0000*68,1
1778778488627446328,$GPGSA,M,3,05,21,17,14,24,30,11,,,,,,1.9,0.9,1.7*39,1
1778778488792452258,$GPRMC,170808.000,A,1205.9982,S,07701.4583,W,0.00,118.95,140526,,,A*60,1
1778778489505001148,$GPGGA,170809.000,1205.9982,S,07701.4583,W,1,07,0.9,138.3,M,8.4,M,,0000*68,1
1778778489626452422,$GPGSA,M,3,05,21,17,14,24,30,11,,,,,,1.9,0.9,1.7*39,1
1778778489786882686,$GPGSV,3,1,12,05,55,290,46,21,51,345,43,17,30,090,32,14,26,147,43*7F,1
1778778489947292818,$GPGSV,3,2,12,24,17,241,23,30,13,124,33,11,10,354,29,13,49,163,43*7F,1
1778778490093968917,$GPGSV,3,3,12,44,42,284,46,28,55,153,,26,47,131,,23,31,068,*74,1
1778778490258995477,$GPRMC,170809.000,A,1205.9982,S,07701.4583,W,0.00,118.95,140526,,,A*61,1
1778778490504844115,$GPGGA,170810.000,1205.9982,S,07701.4583,W,1,07,0.9,138.3,M,8.4,M,,0000*60,1
1778778490626283723,$GPGSA,M,3,05,21,17,14,24,30,11,,,,,,1.9,0.9,1.7*39,1
1778778490791300727,$GPRMC,170810.000,A,1205.9982,S,07701.4583,W,0.00,118.95,140526,,,A*69,1
1778778491505101289,$GPGGA,170811.000,1205.9982,S,07701.4583,W,1,07,0.9,138.3,M,8.4,M,,0000*61,1
1778778491626551452,$GPGSA,M,3,05,21,17,14,24,30,11,,,,,,1.9,0.9,1.7*39,1
1778778491791572698,$GPRMC,170811.000,A,1205.9982,S,07701.4583,W,0.00,118.95,140526,,,A*68,1
1778778492506186779,$GPGGA,170812.000,1205.9982,S,07701.4583,W,1,07,0.9,138.3,M,8.4,M,,0000*62,1
1778778492627644166,$GPGSA,M,3,05,21,17,14,24,30,11,,,,,,1.9,0.9,1.7*39,1
1778778492792659985,$GPRMC,170812.000,A,1205.9982,S,07701.4583,W,0.00,118.95,140526,,,A*6B,1
1778778493504971964,$GPGGA,170813.000,1205.9984,S,07701.4582,W,1,07,0.9,139.1,M,8.4,M,,0000*67,1
1778778493626449389,$GPGSA,M,3,05,21,17,14,24,30,11,,,,,,1.9,0.9,1.7*39,1
1778778493791453911,$GPRMC,170813.000,A,1205.9984,S,07701.4582,W,0.82,118.95,140526,,,A*67,1
1778778494500645156,$GPGGA,170814.000,1205.9989,S,07701.4575,W,1,07,0.9,139.8,M,8.4,M,,0000*6C,1
1778778494622110710,$GPGSA,M,3,05,21,17,14,24,30,11,,,,,,1.9,0.9,1.7*39,1
1778778494782531380,$GPGSV,3,1,12,05,55,290,47,21,51,345,44,17,30,090,33,14,26,147,43*78,1
1778778494942953291,$GPGSV,3,2,12,24,17,241,23,30,13,124,33,11,10,354,30,13,49,163,43*77,1
1778778495089642613,$GPGSV,3,3,12,44,42,284,46,28,55,153,,26,47,131,,23,31,068,*74,1
1778778495254659895,$GPRMC,170814.000,A,1205.9989,S,07701.4575,W,3.98,118.07,140526,,,A*66,1
1778778495508623231,$GPGGA,170815.000,1205.9995,S,07701.4560,W,1,07,0.9,139.5,M,8.4,M,,0000*69,1
1778778495630082821,$GPGSA,M,3,05,21,17,14,24,30,11,,,,,,1.9,0.9,1.7*39,1
1778778495795084306,$GPRMC,170815.000,A,1205.9995,S,07701.4560,W,7.04,114.41,140526,,,A*61,1
1778778496504287811,$GPGGA,170816.000,1206.0004,S,07701.4537,W,1,07,0.9,139.5,M,8.4,M,,0000*63,1
1778778496625751087,$GPGSA,M,3,05,21,17,14,24,30,11,,,,,,1.9,0.9,1.7*39,1
1778778496790767851,$GPRMC,170816.000,A,1206.0004,S,07701.4537,W,9.80,108.45,140526,,,A*60,1
1778778497503705665,$GPGGA,170817.000,1206.0015,S,07701.4506,W,1,07,0.9,139.5,M,8.4,M,,0000*60,1
1778778497625172034,$GPGSA,M,3,05,21,17,14,24,30,11,,,,,,1.9,0.9,1.7*39,1
1778778497792469417,$GPRMC,170817.000,A,1206.0015,S,07701.4506,W,11.50,109.86,140526,,,A*59,1
1778778498501051272,$GPGGA,170818.000,1206.0028,S,07701.4474,W,1,07,0.9,139.4,M,8.4,M,,0000*64,1
1778778498622604612,$GPGSA,M,3,05,21,17,14,24,30,11,,,,,,1.9,0.9,1.7*39,1
1778778498789816431,$GPRMC,170818.000,A,1206.0028,S,07701.4474,W,11.59,114.21,140526,,,A*54,1
1778778499504211270,$GPGGA,170819.000,1206.0044,S,07701.4440,W,1,07,0.9,139.1,M,8.4,M,,0000*6D,1
1778778499625699178,$GPGSA,M,3,05,21,17,14,24,30,11,,,,,,1.9,0.9,1.7*39,1
1778778499786111866,$GPGSV,3,1,12,05,55,290,47,21,51,345,34,17,30,090,34,14,26,147,41*7A,1
1778778499946521573,$GPGSV,3,2,12,24,17,241,26,30,13,124,40,11,10,354,33,06,00,030,17*7A,1
1778778500097811247,$GPGSV,3,3,12,13,49,163,35,44,42,284,46,28,55,153,,26,47,131,*74,1
1778778500265106463,$GPRMC,170819.000,A,1206.0044,S,07701.4440,W,13.28,117.17,140526,,,A*5A,1
1778778500501551913,$GPGGA,170820.000,1206.0061,S,07701.4404,W,1,07,0.9,139.1,M,8.4,M,,0000*60,1
1778778500623070602,$GPGSA,M,3,05,21,17,14,24,30,11,,,,,,1.9,0.9,1.7*39,1
1778778500790325258,$GPRMC,170820.000,A,1206.0061,S,07701.4404,W,13.81,114.98,140526,,,A*50,1
1778778501504535080,$GPGGA,170821.000,1206.0076,S,07701.4362,W,1,07,0.9,139.6,M,8.4,M,,0000*67,1
1778778501625986151,$GPGSA,M,3,05,21,17,14,24,30,11,,,,,,1.9,0.9,1.7*39,1
1778778501793347985,$GPRMC,170821.000,A,1206.0076,S,07701.4362,W,13.94,114.32,140526,,,A*54,1
1778778502504987457,$GPGGA,170822.000,1206.0092,S,07701.4321,W,1,07,0.9,139.8,M,8.4,M,,0000*67,1
1778778502626442176,$GPGSA,M,3,05,21,17,14,24,30,11,,,,,,1.9,0.9,1.7*39,1
1778778502793752819,$GPRMC,170822.000,A,1206.0092,S,07701.4321,W,15.24,114.18,140526,,,A*5F,1
1778778503505250834,$GPGGA,170823.000,1206.0112,S,07701.4280,W,1,07,0.9,139.7,M,8.4,M,,0000*6A,1
1778778503626704961,$GPGSA,M,3,05,21,17,14,24,30,11,,,,,,1.9,0.9,1.7*39,1
1778778503794004937,$GPRMC,170823.000,A,1206.0112,S,07701.4280,W,16.27,114.38,140526,,,A*5F,1
1778778504505913563,$GPGGA,170824.000,1206.0132,S,07701.4236,W,1,07,0.9,139.9,M,8.4,M,,0000*6C,1
1778778504627396693,$GPGSA,M,3,05,21,17,14,24,30,11,,,,,,1.9,0.9,1.7*39,1
1778778504787824068,$GPGSV,3,1,12,05,55,290,47,21,51,345,41,17,30,090,41,14,26,147,42*79,1
1778778504948234570,$GPGSV,3,2,12,24,17,241,37,30,13,124,40,11,10,354,24,13,49,163,33*74,1
1778778505094907168,$GPGSV,3,3,12,44,42,284,47,28,55,153,,26,47,131,,23,31,068,*75,1
1778778505262201476,$GPRMC,170824.000,A,1206.0132,S,07701.4236,W,16.23,114.44,140526,,,A*58,1
1778778505504734529,$GPGGA,170825.000,1206.0150,S,07701.4195,W,1,07,0.9,140.0,M,8.4,M,,0000*64,1
1778778505626182063,$GPGSA,M,3,05,21,17,14,24,30,11,,,,,,1.9,0.9,1.7*39,1
1778778505793481742,$GPRMC,170825.000,A,1206.0150,S,07701.4195,W,14.45,114.26,140526,,,A*51,1
1778778506505172089,$GPGGA,170826.000,1206.0166,S,07701.4160,W,1,07,0.9,140.2,M,8.4,M,,0000*6A,1
1778778506626646199,$GPGSA,M,3,05,21,17,14,24,30,11,,,,,,1.9,0.9,1.7*39,1
1778778506793942841,$GPRMC,170826.000,A,1206.0166,S,07701.4160,W,11.29,115.15,140526,,,A*53,1
1778778507507102140,$GPGGA,170827.000,1206.0176,S,07701.4133,W,1,07,0.9,140.5,M,8.4,M,,0000*6B,1
1778778507628559452,$GPGSA,M,3,05,21,17,14,24,30,11,,,,,,1.9,0.9,1.7*39,1
1778778507793576271,$GPRMC,170827.000,A,1206.0176,S,07701.4133,W,9.14,107.51,140526,,,A*61,1
1778778508506535440,$GPGGA,170828.000,1206.0178,S,07701.4109,W,1,07,0.9,140.6,M,8.4,M,,0000*60,1
1778778508628020644,$GPGSA,M,3,05,21,17,14,24,30,11,,,,,,1.9,0.9,1.7*39,1
1778778508790697653,$GPRMC,170828.000,A,1206.0178,S,07701.4109,W,7.74,84.35,140526,,,A*59,1
1778778509505535293,$GPGGA,170829.000,1206.0170,S,07701.4090,W,1,07,0.9,141.0,M,8.4,M,,0000*6F,1
1778778509626994865,$GPGSA,M,3,05,21,17,14,24,30,11,,,,,,1.9,0.9,1.7*39,1
1778778509787423943,$GPGSV,3,1,12,05,55,290,46,21,51,345,42,17,30,090,43,14,26,147,43*78,1
1778778509947839020,$GPGSV,3,2,12,24,17,241,37,30,13,124,29,11,10,354,24,13,49,163,39*71,1
1778778510094507377,$GPGSV,3,3,12,44,42,284,45,28,55,153,,26,47,131,,23,31,068,*77,1
1778778510257267079,$GPRMC,170829.000,A,1206.0170,S,07701.4090,W,7.30,50.14,140526,,,A*5B,1
1778778510509744277,$GPGGA,170830.000,1206.0152,S,07701.4081,W,1,07,0.9,141.4,M,8.4,M,,0000*63,1
1778778510631203831,$GPGSA,M,3,05,21,17,14,24,30,11,,,,,,1.9,0.9,1.7*39,1
1778778510793914899,$GPRMC,170830.000,A,1206.0152,S,07701.4081,W,7.59,13.02,140526,,,A*5C,1
1778778511512931315,$GPGGA,170831.000,1206.0131,S,07701.4084,W,1,07,0.9,141.8,M,8.4,M,,0000*6E,1
1778778511634371737,$GPGSA,M,3,05,21,17,14,24,30,11,,,,,,1.9,0.9,1.7*39,1
1778778511799403076,$GPRMC,170831.000,A,1206.0131,S,07701.4084,W,7.94,336.24,140526,,,A*6C,1
1778778512506513572,$GPGGA,170832.000,1206.0114,S,07701.4101,W,1,07,0.9,141.9,M,8.4,M,,0000*67,1
1778778512627985052,$GPGSA,M,3,05,21,17,14,24,30,11,,,,,,1.9,0.9,1.7*39,1
1778778512793028078,$GPRMC,170832.000,A,1206.0114,S,07701.4101,W,8.94,304.99,140526,,,A*6C,1
1778778513506555355,$GPGGA,170833.000,1206.0102,S,07701.4127,W,1,07,0.9,142.3,M,8.4,M,,0000*6C,1
1778778513628001833,$GPGSA,M,3,05,21,17,14,24,30,11,,,,,,1.9,0.9,1.7*39,1
1778778513795321273,$GPRMC,170833.000,A,1206.0102,S,07701.4127,W,10.06,292.55,140526,,,A*52,1
1778778514505566838,$GPGGA,170834.000,1206.0091,S,07701.4156,W,1,07,0.9,142.7,M,8.4,M,,0000*62,1
1778778514627004352,$GPGSA,M,3,05,21,17,14,24,30,11,,,,,,1.9,0.9,1.7*39,1
1778778514787511142,$GPGSV,3,1,12,05,55,290,46,21,51,345,44,17,30,090,44,14,26,147,44*7E,1
1778778514947864436,$GPGSV,3,2,12,24,17,241,35,30,13,124,40,11,10,354,18,13,49,163,41*7C,1
1778778515094573740,$GPGSV,3,3,12,44,42,284,44,28,55,153,,26,47,131,,23,31,068,*76,1
1778778515261864419,$GPRMC,170834.000,A,1206.0091,S,07701.4156,W,11.24,293.72,140526,,,A*5D,1
1778778515512918837,$GPGGA,170835.000,1206.0078,S,07701.4188,W,1,07,0.9,143.4,M,8.4,M,,0000*65,1
1778778515634353221,$GPGSA,M,3,05,21,17,14,24,30,11,,,,,,1.9,0.9,1.7*39,1
1778778515801665124,$GPRMC,170835.000,A,1206.0078,S,07701.4188,W,12.15,294.55,140526,,,A*5B,1
1778778516503589083,$GPGGA,170836.000,1206.0064,S,07701.4220,W,1,07,0.9,144.0,M,8.4,M,,0000*69,1
1778778516625024134,$GPGSA,M,3,05,21,17,14,24,30,11,,,,,,1.9,0.9,1.7*39,1
1778778516792325591,$GPRMC,170836.000,A,1206.0064,S,07701.4220,W,12.32,295.19,140526,,,A*58,1
1778778517505492686,$GPGGA,170837.000,1206.0049,S,07701.4254,W,1,07,0.9,144.4,M,8.4,M,,0000*60,1
1778778517626955999,$GPGSA,M,3,05,21,17,14,24,30,11,,,,,,1.9,0.9,1.7*39,1
1778778517794262013,$GPRMC,170837.000,A,1206.0049,S,07701.4254,W,12.67,296.79,140526,,,A*50,1
1778778518506416921,$GPGGA,170838.000,1206.0032,S,07701.4289,W,1,07,0.9,144.6,M,8.4,M,,0000*61,1
1778778518627819655,$GPGSA,M,3,05,21,17,14,24,30,11,,,,,,1.9,0.9,1.7*39,1
1778778518795132131,$GPRMC,170838.000,A,1206.0032,S,07701.4289,W,13.76,298.60,140526,,,A*54,1
1778778519503079501,$GPGGA,170839.000,1206.0014,S,07701.4326,W,1,07,0.9,144.7,M,8.4,M,,0000*61,1
1778778519624551945,$GPGSA,M,3,05,21,17,14,24,30,11,,,,,,1.9,0.9,1.7*39,1
1778778519784979338,$GPGSV,3,1,12,05,55,290,44,21,51,345,45,17,30,090,45,14,26,147,44*7C,1
1778778519945394471,$GPGSV,3,2,12,24,17,241,36,30,13,124,41,11,10,354,20,13,49,163,42*76,1
1778778520092065106,$GPGSV,3,3,12,44,42,284,38,28,55,153,,26,47,131,,23,31,068,*7D,1
1778778520259371285,$GPRMC,170839.000,A,1206.0014,S,07701.4326,W,14.62,297.25,140526,,,A*59,1
1778778520503334360,$GPGGA,170840.000,1205.9995,S,07701.4365,W,1,07,0.9,144.6,M,8.4,M,,0000*63,1
1778778520624798469,$GPGSA,M,3,05,21,17,14,24,30,11,,,,,,1.9,0.9,1.7*39,1
1778778520792100723,$GPRMC,170840.000,A,1205.9995,S,07701.4365,W,14.85,296.76,140526,,,A*54,1
1778778521506523249,$GPGGA,170841.000,1205.9977,S,07701.4403,W,1,07,0.9,144.6,M,8.4,M,,0000*69,1
1778778521627969005,$GPGSA,M,3,05,21,17,14,24,30,11,,,,,,1.9,0.9,1.7*39,1
1778778521795287242,$GPRMC,170841.000,A,1205.9977,S,07701.4403,W,14.39,295.64,140526,,,A*59,1
1778778522508854022,$GPGGA,170842.000,1205.9961,S,07701.4440,W,1,07,0.9,144.6,M,8.4,M,,0000*6A,1
1778778522630303982,$GPGSA,M,3,05,21,17,14,24,30,11,,,,,,1.9,0.9,1.7*39,1
1778778522797610384,$GPRMC,170842.000,A,1205.9961,S,07701.4440,W,13.74,293.82,140526,,,A*5A,1
1778778523504941642,$GPGGA,170843.000,1205.9947,S,07701.4475,W,1,07,0.9,144.7,M,8.4,M,,0000*68,1
1778778523626398806,$GPGSA,M,3,05,21,17,14,24,30,11,,,,,,1.9,0.9,1.7*39,1
1778778523793709338,$GPRMC,170843.000,A,1205.9947,S,07701.4475,W,12.09,294.62,140526,,,A*5B,1
1778778524505195555,$GPGGA,170844.000,1205.9937,S,07701.4503,W,1,07,0.9,144.8,M,8.4,M,,0000*67,1
1778778524626645460,$GPGSA,M,3,05,21,17,14,24,30,11,,,,,,1.9,0.9,1.7*39,1
1778778524787082520,$GPGSV,3,1,12,05,55,290,46,21,51,345,45,17,30,090,45,14,26,147,39*74,1
1778778524947514229,$GPGSV,3,2,12,24,17,241,37,30,13,124,35,11,10,354,24,13,49,163,40*72,1
1778778525094190308,$GPGSV,3,3,12,44,42,284,43,28,55,153,,26,47,131,,23,31,068,*71,1
1778778525259195534,$GPRMC,170844.000,A,1205.9937,S,07701.4503,W,9.30,285.94,140526,,,A*62,1
1778778525504411150,$GPGGA,170845.000,1205.9932,S,07701.4525,W,1,07,0.9,144.9,M,8.4,M,,0000*66,1
1778778525625879649,$GPGSA,M,3,05,21,17,14,24,30,11,,,,,,1.9,0.9,1.7*39,1
1778778525790889115,$GPRMC,170845.000,A,1205.9932,S,07701.4525,W,6.67,285.90,140526,,,A*6B,1
1778778526504670490,$GPGGA,170846.000,1205.9928,S,07701.4539,W,1,07,0.9,144.9,M,8.4,M,,0000*63,1
1778778526626127543,$GPGSA,M,3,05,21,17,14,24,30,11,,,,,,1.9,0.9,1.7*39,1
1778778526791139251,$GPRMC,170846.000,A,1205.9928,S,07701.4539,W,3.74,289.29,140526,,,A*67,1
1778778527505136442,$GPGGA,170847.000,1205.9926,S,07701.4545,W,1,07,0.9,145.0,M,8.4,M,,0000*6F,1
1778778527626618053,$GPGSA,M,3,05,21,17,14,24,30,11,,,,,,1.9,0.9,1.7*39,1
1778778527791666449,$GPRMC,170847.000,A,1205.9926,S,07701.4545,W,1.15,289.29,140526,,,A*66,1
1778778528505597541,$GPGGA,170848.000,1205.9926,S,07701.4547,W,1,07,0.9,145.1,M,8.4,M,,0000*63,1
1778778528627055206,$GPGSA,M,3,05,21,17,14,24,30,11,,,,,,1.9,0.9,1.7*39,1
1778778528792067969,$GPRMC,170848.000,A,1205.9926,S,07701.4547,W,0.20,289.29,140526,,,A*6C,1
