Unix_time,GPS_data,flagStop
1778777534400365533,$GPGGA,165214.000,1205.9929,S,07701.4543,W,1,07,1.0,142.5,M,8.4,M,,0000*64,0
1778777560820788424,$GPGSA,M,3,21,05,14,17,24,30,11,,,,,,1.8,1.0,1.5*32,0
1778777560821333030,$GPGSV,3,1,12,21,58,339,46,05,57,276,24,14,32,146,32,17,29,081,46*7F,0
1778777560822039262,$GPGSV,3,2,12,24,16,247,37,30,15,130,34,11,12,348,20,13,45,171,30*74,0
1778777560822739513,$GPGSV,3,3,12,44,42,284,41,28,62,148,,26,45,141,,23,34,076,*72,0
1778777560823366719,$GPRMC,165214.000,A,1205.9929,S,07701.4543,W,0.00,290.84,140526,,,A*6D,0
1778777560824071414,$GPGGA,165215.000,1205.9929,S,07701.4543,W,1,07,1.0,142.5,M,8.4,M,,0000*65,0
1778777560824824576,$GPGSA,M,3,21,05,14,17,24,30,11,,,,,,1.8,1.0,1.5*32,0
1778777560825344680,$GPRMC,165215.000,A,1205.9929,S,07701.4543,W,0.00,290.84,140526,,,A*6C,0
1778777560826051135,$GPGGA,165216.000,1205.9929,S,07701.4543,W,1,07,1.0,142.5,M,8.4,M,,0000*66,0
1778777560826794463,$GPGSA,M,3,21,05,14,17,24,30,11,,,,,,1.8,1.0,1.5*32,0
1778777560827312419,$GPRMC,165216.000,A,1205.9929,S,07701.4543,W,0.00,290.84,140526,,,A*6F,0
1778777560828019077,$GPGGA,165217.000,1205.9929,S,07701.4543,W,1,07,1.0,142.5,M,8.4,M,,0000*67,0
1778777560828773499,$GPGSA,M,3,21,05,14,17,24,30,11,,,,,,1.8,1.0,1.5*32,0
1778777560829293454,$GPRMC,165217.000,A,1205.9929,S,07701.4543,W,0.00,290.84,140526,,,A*6E,0
1778777560829998890,$GPGGA,165218.000,1205.9929,S,07701.4543,W,1,07,1.0,142.5,M,8.4,M,,0000*68,0
1778777560830745163,$GPGSA,M,3,21,05,14,17,24,30,11,,,,,,1.8,1.0,1.5*32,0
1778777560831264137,$GPRMC,165218.000,A,1205.9929,S,07701.4543,W,0.00,290.84,140526,,,A*61,0
1778777560831967832,$GPGGA,165219.000,1205.9929,S,07701.4543,W,1,07,1.0,142.5,M,8.4,M,,0000*69,0
1778777560832719198,$GPGSA,M,3,21,05,14,17,24,30,11,,,,,,1.8,1.0,1.5*32,0
1778777560833237728,$GPGSV,3,1,12,21,58,339,46,05,57,276,27,14,32,146,32,17,29,081,47*7D,0
1778777560833922477,$GPGSV,3,2,12,24,16,247,37,30,15,130,35,11,12,348,18,06,01,024,15*7C,0
1778777560834606466,$GPGSV,3,3,12,13,45,171,30,44,42,284,40,28,62,148,,26,45,141,*73,0
1778777560835251748,$GPRMC,165219.000,A,1205.9929,S,07701.4543,W,0.00,290.84,140526,,,A*60,0
1778777560835959369,$GPGGA,165220.000,1205.9929,S,07701.4543,W,1,07,1.0,142.5,M,8.4,M,,0000*63,0
1778777560836707365,$GPGSA,M,3,21,05,14,17,24,30,11,,,,,,1.8,1.0,1.5*32,0
1778777560837214301,$GPRMC,165220.000,A,1205.9929,S,07701.4543,W,0.00,290.84,140526,,,A*6A,0
1778777560837898753,$GPGGA,165221.000,1205.9929,S,07701.4543,W,1,07,1.0,142.5,M,8.4,M,,0000*62,0
1778777560838624969,$GPGSA,M,3,21,05,14,17,24,30,11,,,,,,1.8,1.0,1.5*32,0
1778777560839131979,$GPRMC,165221.000,A,1205.9929,S,07701.4543,W,0.00,290.84,140526,,,A*6B,0
1778777560839821358,$GPGGA,165222.000,1205.9929,S,07701.4543,W,1,07,1.0,142.5,M,8.4,M,,0000*61,0
1778777560840557055,$GPGSA,M,3,21,05,14,17,24,30,11,,,,,,1.8,1.0,1.5*32,0
1778777560841061825,$GPRMC,165222.000,A,1205.9929,S,07701.4543,W,0.00,290.84,140526,,,A*68,0
1778777560841747092,$GPGGA,165223.000,1205.9929,S,07701.4543,W,1,07,1.0,142.5,M,8.4,M,,0000*60,0
1778777560842472826,$GPGSA,M,3,21,05,14,17,24,30,11,,,,,,1.8,1.0,1.5*32,0
1778777560842759149,$GPRMC,165223.000,A,1205.9929,S,07701.4543,W,0.00,290.84,140526,,,A*69,0
1778777560842894569,$GPGGA,165224.000,1205.9929,S,07701.4543,W,1,07,1.0,142.5,M,8.4,M,,0000*67,0
1778777560843037638,$GPGSA,M,3,21,05,14,17,24,30,11,,,,,,1.8,1.0,1.5*32,0
1778777560843137610,$GPGSV,3,1,12,21,58,339,46,05,57,276,31,14,32,146,31,17,29,081,47*79,0
1778777560843269400,$GPGSV,3,2,12,24,16,247,37,30,15,130,35,11,12,348,19,13,45,171,30*7F,0
1778777560843401042,$GPGSV,3,3,12,44,42,284,40,28,62,148,,26,45,141,,23,34,076,*73,0
1778777560843521571,$GPRMC,165224.000,A,1205.9929,S,07701.4543,W,0.00,290.84,140526,,,A*6E,0
1778777560843657195,$GPGGA,165225.000,1205.9929,S,07701.4543,W,1,07,1.0,142.5,M,8.4,M,,0000*66,0
1778777560843800264,$GPGSA,M,3,21,05,14,17,24,30,11,,,,,,1.8,1.0,1.5*32,0
1778777560843900107,$GPRMC,165225.000,A,1205.9929,S,07701.4543,W,0.00,290.84,140526,,,A*6F,0
1778777560844035545,$GPGGA,165226.000,1205.9929,S,07701.4543,W,1,07,1.0,142.5,M,8.4,M,,0000*65,0
1778777560844178669,$GPGSA,M,3,21,05,14,17,24,30,11,,,,,,1.8,1.0,1.5*32,0
1778777560844645213,$GPRMC,165226.000,A,1205.9929,S,07701.4543,W,0.00,290.84,140526,,,A*6C,0
1778777560844782337,$GPGGA,165227.000,1205.9929,S,07701.4543,W,1,07,1.0,142.5,M,8.4,M,,0000*64,0
1778777560844922664,$GPGSA,M,3,21,05,14,17,24,30,11,,,,,,1.8,1.0,1.5*32,0
1778777560845021025,$GPRMC,165227.000,A,1205.9929,S,07701.4543,W,0.00,290.84,140526,,,A*6D,0
1778777560845154853,$GPGGA,165228.000,1205.9929,S,07701.4543,W,1,07,1.0,142.5,M,8.4,M,,0000*6B,0
1778777560845296570,$GPGSA,M,3,21,05,14,17,24,30,11,,,,,,1.8,1.0,1.5*32,0
1778777560845395579,$GPRMC,165228.000,A,1205.9929,S,07701.4543,W,0.00,290.84,140526,,,A*62,0
1778777560845530054,$GPGGA,165229.000,1205.9929,S,07701.4543,W,1,07,1.0,142.5,M,8.4,M,,0000*6A,0
1778777560845672197,$GPGSA,M,3,21,05,14,17,24,30,11,,,,,,1.8,1.0,1.5*32,0
1778777560845771336,$GPGSV,3,1,12,21,58,339,46,05,57,276,31,14,32,146,32,17,29,081,46*7B,0
1778777560845902329,$GPGSV,3,2,12,24,16,247,37,30,15,130,36,11,12,348,21,13,45,171,30*77,0
1778777560846033101,$GPGSV,3,3,12,44,42,284,38,28,62,148,,26,45,141,,23,34,076,*7C,0
1778777560846152834,$GPRMC,165229.000,A,1205.9929,S,07701.4543,W,0.00,290.84,140526,,,A*63,0
1778777560846287347,$GPGGA,165230.000,1205.9927,S,07701.4543,W,1,07,1.0,142.2,M,8.4,M,,0000*6B,0
1778777560846429249,$GPGSA,M,3,21,05,14,17,24,30,11,,,,,,1.8,1.0,1.5*32,0
1778777560846528480,$GPRMC,165230.000,A,1205.9927,S,07701.4543,W,0.03,290.84,140526,,,A*66,0
1778777560846662956,$GPGGA,165231.000,1205.9927,S,07701.4543,W,1,07,1.0,142.2,M,8.4,M,,0000*6A,0
1778777560846804747,$GPGSA,M,3,21,05,14,17,24,30,11,,,,,,1.8,1.0,1.5*32,0
1778777560846903830,$GPRMC,165231.000,A,1205.9927,S,07701.4543,W,0.01,290.84,140526,,,A*65,0
1778777560847038120,$GPGGA,165232.000,1205.9927,S,07701.4543,W,1,07,1.0,142.2,M,8.4,M,,0000*69,0
1778777560847180059,$GPGSA,M,3,21,05,14,17,24,30,11,,,,,,1.8,1.0,1.5*32,0
1778777560847279346,$GPRMC,165232.000,A,1205.9927,S,07701.4543,W,0.00,290.84,140526,,,A*67,0
1778777560847413822,$GPGGA,165233.000,1205.9927,S,07701.4543,W,1,07,1.0,142.2,M,8.4,M,,0000*68,0
1778777560847555798,$GPGSA,M,3,21,05,14,17,24,30,11,,,,,,1.8,1.0,1.5*32,0
1778777560847655214,$GPRMC,165233.000,A,1205.9927,S,07701.4543,W,0.00,290.84,140526,,,A*66,0
1778777560847788931,$GPGGA,165234.000,1205.9927,S,07701.4543,W,1,07,1.0,142.2,M,8.4,M,,0000*6F,0
1778777560847930018,$GPGSA,M,3,21,05,14,17,24,30,11,,,,,,1.8,1.0,1.5*32,0
1778777560848028601,$GPGSV,3,1,12,21,58,339,46,05,57,276,31,14,32,146,33,17,29,081,45*79,0
1778777560848158632,$GPGSV,3,2,12,24,16,247,37,30,15,130,36,11,12,348,21,13,45,171,29*7F,0
1778777560848302756,$GPGSV,3,3,12,44,42,284,39,28,62,148,,26,45,141,,23,34,076,*7D,0
1778777560848423082,$GPRMC,165234.000,A,1205.9927,S,07701.4543,W,0.00,290.84,140526,,,A*61,0
1778777560848557206,$GPGGA,165235.000,1205.9927,S,07701.4543,W,1,07,1.0,142.2,M,8.4,M,,0000*6E,0
1778777560848699534,$GPGSA,M,3,21,05,14,17,24,30,11,,,,,,1.8,1.0,1.5*32,0
1778777560848798987,$GPRMC,165235.000,A,1205.9927,S,07701.4543,W,0.00,290.84,140526,,,A*60,0
1778777560848933796,$GPGGA,165236.000,1205.9927,S,07701.4543,W,1,07,1.0,142.2,M,8.4,M,,0000*6D,0
1778777560849075383,$GPGSA,M,3,21,05,14,17,24,30,11,,,,,,1.8,1.0,1.5*32,0
1778777560849174744,$GPRMC,165236.000,A,1205.9927,S,07701.4543,W,0.00,290.84,140526,,,A*63,0
1778777560849309516,$GPGGA,165237.000,1205.9927,S,07701.4543,W,1,07,1.0,142.2,M,8.4,M,,0000*6C,0
1778777560849451455,$GPGSA,M,3,21,05,14,17,24,30,11,,,,,,1.8,1.0,1.5*32,0
1778777560849550835,$GPRMC,165237.000,A,1205.9927,S,07701.4543,W,0.00,290.84,140526,,,A*62,0
1778777560849685440,$GPGGA,165238.000,1205.9927,S,07701.4543,W,1,07,1.0,142.2,M,8.4,M,,0000*63,0
1778777560849827490,$GPGSA,M,3,21,05,14,17,24,30,11,,,,,,1.8,1.0,1.5*32,0
1778777560849926814,$GPRMC,165238.000,A,1205.9927,S,07701.4543,W,0.00,290.84,140526,,,A*6D,0
1778777560850061364,$GPGGA,165239.000,1205.9927,S,07701.4543,W,1,07,1.0,142.2,M,8.4,M,,0000*62,0
1778777560850203451,$GPGSA,M,3,21,05,14,17,24,30,11,,,,,,1.8,1.0,1.5*32,0
1778777560850302812,$GPGSV,3,1,12,21,58,339,47,05,57,276,30,14,32,146,33,17,29,081,45*79,0
1778777560850578727,$GPGSV,3,2,12,24,16,247,37,30,15,130,37,11,12,348,26,13,45,171,29*79,0
1778777560850710480,$GPGSV,3,3,12,44,42,284,39,28,62,148,,26,45,141,,23,34,076,*7D,0
1778777560850830361,$GPRMC,165239.000,A,1205.9927,S,07701.4543,W,0.00,290.84,140526,,,A*6C,0
1778777560850964948,$GPGGA,165240.000,1205.9927,S,07701.4543,W,1,07,1.0,142.2,M,8.4,M,,0000*6C,0
1778777560851108054,$GPGSA,M,3,21,05,14,17,24,30,11,,,,,,1.8,1.0,1.5*32,0
1778777560851210063,$GPRMC,165240.000,A,1205.9927,S,07701.4543,W,0.00,290.84,140526,,,A*62,0
1778777561408554674,$GPGGA,165241.000,1205.9927,S,07701.4543,W,1,07,1.0,142.2,M,8.4,M,,0000*6D,0
1778777561530023858,$GPGSA,M,3,21,05,14,17,24,30,11,,,,,,1.8,1.0,1.5*32,0
1778777561695053067,$GPRMC,165241.000,A,1205.9927,S,07701.4543,W,0.00,290.84,140526,,,A*63,0
1778777562409427775,$GPGGA,165242.000,1205.9927,S,07701.4543,W,1,07,1.0,142.2,M,8.4,M,,0000*6E,0
1778777562530886791,$GPGSA,M,3,21,05,14,17,24,30,11,,,,,,1.8,1.0,1.5*32,0
1778777562695933095,$GPRMC,165242.000,A,1205.9927,S,07701.4543,W,0.00,290.84,140526,,,A*60,0
1778777563404482446,$GPGGA,165243.000,1205.9927,S,07701.4543,W,1,07,1.0,142.2,M,8.4,M,,0000*6F,0
1778777563525935295,$GPGSA,M,3,21,05,14,17,24,30,11,,,,,,1.8,1.0,1.5*32,0
1778777563690987933,$GPRMC,165243.000,A,1205.9927,S,07701.4543,W,0.00,290.84,140526,,,A*61,0
1778777564403726877,$GPGGA,165244.000,1205.9927,S,07701.4543,W,1,07,1.0,142.2,M,8.4,M,,0000*68,0
1778777564525182838,$GPGSA,M,3,21,05,14,17,24,30,11,,,,,,1.8,1.0,1.5*32,0
1778777564685616120,$GPGSV,3,1,12,21,58,339,47,05,57,276,27,14,32,146,33,17,29,081,44*7E,0
1778777564846027531,$GPGSV,3,2,12,24,16,247,36,30,15,130,36,11,12,348,24,13,45,171,28*7A,0
1778777564992687405,$GPGSV,3,3,12,44,42,284,38,28,62,148,,26,45,141,,23,34,076,*7C,0
1778777565157725226,$GPRMC,165244.000,A,1205.9927,S,07701.4543,W,0.00,290.84,140526,,,A*66,0
1778777565407515434,$GPGGA,165245.000,1205.9927,S,07701.4543,W,1,07,1.0,142.2,M,8.4,M,,0000*69,0
1778777565528944281,$GPGSA,M,3,21,05,14,17,24,30,11,,,,,,1.8,1.0,1.5*32,0
1778777565693988195,$GPRMC,165245.000,A,1205.9927,S,07701.4543,W,0.00,290.84,140526,,,A*67,1
1778777566408409796,$GPGGA,165246.000,1205.9927,S,07701.4543,W,1,06,1.5,142.2,M,8.4,M,,0000*6E,1
1778777566525249717,$GPGSA,M,3,21,05,14,17,24,30,,,,,,,3.0,1.5,2.6*3D,1
1778777566690282093,$GPRMC,165246.000,A,1205.9927,S,07701.4543,W,0.00,290.84,140526,,,A*64,1
1778777567408462820,$GPGGA,165247.000,1205.9927,S,07701.4543,W,1,06,1.5,142.1,M,8.4,M,,0000*6C,1
1778777567525310186,$GPGSA,M,3,21,05,14,17,24,30,,,,,,,3.0,1.5,2.6*3D,1
1778777567690358712,$GPRMC,165247.000,A,1205.9927,S,07701.4543,W,0.00,290.84,140526,,,A*65,1
1778777568408713252,$GPGGA,165248.000,1205.9927,S,07701.4543,W,1,06,1.5,142.1,M,8.4,M,,0000*63,1
1778777568525606067,$GPGSA,M,3,21,05,14,17,24,30,,,,,,,3.0,1.5,2.6*3D,1
1778777568690588086,$GPRMC,165248.000,A,1205.9927,S,07701.4543,W,0.00,290.84,140526,,,A*6A,1
1778777569407700733,$GPGGA,165249.000,1205.9927,S,07701.4543,W,1,07,1.0,142.1,M,8.4,M,,0000*66,1
1778777569529164250,$GPGSA,M,3,21,05,14,17,24,30,11,,,,,,1.8,1.0,1.5*32,1
1778777569689563418,$GPGSV,3,1,12,21,58,339,47,05,57,276,22,14,32,146,34,17,29,081,44*7C,1
1778777569849994201,$GPGSV,3,2,12,24,16,247,36,30,15,130,37,11,12,348,20,13,45,171,28*7F,1
1778777569996701190,$GPGSV,3,3,12,44,42,284,39,28,62,148,,26,45,141,,23,34,076,*7D,1
1778777570161683303,$GPRMC,165249.000,A,1205.9927,S,07701.4543,W,0.00,290.84,140526,,,A*6B,1
1778777570406071435,$GPGGA,165250.000,1205.9927,S,07701.4543,W,1,07,1.0,142.1,M,8.4,M,,0000*6E,1
1778777570527521950,$GPGSA,M,3,21,05,14,17,24,30,11,,,,,,1.8,1.0,1.5*32,1
1778777570692568476,$GPRMC,165250.000,A,1205.9927,S,07701.4543,W,0.00,290.84,140526,,,A*63,1
1778777571409444471,$GPGGA,165251.000,1205.9927,S,07701.4543,W,1,07,1.0,142.1,M,8.4,M,,0000*6F,1
1778777571530903321,$GPGSA,M,3,21,05,14,17,24,30,11,,,,,,1.8,1.0,1.5*32,1
1778777571695906028,$GPRMC,165251.000,A,1205.9927,S,07701.4543,W,0.00,290.84,140526,,,A*62,1
1778777572409912479,$GPGGA,165252.000,1205.9927,S,07701.4543,W,1,07,1.0,142.1,M,8.4,M,,0000*6C,1
1778777572531365828,$GPGSA,M,3,21,05,14,17,24,30,11,,,,,,1.8,1.0,1.5*32,1
1778777572696381277,$GPRMC,165252.000,A,1205.9927,S,07701.4543,W,0.00,290.84,140526,,,A*61,1
1778777573409113443,$GPGGA,165253.000,1205.9927,S,07701.4543,W,1,07,1.0,142.1,M,8.4,M,,0000*6D,1
1778777573530589664,$GPGSA,M,3,21,05,14,17,24,30,11,,,,,,1.8,1.0,1.5*32,1
1778777573695594019,$GPRMC,165253.000,A,1205.9927,S,07701.4543,W,0.00,290.84,140526,,,A*60,1
1778777574409592025,$GPGGA,165254.000,1205.9927,S,07701.4543,W,1,07,1.0,142.1,M,8.4,M,,0000*6A,1
1778777574531050912,$GPGSA,M,3,21,05,14,17,24,30,11,,,,,,1.8,1.0,1.5*32,1
1778777574691484880,$GPGSV,3,1,12,21,58,339,47,05,57,276,21,14,32,146,34,17,29,081,44*7F,1
1778777574851901142,$GPGSV,3,2,12,24,16,247,36,30,15,130,37,11,12,348,23,13,45,171,27*73,1
1778777574998577555,$GPGSV,3,3,12,44,42,284,39,28,62,148,,26,45,141,,23,34,076,*7D,1
1778777575163591022,$GPRMC,165254.000,A,1205.9927,S,07701.4543,W,0.00,290.84,140526,,,A*67,1
1778777575406159245,$GPGGA,165255.000,1205.9927,S,07701.4543,W,1,07,1.0,142.1,M,8.4,M,,0000*6B,1
1778777575527556292,$GPGSA,M,3,21,05,14,17,24,30,11,,,,,,1.8,1.0,1.5*32,1
1778777575692556462,$GPRMC,165255.000,A,1205.9927,S,07701.4543,W,0.00,290.84,140526,,,A*66,1
1778777576406408787,$GPGGA,165256.000,1205.9927,S,07701.4543,W,1,07,1.0,142.1,M,8.4,M,,0000*68,1
1778777576527802520,$GPGSA,M,3,21,05,14,17,24,30,11,,,,,,1.8,1.0,1.5*32,1
1778777576692822154,$GPRMC,165256.000,A,1205.9927,S,07701.4543,W,0.00,290.84,140526,,,A*65,1
1778777577411188380,$GPGGA,165257.000,1205.9927,S,07701.4543,W,1,07,1.0,142.1,M,8.4,M,,0000*69,1
1778777577532686215,$GPGSA,M,3,21,05,14,17,24,30,11,,,,,,1.8,1.0,1.5*32,1
1778777577697708294,$GPRMC,165257.000,A,1205.9927,S,07701.4543,W,0.00,290.84,140526,,,A*64,1
1778777578410620440,$GPGGA,165258.000,1205.9927,S,07701.4543,W,1,07,1.0,142.1,M,8.4,M,,0000*66,1
1778777578532075382,$GPGSA,M,3,21,05,14,17,24,30,11,,,,,,1.8,1.0,1.5*32,1
1778777578697098831,$GPRMC,165258.000,A,1205.9927,S,07701.4543,W,0.00,290.84,140526,,,A*6B,1
1778777579410885077,$GPGGA,165259.000,1205.9927,S,07701.4543,W,1,07,1.0,142.1,M,8.4,M,,0000*67,1
1778777579532328462,$GPGSA,M,3,21,05,14,17,24,30,11,,,,,,1.8,1.0,1.5*32,1
1778777579692745743,$GPGSV,3,1,12,21,58,339,47,05,57,276,27,14,32,146,35,17,29,081,44*78,1
1778777579853245198,$GPGSV,3,2,12,24,16,247,36,30,15,130,38,11,12,348,25,13,45,171,26*7B,1
1778777579999849308,$GPGSV,3,3,12,44,42,284,39,28,62,148,,26,45,141,,23,34,076,*7D,1
1778777580164869517,$GPRMC,165259.000,A,1205.9927,S,07701.4543,W,0.00,290.84,140526,,,A*6A,1
1778777580408619701,$GPGGA,165300.000,1205.9927,S,07701.4543,W,1,07,1.0,142.1,M,8.4,M,,0000*6A,1
1778777580530084014,$GPGSA,M,3,21,05,14,17,24,30,11,,,,,,1.8,1.0,1.5*32,1
1778777580695097351,$GPRMC,165300.000,A,1205.9927,S,07701.4543,W,0.00,290.84,140526,,,A*67,1
1778777581411395719,$GPGGA,165301.000,1205.9927,S,07701.4543,W,1,07,1.0,142.1,M,8.4,M,,0000*6B,1
1778777581532839752,$GPGSA,M,3,21,05,14,17,24,30,11,,,,,,1.8,1.0,1.5*32,1
1778777581697854164,$GPRMC,165301.000,A,1205.9927,S,07701.4543,W,0.00,290.84,140526,,,A*66,1
1778777582407261336,$GPGGA,165302.000,1205.9927,S,07701.4543,W,1,07,1.0,142.1,M,8.4,M,,0000*68,1
1778777582528721075,$GPGSA,M,3,21,05,14,17,24,30,11,,,,,,1.8,1.0,1.5*32,1
1778777582693735505,$GPRMC,165302.000,A,1205.9927,S,07701.4543,W,0.00,290.84,140526,,,A*65,1
1778777583412734234,$GPGGA,165303.000,1205.9927,S,07701.4543,W,1,07,1.0,142.1,M,8.4,M,,0000*69,1
1778777583534183620,$GPGSA,M,3,21,05,14,17,24,30,11,,,,,,1.8,1.0,1.5*32,1
1778777583699221774,$GPRMC,165303.000,A,1205.9927,S,07701.4543,W,0.00,290.84,140526,,,A*64,1
1778777584411355663,$GPGGA,165304.000,1205.9927,S,07701.4543,W,1,07,1.0,142.1,M,8.4,M,,0000*6E,1
1778777584532770360,$GPGSA,M,3,21,05,14,17,24,30,11,,,,,,1.8,1.0,1.5*32,1
1778777584693191364,$GPGSV,3,1,12,21,58,339,48,05,57,276,27,14,32,146,35,17,29,081,44*77,1
1778777584853625998,$GPGSV,3,2,12,24,16,247,37,30,15,130,39,11,12,348,25,13,45,171,27*7A,1
1778777585000301615,$GPGSV,3,3,12,44,42,284,39,28,62,148,,26,45,141,,23,34,076,*7D,1
1778777585165307100,$GPRMC,165304.000,A,1205.9927,S,07701.4543,W,0.00,290.84,140526,,,A*63,1
1778777585413871360,$GPGGA,165305.000,1205.9926,S,07701.4543,W,1,07,1.0,142.1,M,8.4,M,,0000*6E,1
1778777585535327654,$GPGSA,M,3,21,05,14,17,24,30,11,,,,,,1.8,1.0,1.5*32,1
1778777585700327916,$GPRMC,165305.000,A,1205.9926,S,07701.4543,W,0.00,290.84,140526,,,A*63,1
1778777586410591964,$GPGGA,165306.000,1205.9926,S,07701.4543,W,1,07,1.0,142.1,M,8.4,M,,0000*6D,1
1778777586532033535,$GPGSA,M,3,21,05,14,17,24,30,11,,,,,,1.8,1.0,1.5*32,1
1778777586697041835,$GPRMC,165306.000,A,1205.9926,S,07701.4543,W,0.00,290.84,140526,,,A*60,1
1778777586742915649,$PSRF156,23,1,0*09,1
1778777587410207022,$GPGGA,165307.000,1205.9926,S,07701.4543,W,1,07,1.0,142.1,M,8.4,M,,0000*6C,1
1778777587531667502,$GPGSA,M,3,21,05,14,17,24,30,11,,,,,,1.8,1.0,1.5*32,1
1778777587696679858,$GPRMC,165307.000,A,1205.9926,S,07701.4543,W,0.00,290.84,140526,,,A*61,1
1778777588406942683,$GPGGA,165308.000,1205.9926,S,07701.4543,W,1,07,1.0,142.1,M,8.4,M,,0000*63,1
1778777588528386272,$GPGSA,M,3,21,05,14,17,24,30,11,,,,,,1.8,1.0,1.5*32,1
1778777588693400795,$GPRMC,165308.000,A,1205.9926,S,07701.4543,W,0.00,290.84,140526,,,A*6E,1
1778777589411354501,$GPGGA,165309.000,1205.9926,S,07701.4543,W,1,07,1.0,142.1,M,8.4,M,,0000*62,0
1778777589532820500,$GPGSA,M,3,21,05,14,17,24,30,11,,,,,,1.8,1.0,1.5*32,0
1778777589693240911,$GPGSV,3,1,12,21,58,339,48,05,57,276,26,14,32,146,36,17,29,081,43*72,0
1778777589853678842,$GPGSV,3,2,12,24,16,247,37,30,15,130,39,11,12,348,16,13,45,171,27*7A,0
1778777590000332660,$GPGSV,3,3,12,44,42,284,39,28,62,148,,26,45,141,,23,34,076,*7D,0
1778777590165335626,$GPRMC,165309.000,A,1205.9926,S,07701.4543,W,0.00,290.84,140526,,,A*6F,0
1778777590411183616,$GPGGA,165310.000,1205.9926,S,07701.4543,W,1,07,1.0,142.1,M,8.4,M,,0000*6A,0
1778777590532650356,$GPGSA,M,3,21,05,14,17,24,30,11,,,,,,1.8,1.0,1.5*32,0
1778777590697702548,$GPRMC,165310.000,A,1205.9926,S,07701.4543,W,0.00,290.84,140526,,,A*67,0
1778777591411049975,$GPGGA,165311.000,1205.9926,S,07701.4543,W,1,07,1.0,142.1,M,8.4,M,,0000*6B,0
1778777591532478507,$GPGSA,M,3,21,05,14,17,24,30,11,,,,,,1.8,1.0,1.5*32,0
1778777591697494549,$GPRMC,165311.000,A,1205.9926,S,07701.4543,W,0.00,290.84,140526,,,A*66,0
1778777592411126298,$GPGGA,165312.000,1205.9926,S,07701.4543,W,1,07,1.0,142.0,M,8.4,M,,0000*69,0
1778777592532531699,$GPGSA,M,3,21,05,14,17,24,30,11,,,,,,1.8,1.0,1.5*32,0
1778777592697541776,$GPRMC,165312.000,A,1205.9926,S,07701.4543,W,0.00,290.84,140526,,,A*65,0
1778777593410533967,$GPGGA,165313.000,1205.9926,S,07701.4543,W,1,07,1.0,142.0,M,8.4,M,,0000*68,0
1778777593531954850,$GPGSA,M,3,21,05,14,17,24,30,11,,,,,,1.8,1.0,1.5*32,0
1778777593696985615,$GPRMC,165313.000,A,1205.9926,S,07701.4543,W,0.00,290.84,140526,,,A*64,0
1778777594410350469,$GPGGA,165314.000,1205.9924,S,07701.4546,W,1,07,1.0,141.7,M,8.4,M,,0000*6C,0
1778777594531805152,$GPGSA,M,3,21,05,14,17,24,30,11,,,,,,1.8,1.0,1.5*32,0
1778777594692219433,$GPGSV,3,1,12,21,58,339,47,05,57,276,33,14,32,146,35,17,29,081,43*7A,0
1778777594852646474,$GPGSV,3,2,12,24,16,247,37,30,15,130,39,11,12,348,16,13,45,171,32*7E,0
1778777594999324368,$GPGSV,3,3,12,44,42,284,39,28,62,148,,26,45,141,,23,34,076,*7D,0
1778777595164341169,$GPRMC,165314.000,A,1205.9924,S,07701.4546,W,1.05,290.84,140526,,,A*60,0
1778777595410171806,$GPGGA,165315.000,1205.9920,S,07701.4550,W,1,07,1.0,141.7,M,8.4,M,,0000*6E,0
1778777595531702014,$GPGSA,M,3,21,05,14,17,24,30,11,,,,,,1.8,1.0,1.5*32,0
1778777595696652993,$GPRMC,165315.000,A,1205.9920,S,07701.4550,W,2.58,311.09,140526,,,A*64,0
1778777596406498614,$GPGGA,165316.000,1205.9914,S,07701.4558,W,1,07,1.0,142.0,M,8.4,M,,0000*66,0
1778777596527936869,$GPGSA,M,3,21,05,14,17,24,30,11,,,,,,1.8,1.0,1.5*32,0
1778777596692955559,$GPRMC,165316.000,A,1205.9914,S,07701.4558,W,4.07,308.79,140526,,,A*6B,0
1778777597405279002,$GPGGA,165317.000,1205.9906,S,07701.4571,W,1,07,1.0,142.2,M,8.4,M,,0000*6D,0
1778777597526733943,$GPGSA,M,3,21,05,14,17,24,30,11,,,,,,1.8,1.0,1.5*32,0
1778777597691751355,$GPRMC,165317.000,A,1205.9906,S,07701.4571,W,5.39,305.30,140526,,,A*6E,0
1778777598411157548,$GPGGA,165318.000,1205.9899,S,07701.4585,W,1,07,1.0,142.5,M,8.4,M,,0000*69,0
1778777598532624306,$GPGSA,M,3,21,05,14,17,24,30,11,,,,,,1.8,1.0,1.5*32,0
1778777598697638792,$GPRMC,165318.000,A,1205.9899,S,07701.4585,W,5.70,301.97,140526,,,A*69,0
1778777599406620647,$GPGGA,165319.000,1205.9890,S,07701.4599,W,1,07,1.0,142.6,M,8.4,M,,0000*6F,0
1778777599528088034,$GPGSA,M,3,21,05,14,17,24,30,11,,,,,,1.8,1.0,1.5*32,0
1778777599688516150,$GPGSV,3,1,12,21,58,339,46,05,57,276,45,14,32,146,36,17,29,081,37*7A,0
1778777599848926541,$GPGSV,3,2,12,24,16,247,28,30,15,130,26,11,12,348,17,13,45,171,37*7A,0
1778777599995596287,$GPGSV,3,3,12,44,42,284,43,28,62,148,,26,45,141,,23,34,076,*70,0
1778777600160613051,$GPRMC,165319.000,A,1205.9890,S,07701.4599,W,5.16,303.62,140526,,,A*64,0
1778777600410416093,$GPGGA,165320.000,1205.9882,S,07701.4613,W,1,07,1.0,142.8,M,8.4,M,,0000*69,0
1778777600531890259,$GPGSA,M,3,21,05,14,17,24,30,11,,,,,,1.8,1.0,1.5*32,0
1778777600696883391,$GPRMC,165320.000,A,1205.9882,S,07701.4613,W,5.20,306.64,140526,,,A*6A,0
1778777601410672099,$GPGGA,165321.000,1205.9872,S,07701.4626,W,1,07,1.0,143.0,M,8.4,M,,0000*68,0
1778777601532134912,$GPGSA,M,3,21,05,14,17,24,30,11,,,,,,1.8,1.0,1.6*31,0
1778777601697145231,$GPRMC,165321.000,A,1205.9872,S,07701.4626,W,5.67,310.94,140526,,,A*69,0
1778777602411137032,$GPGGA,165322.000,1205.9860,S,07701.4639,W,1,07,1.0,143.1,M,8.4,M,,0000*67,0
1778777602532625644,$GPGSA,M,3,21,05,14,17,24,30,11,,,,,,1.8,1.0,1.6*31,0
1778777602697613553,$GPRMC,165322.000,A,1205.9860,S,07701.4639,W,6.04,316.87,140526,,,A*65,0
1778777603411392131,$GPGGA,165323.000,1205.9844,S,07701.4648,W,1,07,1.0,143.2,M,8.4,M,,0000*65,0
1778777603532873538,$GPGSA,M,3,21,05,14,17,24,30,11,,,,,,1.8,1.0,1.6*31,0
1778777603697871004,$GPRMC,165323.000,A,1205.9844,S,07701.4648,W,6.59,325.09,140526,,,A*6A,0
1778777604407902123,$GPGGA,165324.000,1205.9823,S,07701.4646,W,1,07,1.0,143.0,M,8.4,M,,0000*6F,0
1778777604529364288,$GPGSA,M,3,21,05,14,17,24,30,11,,,,,,1.8,1.0,1.6*31,0
1778777604689799348,$GPGSV,3,1,12,21,58,339,45,05,57,276,43,14,32,146,36,17,29,081,41*7E,0
1778777604850212462,$GPGSV,3,2,12,24,16,247,20,30,15,130,24,11,12,348,17,13,45,171,24*72,0
1778777604996926805,$GPGSV,3,3,12,44,42,284,41,28,62,148,,26,45,141,,23,34,076,*72,0
1778777605161892082,$GPRMC,165324.000,A,1205.9823,S,07701.4646,W,6.58,341.41,140526,,,A*6D,0
1778777605408366927,$GPGGA,165325.000,1205.9798,S,07701.4634,W,1,07,1.0,143.0,M,8.4,M,,0000*64,0
1778777605529835666,$GPGSA,M,3,21,05,14,17,24,30,11,,,,,,1.8,1.0,1.6*31,0
1778777605694835836,$GPRMC,165325.000,A,1205.9798,S,07701.4634,W,10.21,18.32,140526,,,A*64,0
1778777606408828137,$GPGGA,165326.000,1205.9766,S,07701.4617,W,1,07,1.0,142.9,M,8.4,M,,0000*6F,0
1778777606530301970,$GPGSA,M,3,21,05,14,17,24,30,11,,,,,,1.8,1.0,1.6*31,0
1778777606695316418,$GPRMC,165326.000,A,1205.9766,S,07701.4617,W,11.19,24.77,140526,,,A*63,0
1778777607412671421,$GPGGA,165327.000,1205.9735,S,07701.4601,W,1,07,1.0,143.1,M,8.4,M,,0000*66,0
1778777607534098990,$GPGSA,M,3,21,05,14,17,24,30,11,,,,,,1.8,1.0,1.6*31,0
1778777607699105012,$GPRMC,165327.000,A,1205.9735,S,07701.4601,W,11.82,25.04,140526,,,A*64,0
1778777608417880794,$GPGGA,165328.000,1205.9702,S,07701.4584,W,1,07,1.0,143.0,M,8.4,M,,0000*62,0
1778777608539359164,$GPGSA,M,3,21,05,14,17,24,30,11,,,,,,1.8,1.0,1.6*31,0
1778777608704364816,$GPRMC,165328.000,A,1205.9702,S,07701.4584,W,12.14,25.02,140526,,,A*6B,0
1778777609412314909,$GPGGA,165329.000,1205.9669,S,07701.4569,W,1,07,1.0,142.9,M,8.4,M,,0000*64,0
1778777609533770499,$GPGSA,M,3,21,05,14,17,24,30,11,,,,,,1.8,1.0,1.6*31,0
1778777609694193317,$GPGSV,3,1,12,21,58,339,43,05,57,276,43,14,32,146,45,17,29,081,42*7F,0
1778777609854621081,$GPGSV,3,2,12,24,16,247,25,30,15,130,30,11,12,348,28,13,45,171,30*7B,0
1778777610001302142,$GPGSV,3,3,12,44,42,284,42,28,62,148,,26,45,141,,23,34,076,*71,0
1778777610166301256,$GPRMC,165329.000,A,1205.9669,S,07701.4569,W,12.10,24.87,140526,,,A*6D,0
1778777610411940264,$GPGGA,165330.000,1205.9638,S,07701.4553,W,1,06,1.5,142.9,M,8.4,M,,0000*65,0
1778777610528824615,$GPGSA,M,3,21,05,14,17,24,30,,,,,,,3.0,1.5,2.6*3D,0
1778777610693827729,$GPRMC,165330.000,A,1205.9638,S,07701.4553,W,12.10,25.70,140526,,,A*61,0
1778777611412197270,$GPGGA,165331.000,1205.9606,S,07701.4538,W,1,06,1.5,142.7,M,8.4,M,,0000*6A,0
1778777611529085492,$GPGSA,M,3,21,05,14,17,24,30,,,,,,,3.0,1.5,2.6*3D,0
1778777611694104200,$GPRMC,165331.000,A,1205.9606,S,07701.4538,W,12.18,25.19,140526,,,A*67,0
1778777612410987955,$GPGGA,165332.000,1205.9575,S,07701.4524,W,1,07,1.0,142.5,M,8.4,M,,0000*65,0
1778777612532467844,$GPGSA,M,3,21,05,14,17,24,30,11,,,,,,1.8,1.0,1.6*31,0
1778777612697470365,$GPRMC,165332.000,A,1205.9575,S,07701.4524,W,12.30,25.23,140526,,,A*6D,0
1778777613411885003,$GPGGA,165333.000,1205.9544,S,07701.4510,W,1,07,1.0,142.3,M,8.4,M,,0000*67,0
1778777613533342074,$GPGSA,M,3,21,05,14,17,24,30,11,,,,,,1.8,1.0,1.6*31,0
1778777613698352837,$GPRMC,165333.000,A,1205.9544,S,07701.4510,W,12.32,25.52,140526,,,A*6D,0
1778777614412777531,$GPGGA,165334.000,1205.9513,S,07701.4495,W,1,07,1.0,142.5,M,8.4,M,,0000*68,0
1778777614534218083,$GPGSA,M,3,21,05,14,17,24,30,11,,,,,,1.8,1.0,1.6*31,0
1778777614694709797,$GPGSV,3,1,12,21,58,339,42,05,57,276,43,14,32,146,45,17,29,081,31*7A,0
1778777614855077073,$GPGSV,3,2,12,24,16,247,34,30,15,130,28,11,12,348,27,13,45,171,26*7A,0
1778777615001784489,$GPGSV,3,3,12,44,42,284,43,28,62,148,,26,45,141,,23,34,076,*70,0
1778777615166740414,$GPRMC,165334.000,A,1205.9513,S,07701.4495,W,12.36,25.10,140526,,,A*66,0
1778777615410310340,$GPGGA,165335.000,1205.9482,S,07701.4481,W,1,06,1.5,142.6,M,8.4,M,,0000*62,0
1778777615527185597,$GPGSA,M,3,21,05,14,17,24,30,,,,,,,3.0,1.5,2.6*3D,0
1778777615692198602,$GPRMC,165335.000,A,1205.9482,S,07701.4481,W,12.26,24.45,140526,,,A*6B,0
1778777616416409370,$GPGGA,165336.000,1205.9451,S,07701.4467,W,1,06,1.5,142.6,M,8.4,M,,0000*67,0
1778777616533281627,$GPGSA,M,3,21,05,14,17,24,30,,,,,,,3.0,1.5,2.6*3D,0
1778777616698285445,$GPRMC,165336.000,A,1205.9451,S,07701.4467,W,12.12,24.49,140526,,,A*65,0
1778777617409150290,$GPGGA,165337.000,1205.9420,S,07701.4453,W,1,06,1.5,142.8,M,8.4,M,,0000*69,0
1778777617526041234,$GPGSA,M,3,21,05,14,17,24,30,,,,,,,3.0,1.5,2.6*3D,0
1778777617691060128,$GPRMC,165337.000,A,1205.9420,S,07701.4453,W,12.35,25.04,140526,,,A*68,0
1778777618406908027,$GPGGA,165338.000,1205.9390,S,07701.4438,W,1,06,1.5,143.3,M,8.4,M,,0000*6D,0
1778777618523794082,$GPGSA,M,3,21,05,14,17,24,30,,,,,,,3.0,1.5,2.6*3D,0
1778777618688800400,$GPRMC,165338.000,A,1205.9390,S,07701.4438,W,12.51,24.27,140526,,,A*64,0
1778777619406541606,$GPGGA,165339.000,1205.9358,S,07701.4423,W,1,06,1.5,143.4,M,8.4,M,,0000*65,0
1778777619523422030,$GPGSA,M,3,21,05,14,17,24,30,,,,,,,3.0,1.5,2.6*3D,0
1778777619683922819,$GPGSV,3,1,12,21,58,339,41,05,57,276,41,14,32,146,44,17,29,081,36*7D,0
1778777619844262315,$GPGSV,3,2,12,24,16,247,32,30,15,130,32,06,01,024,12,11,12,348,19*78,0
1778777619995530358,$GPGSV,3,3,12,13,45,171,28,44,42,284,41,28,62,148,,26,45,141,*7B,0
1778777620160535121,$GPRMC,165339.000,A,1205.9358,S,07701.4423,W,12.44,23.95,140526,,,A*61,0
1778777620411804058,$GPGGA,165340.000,1205.9326,S,07701.4407,W,1,06,1.5,143.5,M,8.4,M,,0000*65,0
1778777620528677575,$GPGSA,M,3,21,05,14,17,24,30,,,,,,,3.0,1.5,2.6*3D,0
1778777620693677263,$GPRMC,165340.000,A,1205.9326,S,07701.4407,W,12.64,24.46,140526,,,A*6B,0
1778777621409976982,$GPGGA,165341.000,1205.9295,S,07701.4392,W,1,06,1.5,143.5,M,8.4,M,,0000*66,0
1778777621526856296,$GPGSA,M,3,21,05,14,17,24,30,,,,,,,3.0,1.5,2.6*3D,0
1778777621691855910,$GPRMC,165341.000,A,1205.9295,S,07701.4392,W,12.32,25.20,140526,,,A*6A,0
1778777622413771132,$GPGGA,165342.000,1205.9263,S,07701.4377,W,1,06,1.6,143.6,M,8.4,M,,0000*67,0
1778777622530644685,$GPGSA,M,3,21,05,14,17,24,30,,,,,,,3.0,1.6,2.6*3E,0
1778777622695657189,$GPRMC,165342.000,A,1205.9263,S,07701.4377,W,12.27,23.11,140526,,,A*6B,0
1778777623411525369,$GPGGA,165343.000,1205.9232,S,07701.4363,W,1,06,1.6,143.9,M,8.4,M,,0000*68,0
1778777623528405256,$GPGSA,M,3,21,05,14,17,24,30,,,,,,,3.0,1.6,2.6*3E,0
1778777623693409445,$GPRMC,165343.000,A,1205.9232,S,07701.4363,W,12.13,23.91,140526,,,A*64,0
1778777624405956094,$GPGGA,165344.000,1205.9201,S,07701.4347,W,1,06,1.6,144.3,M,8.4,M,,0000*64,0
1778777624522841759,$GPGSA,M,3,21,05,14,17,24,30,,,,,,,3.0,1.6,2.6*3E,0
1778777624683269931,$GPGSV,3,1,12,21,58,339,42,05,57,276,43,14,32,146,25,17,29,081,42*78,0
1778777624843671858,$GPGSV,3,2,12,24,16,247,39,30,15,130,22,06,01,024,17,11,12,348,21*7C,0
1778777624994951439,$GPGSV,3,3,12,13,45,171,17,44,42,284,37,28,62,148,,26,45,141,*76,0
1778777625159935200,$GPRMC,165344.000,A,1205.9201,S,07701.4347,W,12.03,25.08,140526,,,A*62,0
1778777625405992839,$GPGGA,165345.000,1205.9169,S,07701.4332,W,1,06,1.6,144.5,M,8.4,M,,0000*6C,0
1778777625522876949,$GPGSA,M,3,21,05,14,17,24,30,,,,,,,3.0,1.6,2.6*3E,0
1778777625687875674,$GPRMC,165345.000,A,1205.9169,S,07701.4332,W,12.29,24.00,140526,,,A*6D,0
1778777626406880645,$GPGGA,165346.000,1205.9138,S,07701.4316,W,1,06,1.6,144.9,M,8.4,M,,0000*61,0
1778777626523753772,$GPGSA,M,3,21,05,14,17,24,30,,,,,,,3.0,1.6,2.6*3E,0
1778777626688771480,$GPRMC,165346.000,A,1205.9138,S,07701.4316,W,12.58,24.09,140526,,,A*63,0
1778777627406513204,$GPGGA,165347.000,1205.9107,S,07701.4300,W,1,05,1.6,145.3,M,8.4,M,,0000*63,0
1778777627518819908,$GPGSA,M,3,21,05,14,17,24,,,,,,,,3.2,1.6,2.7*3E,0
1778777627683864415,$GPRMC,165347.000,A,1205.9107,S,07701.4300,W,12.50,24.51,140526,,,A*6C,0
1778777628406766229,$GPGGA,165348.000,1205.9076,S,07701.4285,W,1,05,1.6,145.6,M,8.4,M,,0000*62,0
1778777628519071432,$GPGSA,M,3,21,05,14,17,24,,,,,,,,3.2,1.6,2.7*3E,0
1778777628684119051,$GPRMC,165348.000,A,1205.9076,S,07701.4285,W,12.49,24.79,140526,,,A*6A,0
1778777629411605568,$GPGGA,165349.000,1205.9045,S,07701.4270,W,1,06,1.6,145.8,M,8.4,M,,0000*64,0
1778777629528482992,$GPGSA,M,3,21,05,14,17,24,30,,,,,,,3.0,1.6,2.6*3E,0
1778777629688911497,$GPGSV,3,1,12,21,58,339,41,05,57,276,43,14,32,146,41,17,29,081,43*78,0
1778777629849404322,$GPGSV,3,2,12,24,16,247,32,30,15,130,25,06,01,024,09,44,42,284,42*7E,0
1778777629991433840,$GPGSV,3,3,12,28,62,148,,13,45,171,,26,45,141,,23,34,076,*7B,0
1778777630156472588,$GPRMC,165349.000,A,1205.9045,S,07701.4270,W,12.31,24.42,140526,,,A*66,0
1778777630406237978,$GPGGA,165350.000,1205.9014,S,07701.4255,W,1,06,1.6,145.9,M,8.4,M,,0000*6E,0
1778777630523113125,$GPGSA,M,3,21,05,14,17,24,30,,,,,,,3.0,1.6,2.6*3E,0
1778777630688120869,$GPRMC,165350.000,A,1205.9014,S,07701.4255,W,12.10,24.20,140526,,,A*6A,0
1778777631415661576,$GPGGA,165351.000,1205.8983,S,07701.4241,W,1,05,2.1,146.0,M,8.4,M,,0000*61,0
1778777631527955353,$GPGSA,M,3,21,05,14,24,30,,,,,,,,3.7,2.1,3.1*3D,0
1778777631692966690,$GPRMC,165351.000,A,1205.8983,S,07701.4241,W,12.20,24.64,140526,,,A*6B,0
1778777632410507599,$GPGGA,165352.000,1205.8952,S,07701.4227,W,1,07,1.0,146.3,M,8.4,M,,0000*6D,0
1778777632531961300,$GPGSA,M,3,21,05,14,17,24,30,11,,,,,,1.8,1.0,1.6*31,0
1778777632696974767,$GPRMC,165352.000,A,1205.8952,S,07701.4227,W,12.29,23.03,140526,,,A*6B,0
1778777633414306786,$GPGGA,165353.000,1205.8922,S,07701.4213,W,1,07,1.0,146.9,M,8.4,M,,0000*66,0
1778777633535764376,$GPGSA,M,3,21,05,14,17,24,30,11,,,,,,1.8,1.0,1.6*31,0
1778777633700768009,$GPRMC,165353.000,A,1205.8922,S,07701.4213,W,12.06,24.23,140526,,,A*62,0
1778777634410177089,$GPGGA,165354.000,1205.8891,S,07701.4198,W,1,07,1.0,146.7,M,8.4,M,,0000*66,0
1778777634531638865,$GPGSA,M,3,21,05,14,17,24,30,11,,,,,,1.8,1.0,1.6*31,0
1778777634692069258,$GPGSV,3,1,12,21,58,339,42,05,57,276,43,14,32,146,30,17,29,081,39*70,0
1778777634852492262,$GPGSV,3,2,12,24,16,247,32,30,15,130,20,11,12,348,30,06,01,024,20*71,0
1778777634999159600,$GPGSV,3,3,12,44,42,284,40,28,62,148,,13,45,171,,26,45,141,*70,0
1778777635164175253,$GPRMC,165354.000,A,1205.8891,S,07701.4198,W,11.83,24.53,140526,,,A*65,0
1778777635414393722,$GPGGA,165355.000,1205.8862,S,07701.4187,W,1,07,1.0,147.4,M,8.4,M,,0000*67,0
1778777635535851498,$GPGSA,M,3,21,05,14,17,24,30,11,,,,,,1.8,1.0,1.6*31,0
1778777635700863687,$GPRMC,165355.000,A,1205.8862,S,07701.4187,W,11.68,24.07,140526,,,A*62,0
1778777636409652209,$GPGGA,165356.000,1205.8831,S,07701.4175,W,1,07,1.0,147.7,M,8.4,M,,0000*6C,0
1778777636531128875,$GPGSA,M,3,21,05,14,17,24,30,11,,,,,,1.8,1.0,1.6*31,0
1778777636696120637,$GPRMC,165356.000,A,1205.8831,S,07701.4175,W,11.36,22.01,140526,,,A*61,0
1778777637414287048,$GPGGA,165357.000,1205.8803,S,07701.4164,W,1,07,1.0,148.0,M,8.4,M,,0000*64,0
1778777637535761010,$GPGSA,M,3,21,05,14,17,24,30,11,,,,,,1.8,1.0,1.6*31,0
1778777637700756975,$GPRMC,165357.000,A,1205.8803,S,07701.4164,W,10.48,22.39,140526,,,A*62,0
1778777638412041581,$GPGGA,165358.000,1205.8777,S,07701.4152,W,1,06,1.6,148.4,M,8.4,M,,0000*61,0
1778777638528919172,$GPGSA,M,3,21,05,14,17,24,30,,,,,,,3.0,1.6,2.6*3E,0
1778777638691632018,$GPRMC,165358.000,A,1205.8777,S,07701.4152,W,9.58,23.85,140526,,,A*5B,0
1778777639416730129,$GPGGA,165359.000,1205.8753,S,07701.4144,W,1,07,1.0,148.3,M,8.4,M,,0000*61,0
1778777639538123583,$GPGSA,M,3,21,05,14,17,24,30,11,,,,,,1.8,1.0,1.6*31,0
1778777639698572756,$GPGSV,3,1,12,21,58,339,42,05,57,276,44,14,32,146,27,17,29,081,24*7D,0
1778777639858984592,$GPGSV,3,2,12,24,16,247,33,30,15,130,25,11,12,348,33,06,01,024,15*70,0
1778777640005644948,$GPGSV,3,3,12,44,42,284,42,28,62,148,,13,45,171,,26,45,141,*72,0
1778777640168372629,$GPRMC,165359.000,A,1205.8753,S,07701.4144,W,8.78,21.86,140526,,,A*59,0
1778777640422136076,$GPGGA,165400.000,1205.8732,S,07701.4138,W,1,07,1.0,148.8,M,8.4,M,,0000*6D,0
1778777640543598296,$GPGSA,M,3,21,05,14,17,24,30,11,,,,,,1.8,1.0,1.6*31,0
1778777640706317421,$GPRMC,165400.000,A,1205.8732,S,07701.4138,W,7.99,17.92,140526,,,A*5E,0
1778777641416345780,$GPGGA,165401.000,1205.8713,S,07701.4135,W,1,07,1.0,149.5,M,8.4,M,,0000*6E,0
1778777641537802500,$GPGSA,M,3,21,05,14,17,24,30,11,,,,,,1.8,1.0,1.6*31,0
1778777641700534144,$GPRMC,165401.000,A,1205.8713,S,07701.4135,W,6.99,12.82,140526,,,A*54,0
1778777642415143707,$GPGGA,165402.000,1205.8693,S,07701.4140,W,1,07,1.0,150.0,M,8.4,M,,0000*6B,0
1778777642536658099,$GPGSA,M,3,21,05,14,17,24,30,11,,,,,,1.8,1.0,1.6*31,0
1778777642701618672,$GPRMC,165402.000,A,1205.8693,S,07701.4140,W,6.95,358.44,140526,,,A*67,0
1778777643415826660,$GPGGA,165403.000,1205.8669,S,07701.4156,W,1,07,1.0,149.8,M,8.4,M,,0000*68,0
1778777643537279435,$GPGSA,M,3,21,05,14,17,24,30,11,,,,,,1.8,1.0,1.6*31,0
1778777643702297199,$GPRMC,165403.000,A,1205.8669,S,07701.4156,W,7.99,339.83,140526,,,A*65,0
1778777644417946988,$GPGGA,165404.000,1205.8658,S,07701.4179,W,1,07,1.0,149.7,M,8.4,M,,0000*6F,0
1778777644539417857,$GPGSA,M,3,21,05,14,17,24,30,11,,,,,,1.8,1.0,1.6*31,0
1778777644699844898,$GPGSV,3,1,12,21,58,339,44,05,57,276,44,14,32,146,45,17,29,081,42*7F,0
1778777644860259475,$GPGSV,3,2,12,24,16,247,33,30,15,130,29,11,12,348,26,06,01,024,14*79,0
1778777645011518666,$GPGSV,3,3,12,13,45,171,33,44,42,284,45,28,62,148,,26,45,141,*75,0
1778777645176527651,$GPRMC,165404.000,A,1205.8658,S,07701.4179,W,8.89,291.11,140526,,,A*6B,0
1778777645417382029,$GPGGA,165405.000,1205.8655,S,07701.4208,W,1,07,1.0,149.8,M,8.4,M,,0000*69,0
1778777645538842805,$GPGSA,M,3,21,05,14,17,24,30,11,,,,,,1.8,1.0,1.6*31,0
1778777645706142021,$GPRMC,165405.000,A,1205.8655,S,07701.4208,W,10.03,278.78,140526,,,A*51,0
1778777646414096225,$GPGGA,165406.000,1205.8652,S,07701.4238,W,1,07,1.0,150.0,M,8.4,M,,0000*6E,0
1778777646535552445,$GPGSA,M,3,21,05,14,17,24,30,11,,,,,,1.8,1.0,1.6*31,0
1778777646702867459,$GPRMC,165406.000,A,1205.8652,S,07701.4238,W,10.62,278.61,140526,,,A*59,0
1778777647414978641,$GPGGA,165407.000,1205.8649,S,07701.4269,W,1,07,1.0,150.1,M,8.4,M,,0000*60,0
1778777647536443566,$GPGSA,M,3,21,05,14,17,24,30,11,,,,,,1.8,1.0,1.6*31,0
1778777647703742949,$GPRMC,165407.000,A,1205.8649,S,07701.4269,W,11.10,276.52,140526,,,A*5C,0
1778777648415023072,$GPGGA,165408.000,1205.8646,S,07701.4301,W,1,07,1.0,150.3,M,8.4,M,,0000*6D,0
1778777648536486589,$GPGSA,M,3,21,05,14,17,24,30,11,,,,,,1.8,1.0,1.6*31,0
1778777648703787232,$GPRMC,165408.000,A,1205.8646,S,07701.4301,W,11.28,276.99,140526,,,A*5F,0
1778777649412996348,$GPGGA,165409.000,1205.8645,S,07701.4333,W,1,06,1.6,150.4,M,8.4,M,,0000*6E,0
1778777649529876180,$GPGSA,M,3,21,05,14,17,24,30,,,,,,,3.1,1.6,2.6*3F,0
1778777649690300610,$GPGSV,3,1,12,21,58,339,45,05,57,276,46,14,32,146,37,17,29,081,46*7D,0
1778777649850704501,$GPGSV,3,2,12,24,16,247,24,30,15,130,35,11,12,348,13,44,42,284,47*7B,0
1778777649992809286,$GPGSV,3,3,12,28,62,148,,13,45,171,,26,45,141,,23,34,076,*7B,0
1778777650160107132,$GPRMC,165409.000,A,1205.8645,S,07701.4333,W,11.02,275.82,140526,,,A*5D,0
1778777650413882395,$GPGGA,165410.000,1205.8643,S,07701.4365,W,1,06,1.6,150.4,M,8.4,M,,0000*63,0
1778777650530739799,$GPGSA,M,3,21,05,14,17,24,30,,,,,,,3.1,1.6,2.6*3F,0
1778777650698046886,$GPRMC,165410.000,A,1205.8643,S,07701.4365,W,11.19,275.77,140526,,,A*50,0
1778777651414552162,$GPGGA,165411.000,1205.8638,S,07701.4396,W,1,06,1.6,150.8,M,8.4,M,,0000*6E,0
1778777651531428419,$GPGSA,M,3,21,05,14,17,24,30,,,,,,,3.1,1.6,2.6*3F,0
1778777651698711245,$GPRMC,165411.000,A,1205.8638,S,07701.4396,W,10.96,278.15,140526,,,A*5E,0
1778777652418141663,$GPGGA,165412.000,1205.8632,S,07701.4426,W,1,07,1.0,151.0,M,8.4,M,,0000*65,0
1778777652539590715,$GPGSA,M,3,21,05,14,17,24,30,11,,,,,,1.8,1.0,1.6*31,0
1778777652706951919,$GPRMC,165412.000,A,1205.8632,S,07701.4426,W,10.32,282.64,140526,,,A*56,0
1778777653415468601,$GPGGA,165413.000,1205.8626,S,07701.4453,W,1,07,1.0,150.8,M,8.4,M,,0000*6A,0
1778777653536944100,$GPGSA,M,3,21,05,14,17,24,30,11,,,,,,1.8,1.0,1.6*31,0
1778777653701950326,$GPRMC,165413.000,A,1205.8626,S,07701.4453,W,9.85,283.38,140526,,,A*6C,0
1778777654416372445,$GPGGA,165414.000,1205.8622,S,07701.4480,W,1,07,1.0,151.1,M,8.4,M,,0000*6F,0
1778777654537823127,$GPGSA,M,3,21,05,14,17,24,30,11,,,,,,1.8,1.0,1.6*31,0
1778777654698232556,$GPGSV,3,1,12,21,58,339,46,05,57,276,46,14,32,146,39,17,29,081,46*70,0
1778777654858670135,$GPGSV,3,2,12,24,16,247,24,30,15,130,38,11,12,348,28,44,42,284,47*7E,0
1778777655000764160,$GPGSV,3,3,12,28,62,148,,13,45,171,,26,45,141,,23,34,076,*7B,0
1778777655165772867,$GPRMC,165414.000,A,1205.8622,S,07701.4480,W,9.41,281.81,140526,,,A*69,0
1778777655416621191,$GPGGA,165415.000,1205.8621,S,07701.4505,W,1,07,1.0,151.5,M,8.4,M,,0000*65,0
1778777655538076281,$GPGSA,M,3,21,05,14,17,24,30,11,,,,,,1.8,1.0,1.6*31,0
1778777655703078507,$GPRMC,165415.000,A,1205.8621,S,07701.4505,W,8.86,274.39,140526,,,A*64,0
1778777656413738795,$GPGGA,165416.000,1205.8625,S,07701.4528,W,1,07,1.0,152.1,M,8.4,M,,0000*6A,0
1778777656535202423,$GPGSA,M,3,21,05,14,17,24,30,11,,,,,,1.8,1.0,1.6*31,0
1778777656700205037,$GPRMC,165416.000,A,1205.8625,S,07701.4528,W,8.37,256.60,140526,,,A*6A,0
1778777657413585004,$GPGGA,165417.000,1205.8636,S,07701.4548,W,1,07,1.0,152.8,M,8.4,M,,0000*66,0
1778777657535042483,$GPGSA,M,3,21,05,14,17,24,30,11,,,,,,1.8,1.0,1.6*31,0
1778777657700045672,$GPRMC,165417.000,A,1205.8636,S,07701.4548,W,8.46,235.75,140526,,,A*68,0
1778777658413846733,$GPGGA,165418.000,1205.8654,S,07701.4564,W,1,07,1.0,153.2,M,8.4,M,,0000*68,0
1778777658535375682,$GPGSA,M,3,21,05,14,17,24,30,11,,,,,,1.8,1.0,1.6*31,0
1778777658700298474,$GPRMC,165418.000,A,1205.8654,S,07701.4564,W,8.49,225.53,140526,,,A*67,0
1778777659413470218,$GPGGA,165419.000,1205.8677,S,07701.4577,W,1,07,1.0,153.4,M,8.4,M,,0000*6C,0
1778777659534930308,$GPGSA,M,3,21,05,14,17,24,30,11,,,,,,1.8,1.0,1.6*31,0
1778777659695348608,$GPGSV,3,1,12,21,58,339,46,05,57,276,30,14,32,146,40,17,29,081,42*7B,0
1778777659855774446,$GPGSV,3,2,12,24,16,247,24,30,15,130,32,11,12,348,23,44,42,284,22*7C,0
1778777659997873711,$GPGSV,3,3,12,28,62,148,,13,45,171,,26,45,141,,23,34,076,*7B,0
1778777660162887382,$GPRMC,165419.000,A,1205.8677,S,07701.4577,W,9.28,212.74,140526,,,A*62,0
1778777660409347762,$GPGGA,165420.000,1205.8704,S,07701.4587,W,1,06,1.5,153.8,M,8.4,M,,0000*64,0
1778777660526237873,$GPGSA,M,3,21,05,14,17,30,11,,,,,,,2.5,1.5,2.0*39,0
1778777660691234061,$GPRMC,165420.000,A,1205.8704,S,07701.4587,W,9.83,203.64,140526,,,A*62,0
1778777661406488498,$GPGGA,165421.000,1205.8726,S,07701.4597,W,1,05,2.8,153.9,M,8.4,M,,0000*68,0
1778777661518774903,$GPGSA,M,3,21,05,14,17,30,,,,,,,,7.4,2.8,6.9*3E,0
1778777661683782555,$GPRMC,165421.000,A,1205.8726,S,07701.4597,W,9.66,203.08,140526,,,A*63,0
1778777662407366395,$GPGGA,165422.000,1205.8747,S,07701.4606,W,1,05,2.8,153.9,M,8.4,M,,0000*67,0
1778777662519655208,$GPGSA,M,3,21,05,14,17,30,,,,,,,,7.4,2.8,6.9*3E,0
1778777662684660934,$GPRMC,165422.000,A,1205.8747,S,07701.4606,W,9.05,205.76,140526,,,A*66,0
1778777663408306502,$GPGGA,165423.000,1205.8768,S,07701.4616,W,1,05,2.8,153.9,M,8.4,M,,0000*6A,0
1778777663520591630,$GPGSA,M,3,21,05,14,17,30,,,,,,,,7.4,2.8,6.9*3E,0
1778777663685545962,$GPRMC,165423.000,A,1205.8768,S,07701.4616,W,9.35,205.76,140526,,,A*68,0
1778777664410379844,$GPGGA,165424.000,1205.8787,S,07701.4628,W,1,05,2.8,153.9,M,8.4,M,,0000*61,0
1778777664522656082,$GPGSA,M,3,05,21,14,17,30,,,,,,,,7.4,2.8,6.9*3E,0
1778777664683084901,$GPGSV,3,1,12,05,57,278,31,21,57,340,46,14,31,147,31,17,30,083,30*7E,0
1778777664843536685,$GPGSV,3,2,12,30,15,129,26,06,01,025,16,11,11,349,20,24,16,246,24*7E,0
1778777664985607041,$GPGSV,3,3,12,44,42,284,,28,61,149,,13,46,170,,26,45,139,*7B,0
1778777665150630805,$GPRMC,165424.000,A,1205.8787,S,07701.4628,W,9.11,207.27,140526,,,A*63,0
1778777665409187808,$GPGGA,165425.000,1205.8807,S,07701.4642,W,1,05,2.8,153.9,M,8.4,M,,0000*6B,0
1778777665521461065,$GPGSA,M,3,05,21,14,17,30,,,,,,,,7.4,2.8,6.9*3E,0
1778777665686478050,$GPRMC,165425.000,A,1205.8807,S,07701.4642,W,9.06,208.19,140526,,,A*6D,0
1778777666410906025,$GPGGA,165426.000,1205.8832,S,07701.4664,W,1,05,2.8,153.9,M,8.4,M,,0000*6A,0
1778777666523200060,$GPGSA,M,3,05,21,14,17,30,,,,,,,,7.4,2.8,6.9*3E,0
1778777666690484998,$GPRMC,165426.000,A,1205.8832,S,07701.4664,W,10.37,213.01,140526,,,A*55,0
1778777667412823759,$GPGGA,165427.000,1205.8857,S,07701.4686,W,1,06,1.6,153.8,M,8.4,M,,0000*6B,0
1778777667529696572,$GPGSA,M,3,05,21,14,17,24,30,,,,,,,3.1,1.6,2.6*3F,0
1778777667696989269,$GPRMC,165427.000,A,1205.8857,S,07701.4686,W,10.62,214.16,140526,,,A*5A,0
1778777668410571088,$GPGGA,165428.000,1205.8883,S,07701.4706,W,1,05,2.8,153.7,M,8.4,M,,0000*65,0
1778777668522865976,$GPGSA,M,3,05,21,14,17,30,,,,,,,,7.4,2.8,6.9*3E,0
1778777668690155617,$GPRMC,165428.000,A,1205.8883,S,07701.4706,W,10.44,211.35,140526,,,A*55,0
1778777669412502546,$GPGGA,165429.000,1205.8912,S,07701.4726,W,1,06,1.6,153.8,M,8.4,M,,0000*6E,0
1778777669529368210,$GPGSA,M,3,05,21,14,17,24,30,,,,,,,3.1,1.6,2.6*3F,0
1778777669689787381,$GPGSV,3,1,12,05,57,278,48,21,57,340,34,14,31,147,30,17,30,083,33*77,0
1778777669850212088,$GPGSV,3,2,12,24,16,246,27,30,15,129,27,06,01,025,12,44,42,284,35*7A,0
1778777669992301724,$GPGSV,3,3,12,28,61,149,,13,46,170,,26,45,139,,23,33,074,*71,0
1778777670159611589,$GPRMC,165429.000,A,1205.8912,S,07701.4726,W,11.02,210.93,140526,,,A*51,0
1778777670412531254,$GPGGA,165430.000,1205.8944,S,07701.4745,W,1,06,1.6,153.7,M,8.4,M,,0000*6F,0
1778777670529407141,$GPGSA,M,3,05,21,14,17,24,30,,,,,,,3.1,1.6,2.6*3F,0
1778777670696707839,$GPRMC,165430.000,A,1205.8944,S,07701.4745,W,11.34,208.62,140526,,,A*5D,0
1778777671413420800,$GPGGA,165431.000,1205.9002,S,07701.4773,W,1,06,1.6,150.4,M,8.4,M,,0000*61,0
1778777671530286261,$GPGSA,M,3,05,21,14,17,24,30,,,,,,,3.1,1.6,2.6*3F,0
1778777671697590533,$GPRMC,165431.000,A,1205.9002,S,07701.4773,W,12.40,206.13,140526,,,A*5B,0
1778777672412219616,$GPGGA,165432.000,1205.9045,S,07701.4794,W,1,06,1.6,148.7,M,8.4,M,,0000*62,0
1778777672529096781,$GPGSA,M,3,05,21,14,17,24,30,,,,,,,3.1,1.6,2.7*3E,0
1778777672696389812,$GPRMC,165432.000,A,1205.9045,S,07701.4794,W,12.33,205.48,140526,,,A*5B,0
1778777673415394764,$GPGGA,165433.000,1205.9083,S,07701.4809,W,1,07,1.0,147.7,M,8.4,M,,0000*6A,0
1778777673536854873,$GPGSA,M,3,05,21,14,17,24,30,11,,,,,,1.8,1.0,1.6*31,0
1778777673704160664,$GPRMC,165433.000,A,1205.9083,S,07701.4809,W,12.43,205.16,140526,,,A*57,0
1778777674415019860,$GPGGA,165434.000,1205.9118,S,07701.4821,W,1,07,1.0,146.4,M,8.4,M,,0000*66,0
1778777674536524658,$GPGSA,M,3,05,21,14,17,24,30,11,,,,,,1.8,1.0,1.6*31,0
1778777674696944865,$GPGSV,3,1,12,05,57,278,47,21,57,340,43,14,31,147,40,17,30,083,40*7B,0
1778777674857350293,$GPGSV,3,2,12,24,16,246,41,30,15,129,25,11,11,349,15,44,42,284,43*70,0
1778777674999426205,$GPGSV,3,3,12,28,61,149,,13,46,170,,26,45,139,,23,33,074,*71,0
1778777675166718939,$GPRMC,165434.000,A,1205.9118,S,07701.4821,W,12.38,204.75,140526,,,A*51,0
1778777675415500831,$GPGGA,165435.000,1205.9149,S,07701.4836,W,1,07,1.0,144.9,M,8.4,M,,0000*6A,0
1778777675536941568,$GPGSA,M,3,05,21,14,17,24,30,11,,,,,,1.8,1.0,1.6*31,0
1778777675704241951,$GPRMC,165435.000,A,1205.9149,S,07701.4836,W,11.81,206.48,140526,,,A*5F,0
1778777676416585007,$GPGGA,165436.000,1205.9179,S,07701.4846,W,1,07,1.0,143.6,M,8.4,M,,0000*65,0
1778777676538045616,$GPGSA,M,3,05,21,14,17,24,30,11,,,,,,1.8,1.0,1.6*31,0
1778777676705345555,$GPRMC,165436.000,A,1205.9179,S,07701.4846,W,12.03,205.40,140526,,,A*5A,0
1778777677415794416,$GPGGA,165437.000,1205.9211,S,07701.4859,W,1,07,1.0,143.1,M,8.4,M,,0000*60,0
1778777677537247136,$GPGSA,M,3,05,21,14,17,24,30,11,,,,,,1.8,1.0,1.6*31,0
1778777677704551186,$GPRMC,165437.000,A,1205.9211,S,07701.4859,W,12.26,204.83,140526,,,A*51,0
1778777678415014308,$GPGGA,165438.000,1205.9245,S,07701.4873,W,1,06,1.0,142.8,M,8.4,M,,0000*6F,0
1778777678531883954,$GPGSA,M,3,05,21,14,17,24,11,,,,,,,2.0,1.0,1.7*38,0
1778777678699182948,$GPRMC,165438.000,A,1205.9245,S,07701.4873,W,12.74,205.07,140526,,,A*5D,0
1778777679414224384,$GPGGA,165439.000,1205.9281,S,07701.4887,W,1,07,1.0,142.8,M,8.4,M,,0000*6C,0
1778777679535670621,$GPGSA,M,3,05,21,14,17,24,30,11,,,,,,1.8,1.0,1.6*31,0
1778777679696111627,$GPGSV,3,1,12,05,57,278,41,21,57,340,43,14,31,147,38,17,30,083,35*70,0
1778777679856565207,$GPGSV,3,2,12,24,16,246,37,30,15,129,21,11,11,349,17,44,42,284,40*74,0
1778777679998617691,$GPGSV,3,3,12,28,61,149,,13,46,170,,26,45,139,,23,33,074,*71,0
1778777680165916852,$GPRMC,165439.000,A,1205.9281,S,07701.4887,W,12.93,204.54,140526,,,A*51,0
1778777680412180769,$GPGGA,165440.000,1205.9316,S,07701.4900,W,1,06,1.6,143.1,M,8.4,M,,0000*6C,0
1778777680529115328,$GPGSA,M,3,05,21,14,17,24,30,,,,,,,3.1,1.6,2.7*3E,0
1778777680696359595,$GPRMC,165440.000,A,1205.9316,S,07701.4900,W,12.62,204.91,140526,,,A*59,0
1778777681418693171,$GPGGA,165441.000,1205.9351,S,07701.4913,W,1,06,1.6,143.4,M,8.4,M,,0000*69,0
1778777681535579911,$GPGSA,M,3,05,21,14,17,24,30,,,,,,,3.1,1.6,2.7*3E,0
1778777681702889925,$GPRMC,165441.000,A,1205.9351,S,07701.4913,W,12.39,204.65,140526,,,A*5C,0
1778777682417307914,$GPGGA,165442.000,1205.9384,S,07701.4926,W,1,06,1.6,143.4,M,8.4,M,,0000*64,0
1778777682534202043,$GPGSA,M,3,05,21,14,17,24,30,,,,,,,3.1,1.6,2.7*3E,0
1778777682701468998,$GPRMC,165442.000,A,1205.9384,S,07701.4926,W,12.49,204.97,140526,,,A*5B,0
1778777683416308433,$GPGGA,165443.000,1205.9417,S,07701.4939,W,1,06,1.6,143.3,M,8.4,M,,0000*61,0
1778777683533164745,$GPGSA,M,3,05,21,14,17,24,30,,,,,,,3.1,1.6,2.7*3E,0
1778777683700493334,$GPRMC,165443.000,A,1205.9417,S,07701.4939,W,12.26,205.40,140526,,,A*5B,0
1778777684417590739,$GPGGA,165444.000,1205.9448,S,07701.4952,W,1,07,1.0,143.2,M,8.4,M,,0000*67,0
1778777684539050107,$GPGSA,M,3,05,21,14,17,24,30,11,,,,,,1.8,1.0,1.6*31,0
1778777684699489927,$GPGSV,3,1,12,05,57,278,42,21,57,340,36,14,31,147,20,17,30,083,37*7A,0
1778777684859899782,$GPGSV,3,2,12,24,16,246,23,30,15,129,22,11,11,349,26,13,46,170,31*78,0
1778777685006564323,$GPGSV,3,3,12,44,42,284,37,28,61,149,,26,45,139,,23,33,074,*7B,0
1778777685173871114,$GPRMC,165444.000,A,1205.9448,S,07701.4952,W,11.94,204.62,140526,,,A*50,0
1778777685413915676,$GPGGA,165445.000,1205.9478,S,07701.4966,W,1,06,1.0,143.2,M,8.4,M,,0000*63,0
1778777685530767913,$GPGSA,M,3,05,21,14,17,24,11,,,,,,,2.0,1.0,1.7*38,0
1778777685698072167,$GPRMC,165445.000,A,1205.9478,S,07701.4966,W,11.78,204.05,140526,,,A*56,0
1778777686414164941,$GPGGA,165446.000,1205.9507,S,07701.4979,W,1,06,1.0,143.2,M,8.4,M,,0000*67,0
1778777686531023419,$GPGSA,M,3,05,21,14,17,24,11,,,,,,,2.0,1.0,1.7*38,0
1778777686698318765,$GPRMC,165446.000,A,1205.9507,S,07701.4979,W,11.42,204.67,140526,,,A*5F,0
1778777687414402705,$GPGGA,165447.000,1205.9534,S,07701.4993,W,1,06,1.0,143.1,M,8.4,M,,0000*61,0
1778777687531268406,$GPGSA,M,3,05,21,14,17,24,11,,,,,,,2.0,1.0,1.7*38,0
1778777687698587050,$GPRMC,165447.000,A,1205.9534,S,07701.4993,W,10.95,205.67,140526,,,A*50,0
1778777688417150387,$GPGGA,165448.000,1205.9559,S,07701.5005,W,1,07,1.0,143.1,M,8.4,M,,0000*63,0
1778777688538672613,$GPGSA,M,3,05,21,14,17,24,30,11,,,,,,1.8,1.0,1.6*31,0
1778777688703629834,$GPRMC,165448.000,A,1205.9559,S,07701.5005,W,9.84,205.44,140526,,,A*6A,0
1778777689416574150,$GPGGA,165449.000,1205.9580,S,07701.5016,W,1,07,1.0,143.0,M,8.4,M,,0000*65,0
1778777689538042704,$GPGSA,M,3,05,21,14,17,24,30,11,,,,,,1.8,1.0,1.6*31,0
1778777689698459466,$GPGSV,3,1,12,05,57,278,37,21,57,340,37,14,31,147,24,17,30,083,19*71,0
1778777689858893990,$GPGSV,3,2,12,24,16,246,18,30,15,129,13,11,11,349,30,13,46,170,22*77,0
1778777690005561902,$GPGSV,3,3,12,44,42,284,35,28,61,149,,26,45,139,,23,33,074,*79,0
1778777690170574814,$GPRMC,165449.000,A,1205.9580,S,07701.5016,W,8.42,205.45,140526,,,A*67,0
1778777690416826378,$GPGGA,165450.000,1205.9595,S,07701.5026,W,1,07,1.0,142.9,M,8.4,M,,0000*62,0
1778777690538299507,$GPGSA,M,3,05,21,14,17,24,30,11,,,,,,1.8,1.0,1.6*31,0
1778777690703320326,$GPRMC,165450.000,A,1205.9595,S,07701.5026,W,6.71,208.71,140526,,,A*6C,0
1778777691416888366,$GPGGA,165451.000,1205.9606,S,07701.5032,W,1,07,1.0,142.8,M,8.4,M,,0000*6E,0
1778777691538406073,$GPGSA,M,3,05,21,14,17,24,30,11,,,,,,1.8,1.0,1.6*31,0
1778777691703351219,$GPRMC,165451.000,A,1205.9606,S,07701.5032,W,5.11,208.16,140526,,,A*65,0
1778777692417619342,$GPGGA,165452.000,1205.9618,S,07701.5037,W,1,07,1.0,142.8,M,8.4,M,,0000*67,0
1778777692539021576,$GPGSA,M,3,05,21,14,17,24,30,11,,,,,,1.8,1.0,1.6*31,0
1778777692704027487,$GPRMC,165452.000,A,1205.9618,S,07701.5037,W,5.19,205.77,140526,,,A*6E,0
1778777693417609880,$GPGGA,165453.000,1205.9633,S,07701.5043,W,1,07,1.0,143.0,M,8.4,M,,0000*65,0
1778777693539075971,$GPGSA,M,3,05,21,14,17,24,30,11,,,,,,1.8,1.0,1.6*31,0
1778777693704081808,$GPRMC,165453.000,A,1205.9633,S,07701.5043,W,6.26,204.88,140526,,,A*6B,0
1778777694415562191,$GPGGA,165454.000,1205.9654,S,07701.5049,W,1,07,1.0,143.2,M,8.4,M,,0000*6B,0
1778777694537028152,$GPGSA,M,3,05,21,14,17,24,30,11,,,,,,1.8,1.0,1.6*31,0
1778777694697448822,$GPGSV,3,1,12,05,57,278,44,21,57,340,44,14,31,147,38,17,30,083,21*77,0
1778777694857875216,$GPGSV,3,2,12,24,16,246,17,30,15,129,34,11,11,349,37,44,42,284,39*7E,0
1778777694999972814,$GPGSV,3,3,12,28,61,149,,13,46,170,,26,45,139,,23,33,074,*71,0
1778777695164977114,$GPRMC,165454.000,A,1205.9654,S,07701.5049,W,7.52,203.90,140526,,,A*6B,0
1778777695416309743,$GPGGA,165455.000,1205.9674,S,07701.5059,W,1,07,1.0,143.2,M,8.4,M,,0000*69,0
1778777695537712846,$GPGSA,M,3,05,21,14,17,24,30,11,,,,,,1.8,1.0,1.6*31,0
1778777695702713405,$GPRMC,165455.000,A,1205.9674,S,07701.5059,W,8.56,205.81,140526,,,A*64,0
1778777696419628348,$GPGGA,165456.000,1205.9694,S,07701.5068,W,1,07,1.0,143.0,M,8.4,M,,0000*64,0
1778777696541083160,$GPGSA,M,3,05,21,14,17,24,30,11,,,,,,1.8,1.0,1.6*31,0
1778777696706085978,$GPRMC,165456.000,A,1205.9694,S,07701.5068,W,8.12,204.35,140526,,,A*65,0
1778777697420717450,$GPGGA,165457.000,1205.9712,S,07701.5075,W,1,07,1.0,142.8,M,8.4,M,,0000*6F,0
1778777697542177948,$GPGSA,M,3,05,21,14,17,24,30,11,,,,,,1.8,1.0,1.6*31,0
1778777697707176395,$GPRMC,165457.000,A,1205.9712,S,07701.5075,W,7.34,198.45,140526,,,A*6D,0
1778777698420557548,$GPGGA,165458.000,1205.9731,S,07701.5077,W,1,07,1.0,142.6,M,8.4,M,,0000*6D,0
1778777698542012249,$GPGSA,M,3,05,21,14,17,24,30,11,,,,,,1.8,1.0,1.6*31,0
1778777698707017400,$GPRMC,165458.000,A,1205.9731,S,07701.5077,W,7.28,192.27,140526,,,A*62,0
1778777699420211924,$GPGGA,165459.000,1205.9753,S,07701.5071,W,1,07,1.0,142.3,M,8.4,M,,0000*6B,0
1778777699541645568,$GPGSA,M,3,05,21,14,17,24,30,11,,,,,,1.8,1.0,1.6*31,0
1778777699702069090,$GPGSV,3,1,12,05,57,278,45,21,57,340,44,14,31,147,42,17,30,083,38*73,0
1778777699862484538,$GPGSV,3,2,12,24,16,246,29,30,15,129,38,11,11,349,35,44,42,284,44*77,0
1778777700004590637,$GPGSV,3,3,12,28,61,149,,13,46,170,,26,45,139,,23,33,074,*71,0
1778777700169584066,$GPRMC,165459.000,A,1205.9753,S,07701.5071,W,7.35,183.55,140526,,,A*68,0
1778777700417939288,$GPGGA,165500.000,1205.9776,S,07701.5054,W,1,07,1.0,142.2,M,8.4,M,,0000*67,0
1778777700539395952,$GPGSA,M,3,05,21,14,17,24,30,11,,,,,,1.8,1.0,1.6*31,0
1778777700704397956,$GPRMC,165500.000,A,1205.9776,S,07701.5054,W,8.33,166.66,140526,,,A*67,0
1778777701422161218,$GPGGA,165501.000,1205.9798,S,07701.5027,W,1,07,1.0,141.8,M,8.4,M,,0000*6B,0
1778777701543616327,$GPGSA,M,3,05,21,14,17,24,30,11,,,,,,1.8,1.0,1.6*31,0
1778777701710921192,$GPRMC,165501.000,A,1205.9798,S,07701.5027,W,10.45,144.23,140526,,,A*5B,0
1778777702422621095,$GPGGA,165502.000,1205.9813,S,07701.4992,W,1,07,1.0,141.4,M,8.4,M,,0000*6E,0
1778777702544074370,$GPGSA,M,3,05,21,14,17,24,30,11,,,,,,1.8,1.0,1.6*31,0
1778777702711382180,$GPRMC,165502.000,A,1205.9813,S,07701.4992,W,11.70,118.85,140526,,,A*50,0
1778777703423916383,$GPGGA,165503.000,1205.9826,S,07701.4955,W,1,07,1.0,141.4,M,8.4,M,,0000*62,0
1778777703545387290,$GPGSA,M,3,05,21,14,17,24,30,11,,,,,,1.8,1.0,1.6*31,0
1778777703712682691,$GPRMC,165503.000,A,1205.9826,S,07701.4955,W,11.97,117.05,140526,,,A*52,0
1778777704422716162,$GPGGA,165504.000,1205.9840,S,07701.4921,W,1,07,1.0,141.5,M,8.4,M,,0000*67,0
1778777704544180327,$GPGSA,M,3,05,21,14,17,24,30,11,,,,,,1.8,1.0,1.6*31,0
1778777704704595534,$GPGSV,3,1,12,05,57,278,45,21,57,340,40,14,31,147,43,17,30,083,29*76,0
1778777704865031168,$GPGSV,3,2,12,24,16,246,20,30,15,129,40,11,11,349,28,44,42,284,46*7F,0
1778777705007117600,$GPGSV,3,3,12,28,61,149,,13,46,170,,26,45,139,,23,33,074,*71,0
1778777705174412760,$GPRMC,165504.000,A,1205.9840,S,07701.4921,W,11.54,116.11,140526,,,A*5D,0
1778777705419653082,$GPGGA,165505.000,1205.9855,S,07701.4890,W,1,06,1.6,141.5,M,8.4,M,,0000*6E,0
1778777705536507190,$GPGSA,M,3,05,21,14,17,24,30,,,,,,,3.1,1.6,2.7*3E,0
1778777705703841428,$GPRMC,165505.000,A,1205.9855,S,07701.4890,W,11.38,116.80,140526,,,A*51,0
1778777706420313497,$GPGGA,165506.000,1205.9868,S,07701.4859,W,1,06,1.6,141.5,M,8.4,M,,0000*66,0
1778777706537195773,$GPGSA,M,3,05,21,14,17,24,30,,,,,,,3.1,1.6,2.7*3E,0
1778777706704485748,$GPRMC,165506.000,A,1205.9868,S,07701.4859,W,11.18,116.86,140526,,,A*5D,0
1778777707420146464,$GPGGA,165507.000,1205.9881,S,07701.4828,W,1,06,1.6,141.6,M,8.4,M,,0000*65,0
1778777707537031907,$GPGSA,M,3,05,21,14,17,24,30,,,,,,,3.1,1.6,2.7*3E,0
1778777707704329883,$GPRMC,165507.000,A,1205.9881,S,07701.4828,W,10.81,115.65,140526,,,A*52,0
1778777708415627601,$GPGGA,165508.000,1205.9894,S,07701.4799,W,1,06,1.6,141.8,M,8.4,M,,0000*65,0
1778777708532530861,$GPGSA,M,3,05,21,14,17,24,30,,,,,,,3.1,1.6,2.7*3E,0
1778777708699786240,$GPRMC,165508.000,A,1205.9894,S,07701.4799,W,10.84,115.63,140526,,,A*5F,0
1778777709420665458,$GPGGA,165509.000,1205.9906,S,07701.4770,W,1,06,1.6,141.9,M,8.4,M,,0000*68,0
1778777709537534845,$GPGSA,M,3,05,21,14,17,24,30,,,,,,,3.1,1.6,2.7*3E,0
1778777709697957034,$GPGSV,3,1,12,05,57,278,45,21,57,340,40,14,31,147,42,17,30,083,30*7F,0
1778777709853867786,$GPGSV,3,2,12,24,16,246,22,30,15,129,39,44,42,284,45,28,61,149,*75,0
1778777709995897582,$GPGSV,3,3,12,13,46,170,,26,45,139,,23,33,074,,16,29,146,*7F,0
1778777710163196280,$GPRMC,165509.000,A,1205.9906,S,07701.4770,W,10.08,115.99,140526,,,A*52,0
1778777710423415715,$GPGGA,165510.000,1205.9917,S,07701.4744,W,1,07,1.0,142.0,M,8.4,M,,0000*6A,0
1778777710544900122,$GPGSA,M,3,05,21,14,17,24,30,11,,,,,,1.8,1.0,1.6*31,0
1778777710709898125,$GPRMC,165510.000,A,1205.9917,S,07701.4744,W,9.51,114.12,140526,,,A*6B,0
1778777711424101650,$GPGGA,165511.000,1205.9927,S,07701.4718,W,1,07,1.0,142.1,M,8.4,M,,0000*60,0
1778777711545555388,$GPGSA,M,3,05,21,14,17,24,30,11,,,,,,1.8,1.0,1.6*31,0
1778777711710586134,$GPRMC,165511.000,A,1205.9927,S,07701.4718,W,9.50,114.28,140526,,,A*68,0
1778777712423937914,$GPGGA,165512.000,1205.9937,S,07701.4691,W,1,07,1.0,142.2,M,8.4,M,,0000*61,0
1778777712545391763,$GPGSA,M,3,05,21,14,17,24,30,11,,,,,,1.8,1.0,1.6*31,0
1778777712710406749,$GPRMC,165512.000,A,1205.9937,S,07701.4691,W,9.74,114.20,140526,,,A*64,0
1778777713424395865,$GPGGA,165513.000,1205.9948,S,07701.4666,W,1,07,1.0,142.2,M,8.4,M,,0000*60,0
1778777713545871475,$GPGSA,M,3,05,21,14,17,24,30,11,,,,,,1.8,1.0,1.6*31,0
1778777713710869348,$GPRMC,165513.000,A,1205.9948,S,07701.4666,W,9.56,114.14,140526,,,A*62,0
1778777714420717783,$GPGGA,165514.000,1205.9958,S,07701.4641,W,1,06,1.6,142.4,M,8.4,M,,0000*62,0
1778777714537574058,$GPGSA,M,3,05,21,14,17,24,30,,,,,,,3.1,1.6,2.7*3E,0
1778777714698028953,$GPGSV,3,1,12,05,57,278,45,21,57,340,42,14,31,147,37,17,30,083,30*7F,0
1778777714858433233,$GPGSV,3,2,12,24,16,246,35,30,15,129,32,06,01,025,10,13,46,170,30*74,0
1778777715005108480,$GPGSV,3,3,12,44,42,284,47,28,61,149,,26,45,139,,23,33,074,*7C,0
1778777715170150208,$GPRMC,165514.000,A,1205.9958,S,07701.4641,W,9.15,114.42,140526,,,A*65,0
1778777715421212275,$GPGGA,165515.000,1205.9968,S,07701.4617,W,1,06,1.6,142.8,M,8.4,M,,0000*6F,0
1778777715538034879,$GPGSA,M,3,05,21,14,17,24,30,,,,,,,3.1,1.6,2.7*3E,0
1778777715703051587,$GPRMC,165515.000,A,1205.9968,S,07701.4617,W,8.73,113.64,140526,,,A*66,1
1778777716420792459,$GPGGA,165516.000,1205.9978,S,07701.4594,W,1,06,1.6,143.0,M,8.4,M,,0000*6C,1
1778777716537677625,$GPGSA,M,3,05,21,14,17,24,30,,,,,,,3.1,1.6,2.7*3E,1
1778777716702675906,$GPRMC,165516.000,A,1205.9978,S,07701.4594,W,7.86,116.51,140526,,,A*6A,1
1778777717422944586,$GPGGA,165517.000,1205.9989,S,07701.4578,W,1,06,1.6,142.8,M,8.4,M,,0000*68,1
1778777717539803583,$GPGSA,M,3,05,21,14,17,24,30,,,,,,,3.1,1.6,2.7*3E,1
1778777717704812494,$GPRMC,165517.000,A,1205.9989,S,07701.4578,W,6.03,122.32,140526,,,A*69,1
1778777718421940346,$GPGGA,165518.000,1205.9997,S,07701.4568,W,1,06,1.6,142.8,M,8.4,M,,0000*69,1
1778777718538804361,$GPGSA,M,3,05,21,14,17,24,30,,,,,,,3.1,1.6,2.7*3E,1
1778777718703809754,$GPRMC,165518.000,A,1205.9997,S,07701.4568,W,3.60,122.91,140526,,,A*61,1
1778777719417603240,$GPGGA,165519.000,1206.0001,S,07701.4564,W,1,06,1.6,142.8,M,8.4,M,,0000*68,1
1778777719534487740,$GPGSA,M,3,05,21,14,17,24,30,,,,,,,3.1,1.6,2.7*3E,1
1778777719694898279,$GPGSV,3,1,12,05,57,278,45,21,57,340,43,14,31,147,40,17,30,083,28*77,1
1778777719855328173,$GPGSV,3,2,12,24,16,246,23,30,15,129,40,13,46,170,41,44,42,284,46*7B,1
1778777719997424420,$GPGSV,3,3,12,28,61,149,,26,45,139,,23,33,074,,16,29,146,*78,1
1778777720162425071,$GPRMC,165519.000,A,1206.0001,S,07701.4564,W,1.12,122.91,140526,,,A*67,1
1778777720425429505,$GPGGA,165520.000,1206.0001,S,07701.4564,W,1,06,1.6,142.8,M,8.4,M,,0000*62,1
1778777720542228626,$GPGSA,M,3,05,21,14,17,24,30,,,,,,,3.1,1.6,2.7*3E,1
1778777720707249871,$GPRMC,165520.000,A,1206.0001,S,07701.4564,W,0.04,122.91,140526,,,A*6B,1
1778777721422912624,$GPGGA,165521.000,1206.0001,S,07701.4564,W,1,06,1.6,142.8,M,8.4,M,,0000*63,1
1778777721539779048,$GPGSA,M,3,05,21,14,17,24,30,,,,,,,3.1,1.6,2.7*3E,1
1778777721704793793,$GPRMC,165521.000,A,1206.0001,S,07701.4564,W,0.02,122.91,140526,,,A*6C,1
1778777722422132664,$GPGGA,165522.000,1206.0001,S,07701.4564,W,1,06,1.6,142.8,M,8.4,M,,0000*60,1
1778777722538994291,$GPGSA,M,3,05,21,14,17,24,30,,,,,,,3.1,1.6,2.7*3E,1
1778777722704008962,$GPRMC,165522.000,A,1206.0001,S,07701.4564,W,0.01,122.91,140526,,,A*6C,1
