Unix_time,GPS_data,flagStop
1778777001889626160,$GPGGA,164240.000,1205.9922,S,07701.4552,W,1,05,2.5,146.7,M,8.4,M,,0000*6D,0
1778777001890418252,$GPGSA,M,3,21,05,14,17,30,,,,,,,,6.4,2.5,5.9*31,0
1778777001890925633,$GPRMC,164240.000,A,1205.9922,S,07701.4552,W,0.00,279.82,140526,,,A*67,0
1778777001891674443,$GPGGA,164241.000,1205.9922,S,07701.4552,W,1,05,2.5,146.7,M,8.4,M,,0000*6C,0
1778777001892466887,$GPGSA,M,3,21,05,14,17,30,,,,,,,,6.4,2.5,5.9*31,0
1778777001892963674,$GPRMC,164241.000,A,1205.9922,S,07701.4552,W,0.00,279.82,140526,,,A*66,0
1778777001893696168,$GPGGA,164242.000,1205.9922,S,07701.4552,W,1,05,2.5,146.7,M,8.4,M,,0000*6F,0
1778777001894476370,$GPGSA,M,3,21,05,14,17,30,,,,,,,,6.4,2.5,5.9*31,0
1778777001894974138,$GPRMC,164242.000,A,1205.9922,S,07701.4552,W,0.00,279.82,140526,,,A*65,0
1778777001895701947,$GPGGA,164243.000,1205.9922,S,07701.4552,W,1,05,2.5,146.7,M,8.4,M,,0000*6E,0
1778777001896486557,$GPGSA,M,3,21,05,14,17,30,,,,,,,,6.4,2.5,5.9*31,0
1778777001896981047,$GPRMC,164243.000,A,1205.9922,S,07701.4552,W,0.00,279.82,140526,,,A*64,0
1778777001897707744,$GPGGA,164244.000,1205.9922,S,07701.4552,W,1,05,2.6,146.7,M,8.4,M,,0000*6A,0
1778777001898475556,$GPGSA,M,3,21,05,14,17,30,,,,,,,,6.4,2.6,5.9*32,0
1778777001898969787,$GPGSV,3,1,12,21,63,333,46,05,57,265,28,14,36,146,32,17,29,076,45*7C,0
1778777001899668463,$GPGSV,3,2,12,30,17,134,37,11,13,344,17,13,42,177,20,24,38,197,15*7A,0
1778777001900371362,$GPGSV,3,3,12,50,00,000,,28,67,143,,26,43,147,,23,35,082,*7E,0
1778777001900983696,$GPRMC,164244.000,A,1205.9922,S,07701.4552,W,0.00,279.82,140526,,,A*63,0
1778777001901694170,$GPGGA,164245.000,1205.9922,S,07701.4552,W,1,05,2.6,146.7,M,8.4,M,,0000*6B,0
1778777001902440591,$GPGSA,M,3,21,05,14,17,30,,,,,,,,6.4,2.6,5.9*32,0
1778777001902921395,$GPRMC,164245.000,A,1205.9922,S,07701.4552,W,0.00,279.82,140526,,,A*62,0
1778777001903630276,$GPGGA,164246.000,1205.9922,S,07701.4552,W,1,05,2.6,146.7,M,8.4,M,,0000*68,0
1778777001904316173,$GPGSA,M,3,21,05,14,17,30,,,,,,,,6.4,2.6,5.9*32,0
1778777001904409218,$GPRMC,164246.000,A,1205.9922,S,07701.4552,W,0.00,279.82,140526,,,A*61,0
1778777001904544157,$GPGGA,164247.000,1205.9922,S,07701.4552,W,1,05,2.6,146.7,M,8.4,M,,0000*69,0
1778777001904687133,$GPGSA,M,3,21,05,14,17,30,,,,,,,,6.4,2.6,5.9*32,0
1778777001904779864,$GPRMC,164247.000,A,1205.9922,S,07701.4552,W,0.00,279.82,140526,,,A*60,0
1778777001904915525,$GPGGA,164248.000,1205.9922,S,07701.4552,W,1,05,2.6,146.7,M,8.4,M,,0000*66,0
1778777001905058649,$GPGSA,M,3,21,05,14,17,30,,,,,,,,6.4,2.6,5.9*32,0
1778777001905151287,$GPRMC,164248.000,A,1205.9922,S,07701.4552,W,0.00,279.82,140526,,,A*6F,0
1778777001905287152,$GPGGA,164249.000,1205.9922,S,07701.4552,W,1,05,2.6,146.7,M,8.4,M,,0000*67,0
1778777001905430424,$GPGSA,M,3,21,05,14,17,30,,,,,,,,6.4,2.6,5.9*32,0
1778777001905523155,$GPGSV,3,1,12,21,63,333,46,05,57,265,30,14,36,146,32,17,29,076,45*75,0
1778777001905655038,$GPGSV,3,2,12,30,17,134,37,11,13,344,18,13,42,177,20,24,38,197,18*78,0
1778777001905787106,$GPGSV,3,3,12,50,00,000,,28,67,143,,26,43,147,,23,35,082,*7E,0
1778777001905904079,$GPRMC,164249.000,A,1205.9922,S,07701.4552,W,0.00,279.82,140526,,,A*6E,0
1778777001906039944,$GPGGA,164250.000,1205.9922,S,07701.4552,W,1,05,2.6,146.7,M,8.4,M,,0000*6F,0
1778777001906183235,$GPGSA,M,3,21,05,14,17,30,,,,,,,,6.4,2.6,5.9*32,0
1778777001906275818,$GPRMC,164250.000,A,1205.9922,S,07701.4552,W,0.00,279.82,140526,,,A*66,0
1778777001906411682,$GPGGA,164251.000,1205.9922,S,07701.4552,W,1,05,2.6,146.7,M,8.4,M,,0000*6E,0
1778777001906554992,$GPGSA,M,3,21,05,14,17,30,,,,,,,,6.4,2.6,5.9*32,0
1778777001906647667,$GPRMC,164251.000,A,1205.9922,S,07701.4552,W,0.00,279.82,140526,,,A*67,0
1778777001906783531,$GPGGA,164252.000,1205.9922,S,07701.4552,W,1,05,2.6,146.7,M,8.4,M,,0000*6D,0
1778777001906926971,$GPGSA,M,3,21,05,14,17,30,,,,,,,,6.4,2.6,5.9*32,0
1778777001907019442,$GPRMC,164252.000,A,1205.9922,S,07701.4552,W,0.00,279.82,140526,,,A*64,0
1778777001907154862,$GPGGA,164253.000,1205.9922,S,07701.4552,W,1,05,2.6,146.7,M,8.4,M,,0000*6C,0
1778777001907297431,$GPGSA,M,3,21,05,14,17,30,,,,,,,,6.5,2.6,5.9*33,0
1778777001907493153,$GPRMC,164253.000,A,1205.9922,S,07701.4552,W,0.00,279.82,140526,,,A*65,0
1778777001907630240,$GPGGA,164254.000,1205.9922,S,07701.4552,W,1,05,2.6,146.7,M,8.4,M,,0000*6B,0
1778777001907774216,$GPGSA,M,3,21,05,14,17,30,,,,,,,,6.5,2.6,5.9*33,0
1778777001907867484,$GPGSV,3,1,12,21,63,333,46,05,57,265,34,14,36,146,32,17,29,076,45*71,0
1778777001908000515,$GPGSV,3,2,12,30,17,134,37,11,13,344,18,13,42,177,16,24,38,197,23*75,0
1778777001908133972,$GPGSV,3,3,12,50,00,000,,28,67,143,,26,43,147,,23,35,082,*7E,0
1778777001908278911,$GPRMC,164254.000,A,1205.9922,S,07701.4552,W,0.00,279.82,140526,,,A*62,0
1778777001908428851,$GPGGA,164255.000,1205.9922,S,07701.4552,W,1,05,2.6,146.7,M,8.4,M,,0000*6A,0
1778777001908584902,$GPGSA,M,3,21,05,14,17,30,,,,,,,,6.5,2.6,5.9*33,0
1778777001908686708,$GPRMC,164255.000,A,1205.9922,S,07701.4552,W,0.00,279.82,140526,,,A*63,0
1778777001908841741,$GPGGA,164256.000,1205.9922,S,07701.4552,W,1,05,2.6,146.7,M,8.4,M,,0000*69,0
1778777001909004497,$GPGSA,M,3,21,05,14,17,30,,,,,,,,6.5,2.6,5.9*33,0
1778777001909111525,$GPRMC,164256.000,A,1205.9922,S,07701.4552,W,0.00,279.82,140526,,,A*60,0
1778777001909265132,$GPGGA,164257.000,1205.9922,S,07701.4552,W,1,05,2.6,146.7,M,8.4,M,,0000*68,0
1778777001909809572,$GPGSA,M,3,21,05,14,17,30,,,,,,,,6.5,2.6,5.9*33,0
1778777001910285153,$GPRMC,164257.000,A,1205.9922,S,07701.4552,W,0.00,279.82,140526,,,A*61,0
1778777001910984033,$GPGGA,164258.000,1205.9922,S,07701.4552,W,1,05,2.6,146.7,M,8.4,M,,0000*67,0
1778777001911723472,$GPGSA,M,3,21,05,14,17,30,,,,,,,,6.5,2.6,5.9*33,0
1778777001912198294,$GPRMC,164258.000,A,1205.9922,S,07701.4552,W,0.00,279.82,140526,,,A*6E,0
1778777001912603276,$GPGGA,164259.000,1205.9922,S,07701.4552,W,1,05,2.6,146.7,M,8.4,M,,0000*66,0
1778777001912748159,$GPGSA,M,3,21,05,14,17,30,,,,,,,,6.5,2.6,5.9*33,0
1778777001912841001,$GPGSV,3,1,12,21,63,333,46,05,57,265,35,14,36,146,32,17,29,076,45*70,0
1778777001912974236,$GPGSV,3,2,12,30,17,134,37,06,02,020,19,11,13,344,19,13,42,177,18*77,0
1778777001913107341,$GPGSV,3,3,12,24,38,197,17,50,00,000,,28,67,143,,26,43,147,*77,0
1778777001913229000,$GPRMC,164259.000,A,1205.9922,S,07701.4552,W,0.00,279.82,140526,,,A*6F,0
1778777001913365809,$GPGGA,164300.000,1205.9922,S,07701.4552,W,1,05,2.6,146.7,M,8.4,M,,0000*6B,0
1778777001913510341,$GPGSA,M,3,21,05,14,17,30,,,,,,,,6.5,2.6,5.9*33,0
1778777001913604776,$GPRMC,164300.000,A,1205.9922,S,07701.4552,W,0.00,279.82,140526,,,A*62,0
1778777001913741752,$GPGGA,164301.000,1205.9922,S,07701.4552,W,1,05,2.6,146.7,M,8.4,M,,0000*6A,0
1778777001913886747,$GPGSA,M,3,21,05,14,17,30,,,,,,,,6.5,2.6,5.9*33,0
1778777001913980366,$GPRMC,164301.000,A,1205.9922,S,07701.4552,W,0.00,279.82,140526,,,A*63,0
1778777001914117527,$GPGGA,164302.000,1205.9922,S,07701.4552,W,1,05,2.6,146.7,M,8.4,M,,0000*69,0
1778777001914262615,$GPGSA,M,3,21,05,14,17,30,,,,,,,,6.5,2.6,5.9*33,0
1778777001914356420,$GPRMC,164302.000,A,1205.9922,S,07701.4552,W,0.00,279.82,140526,,,A*60,0
1778777001914494081,$GPGGA,164303.000,1205.9922,S,07701.4552,W,1,05,2.6,146.7,M,8.4,M,,0000*68,0
1778777001914638131,$GPGSA,M,3,21,05,14,17,30,,,,,,,,6.5,2.6,5.9*33,0
1778777001914730936,$GPRMC,164303.000,A,1205.9922,S,07701.4552,W,0.00,279.82,140526,,,A*61,0
1778777001914866949,$GPGGA,164304.000,1205.9922,S,07701.4552,W,1,05,2.6,146.7,M,8.4,M,,0000*6F,0
1778777001915010407,$GPGSA,M,3,21,05,14,17,30,,,,,,,,6.5,2.6,5.9*33,0
1778777001915103119,$GPGSV,3,1,12,21,63,333,46,05,57,265,34,14,36,146,32,17,29,076,45*71,0
1778777001915235298,$GPGSV,3,2,12,30,17,134,36,11,13,344,19,13,42,177,17,24,38,197,18*7C,0
1778777001915367495,$GPGSV,3,3,12,50,00,000,,28,67,143,,26,43,147,,23,35,082,*7E,0
1778777001915484617,$GPRMC,164304.000,A,1205.9922,S,07701.4552,W,0.00,279.82,140526,,,A*66,0
1778777001915620556,$PSRF156,23,1,0*09,0
1778777001915658837,$GPGGA,164305.000,1205.9922,S,07701.4552,W,1,05,2.6,146.7,M,8.4,M,,0000*6E,0
1778777001915802499,$GPGSA,M,3,21,05,14,17,30,,,,,,,,6.5,2.6,5.9*33,0
1778777001915895211,$GPRMC,164305.000,A,1205.9922,S,07701.4552,W,0.00,279.82,140526,,,A*67,0
1778777001916031224,$GPGGA,164306.000,1205.9922,S,07701.4552,W,1,05,2.6,146.7,M,8.4,M,,0000*6D,0
1778777001916219889,$GPGSA,M,3,21,05,14,17,30,,,,,,,,6.5,2.6,5.9*33,0
1778777001916548587,$GPRMC,164306.000,A,1205.9922,S,07701.4552,W,0.00,279.82,140526,,,A*64,0
1778777001916684062,$GPGGA,164307.000,1205.9922,S,07701.4552,W,1,05,2.6,146.7,M,8.4,M,,0000*6C,0
1778777001916827075,$GPGSA,M,3,21,05,14,17,30,,,,,,,,6.5,2.6,5.9*33,0
1778777001916919528,$GPRMC,164307.000,A,1205.9922,S,07701.4552,W,0.00,279.82,140526,,,A*65,0
1778777001917055004,$GPGGA,164308.000,1205.9922,S,07701.4552,W,1,05,2.6,146.7,M,8.4,M,,0000*63,0
1778777001917197943,$GPGSA,M,3,21,05,14,17,30,,,,,,,,6.5,2.6,5.9*33,0
1778777001917290266,$GPRMC,164308.000,A,1205.9922,S,07701.4552,W,0.00,279.82,140526,,,A*6A,0
1778777001917425631,$GPGGA,164309.000,1205.9922,S,07701.4552,W,1,05,2.6,146.7,M,8.4,M,,0000*62,0
1778777001917568570,$GPGSA,M,3,21,05,14,17,30,,,,,,,,6.5,2.6,6.0*39,0
1778777001917660931,$GPGSV,3,1,12,21,63,333,46,05,57,265,34,14,36,146,31,17,29,076,45*72,0
1778777001917792665,$GPGSV,3,2,12,30,17,134,35,11,13,344,19,13,42,177,18,24,38,197,18*70,0
1778777001917924288,$GPGSV,3,3,12,51,52,289,,28,67,143,,26,43,147,,23,35,082,*7B,0
1778777001918040984,$GPRMC,164309.000,A,1205.9922,S,07701.4552,W,0.00,279.82,140526,,,A*6B,0
1778777001918176682,$GPGGA,164310.000,1205.9922,S,07701.4552,W,1,05,2.6,146.7,M,8.4,M,,0000*6A,0
1778777001918319955,$GPGSA,M,3,21,05,14,17,30,,,,,,,,6.5,2.6,6.0*39,0
1778777001918412241,$GPRMC,164310.000,A,1205.9922,S,07701.4552,W,0.00,279.82,140526,,,A*63,0
1778777001918548031,$GPGGA,164311.000,1205.9922,S,07701.4552,W,1,05,2.6,146.7,M,8.4,M,,0000*6B,0
1778777001918691693,$GPGSA,M,3,21,05,14,17,30,,,,,,,,6.5,2.6,6.0*39,0
1778777001918785202,$GPRMC,164311.000,A,1205.9922,S,07701.4552,W,0.00,279.82,140526,,,A*62,0
1778777001918922214,$GPGGA,164312.000,1205.9922,S,07701.4551,W,1,05,2.6,146.7,M,8.4,M,,0000*6B,0
1778777001919066839,$GPGSA,M,3,21,05,14,17,30,,,,,,,,6.5,2.6,6.0*39,0
1778777001919160255,$GPRMC,164312.000,A,1205.9922,S,07701.4551,W,0.00,279.82,140526,,,A*62,0
1778777001919297342,$GPGGA,164313.000,1205.9922,S,07701.4551,W,1,05,2.6,146.7,M,8.4,M,,0000*6A,0
1778777001919442077,$GPGSA,M,3,21,05,14,17,30,,,,,,,,6.5,2.6,6.0*39,0
1778777001919535457,$GPRMC,164313.000,A,1205.9922,S,07701.4551,W,0.00,279.82,140526,,,A*63,0
1778777001919673432,$GPGGA,164314.000,1205.9922,S,07701.4551,W,1,05,2.6,146.7,M,8.4,M,,0000*6D,0
1778777001919821094,$GPGSA,M,3,21,05,14,17,30,,,,,,,,6.5,2.6,6.0*39,0
1778777001919916473,$GPGSV,3,1,12,21,63,333,46,05,57,265,34,14,36,146,30,17,29,076,45*73,0
1778777001920053894,$GPGSV,3,2,12,30,17,134,35,06,02,020,15,11,13,344,19,13,42,177,17*76,0
1778777001920188017,$GPGSV,3,3,12,24,38,197,16,51,52,289,,28,67,143,,26,43,147,*73,0
1778777001920317825,$GPRMC,164314.000,A,1205.9922,S,07701.4551,W,0.00,279.82,140526,,,A*64,0
1778777001920454672,$GPGGA,164315.000,1205.9922,S,07701.4551,W,1,05,2.6,146.7,M,8.4,M,,0000*6C,0
1778777001920600518,$GPGSA,M,3,21,05,14,17,30,,,,,,,,6.5,2.6,6.0*39,0
1778777001920693990,$GPRMC,164315.000,A,1205.9922,S,07701.4551,W,0.00,279.82,140526,,,A*65,0
1778777001920830929,$GPGGA,164316.000,1205.9922,S,07701.4551,W,1,05,2.6,146.7,M,8.4,M,,0000*6F,0
1778777001920975664,$GPGSA,M,3,21,05,14,17,30,,,,,,,,6.5,2.6,6.0*39,0
1778777001921069173,$GPRMC,164316.000,A,1205.9922,S,07701.4551,W,0.00,279.82,140526,,,A*66,0
1778777001921206278,$GPGGA,164317.000,1205.9922,S,07701.4551,W,1,05,2.6,146.7,M,8.4,M,,0000*6E,0
1778777001921350940,$GPGSA,M,3,21,05,14,17,30,,,,,,,,6.5,2.6,6.0*39,0
1778777001921444282,$GPRMC,164317.000,A,1205.9922,S,07701.4551,W,0.00,279.82,140526,,,A*67,0
1778777001921581147,$GPGGA,164318.000,1205.9922,S,07701.4551,W,1,05,2.6,146.7,M,8.4,M,,0000*61,0
1778777001921726475,$GPGSA,M,3,21,05,14,17,30,,,,,,,,6.5,2.6,6.0*39,0
1778777001921820687,$GPRMC,164318.000,A,1205.9922,S,07701.4551,W,0.00,279.82,140526,,,A*68,0
1778777001921958645,$GPGGA,164319.000,1205.9922,S,07701.4551,W,1,05,2.6,146.7,M,8.4,M,,0000*60,0
1778777001922104251,$GPGSA,M,3,21,05,14,17,30,,,,,,,,6.5,2.6,6.0*39,0
1778777001922198463,$GPGSV,3,1,12,21,63,333,46,05,57,265,35,14,36,146,29,17,29,076,45*7A,0
1778777001922354681,$GPGSV,3,2,12,30,17,134,34,11,13,344,18,13,42,177,16,24,38,197,16*70,0
1778777001922489231,$GPGSV,3,3,12,51,52,289,,28,67,143,,26,43,147,,23,35,082,*7B,0
1778777001922605927,$GPRMC,164319.000,A,1205.9922,S,07701.4551,W,0.00,279.82,140526,,,A*69,0
1778777001922741199,$GPGGA,164320.000,1205.9922,S,07701.4551,W,1,05,2.6,146.7,M,8.4,M,,0000*6A,0
1778777001922883842,$GPGSA,M,3,21,05,14,17,30,,,,,,,,6.5,2.6,6.0*39,0
1778777001922976054,$GPRMC,164320.000,A,1205.9922,S,07701.4551,W,0.00,279.82,140526,,,A*63,0
1778777001923111326,$GPGGA,164321.000,1205.9922,S,07701.4551,W,1,05,2.6,146.7,M,8.4,M,,0000*6B,0
1778777001923254746,$GPGSA,M,3,21,05,14,17,30,,,,,,,,6.5,2.6,6.0*39,0
1778777001923349848,$GPRMC,164321.000,A,1205.9922,S,07701.4551,W,0.00,279.82,140526,,,A*62,0
1778777002340567690,$GPGGA,164322.000,1205.9922,S,07701.4551,W,1,05,2.6,146.7,M,8.4,M,,0000*68,0
1778777002452848915,$GPGSA,M,3,21,05,14,17,30,,,,,,,,6.5,2.6,6.0*39,0
1778777002617822626,$GPRMC,164322.000,A,1205.9922,S,07701.4551,W,0.00,279.82,140526,,,A*61,0
1778777003342070817,$GPGGA,164323.000,1205.9922,S,07701.4551,W,1,05,2.6,146.7,M,8.4,M,,0000*69,0
1778777003454333077,$GPGSA,M,3,21,05,14,17,30,,,,,,,,6.5,2.6,6.0*39,0
1778777003619376535,$GPRMC,164323.000,A,1205.9922,S,07701.4551,W,0.00,279.82,140526,,,A*60,0
1778777004341686546,$GPGGA,164324.000,1205.9922,S,07701.4551,W,1,05,2.6,146.7,M,8.4,M,,0000*6E,0
1778777004454015238,$GPGSA,M,3,21,05,14,17,30,,,,,,,,6.5,2.6,6.0*39,1
1778777004614436785,$GPGSV,3,1,12,21,63,333,46,05,57,265,35,14,36,146,29,17,29,076,46*79,1
1778777004774845739,$GPGSV,3,2,12,30,17,134,34,11,13,344,18,13,42,177,15,24,38,197,21*77,1
1778777004916918693,$GPGSV,3,3,12,51,52,289,,28,67,143,,26,43,147,,23,35,082,*7B,1
1778777005081918592,$GPRMC,164324.000,A,1205.9922,S,07701.4551,W,0.00,279.82,140526,,,A*67,1
1778777005340926443,$GPGGA,164325.000,1205.9922,S,07701.4551,W,1,05,2.6,146.7,M,8.4,M,,0000*6F,1
1778777005453191462,$GPGSA,M,3,21,05,14,17,30,,,,,,,,6.5,2.6,6.0*39,1
1778777005618232087,$GPRMC,164325.000,A,1205.9922,S,07701.4551,W,0.00,279.82,140526,,,A*66,1
1778777006341357228,$GPGGA,164326.000,1205.9922,S,07701.4551,W,1,05,2.6,146.7,M,8.4,M,,0000*6C,1
1778777006453751814,$GPGSA,M,3,21,05,14,17,30,,,,,,,,6.5,2.6,6.0*39,1
1778777006618667094,$GPRMC,164326.000,A,1205.9922,S,07701.4551,W,0.00,279.82,140526,,,A*65,1
1778777007342475539,$GPGGA,164327.000,1205.9922,S,07701.4551,W,1,05,2.6,146.7,M,8.4,M,,0000*6D,1
1778777007454756819,$GPGSA,M,3,21,05,14,17,30,,,,,,,,6.5,2.6,6.0*39,1
1778777007619773978,$GPRMC,164327.000,A,1205.9922,S,07701.4551,W,0.00,279.82,140526,,,A*64,1
1778777008342902322,$GPGGA,164328.000,1205.9922,S,07701.4551,W,1,05,2.6,146.7,M,8.4,M,,0000*62,1
1778777008455248126,$GPGSA,M,3,21,05,14,17,30,,,,,,,,6.5,2.6,6.0*39,1
1778777008620289769,$GPRMC,164328.000,A,1205.9922,S,07701.4551,W,0.00,279.82,140526,,,A*6B,1
1778777009340901379,$GPGGA,164329.000,1205.9922,S,07701.4551,W,1,05,2.6,146.7,M,8.4,M,,0000*63,1
1778777009453160175,$GPGSA,M,3,21,05,14,17,30,,,,,,,,6.5,2.6,6.0*39,1
1778777009613596131,$GPGSV,3,1,12,21,63,333,46,05,57,265,34,14,36,146,30,17,29,076,46*70,1
1778777009774058218,$GPGSV,3,2,12,30,17,134,33,11,13,344,18,13,42,177,17,24,38,197,21*72,1
1778777009916093669,$GPGSV,3,3,12,51,52,289,,28,67,143,,26,43,147,,23,35,082,*7B,1
1778777010081138071,$GPRMC,164329.000,A,1205.9922,S,07701.4551,W,0.00,279.82,140526,,,A*6A,1
1778777010342373369,$GPGGA,164330.000,1205.9922,S,07701.4551,W,1,05,2.6,146.7,M,8.4,M,,0000*6B,1
1778777010454730471,$GPGSA,M,3,21,05,14,17,30,,,,,,,,6.5,2.6,6.0*39,1
1778777010619779762,$GPRMC,164330.000,A,1205.9922,S,07701.4551,W,0.00,279.82,140526,,,A*62,1
1778777011341820745,$GPGGA,164331.000,1205.9923,S,07701.4551,W,1,05,2.6,146.7,M,8.4,M,,0000*6B,1
1778777011454102265,$GPGSA,M,3,21,05,14,17,30,,,,,,,,6.5,2.6,6.0*39,1
1778777011619127313,$GPRMC,164331.000,A,1205.9923,S,07701.4551,W,0.00,279.82,140526,,,A*62,1
1778777012342059341,$GPGGA,164332.000,1205.9923,S,07701.4551,W,1,05,2.6,146.7,M,8.4,M,,0000*68,1
1778777012454395589,$GPGSA,M,3,21,05,14,17,30,,,,,,,,6.5,2.6,6.0*39,1
1778777012619382393,$GPRMC,164332.000,A,1205.9923,S,07701.4551,W,0.00,279.82,140526,,,A*61,1
1778777013342116402,$GPGGA,164333.000,1205.9923,S,07701.4551,W,1,05,2.6,146.7,M,8.4,M,,0000*69,1
1778777013454457576,$GPGSA,M,3,21,05,14,17,30,,,,,,,,6.5,2.6,6.0*39,1
1778777013619410099,$GPRMC,164333.000,A,1205.9923,S,07701.4551,W,0.00,279.82,140526,,,A*60,1
1778777014342689936,$GPGGA,164334.000,1205.9923,S,07701.4551,W,1,05,2.6,146.7,M,8.4,M,,0000*6E,1
1778777014454885300,$GPGSA,M,3,21,05,14,17,30,,,,,,,,6.5,2.6,6.0*39,1
1778777014615303698,$GPGSV,3,1,12,21,63,333,47,05,57,265,34,14,36,146,30,17,29,076,46*71,1
1778777014775780175,$GPGSV,3,2,12,30,17,134,33,11,13,344,17,13,42,177,18,24,38,197,21*72,1
1778777014917816477,$GPGSV,3,3,12,51,52,289,,28,67,143,,26,43,147,,23,35,082,*7B,1
1778777015082872009,$GPRMC,164334.000,A,1205.9923,S,07701.4551,W,0.00,279.82,140526,,,A*67,1
1778777015343925142,$GPGGA,164335.000,1205.9923,S,07701.4551,W,1,05,2.6,146.7,M,8.4,M,,0000*6F,1
1778777015456199439,$GPGSA,M,3,21,05,14,17,30,,,,,,,,6.5,2.6,6.0*39,1
1778777015621184613,$GPRMC,164335.000,A,1205.9923,S,07701.4551,W,0.00,279.82,140526,,,A*66,1
1778777016344541975,$GPGGA,164336.000,1205.9923,S,07701.4551,W,1,05,2.6,146.7,M,8.4,M,,0000*6C,1
1778777016456867499,$GPGSA,M,3,21,05,14,17,30,,,,,,,,6.5,2.6,6.0*39,1
1778777016621850969,$GPRMC,164336.000,A,1205.9923,S,07701.4551,W,0.00,279.82,140526,,,A*65,1
1778777017343155733,$GPGGA,164337.000,1205.9923,S,07701.4551,W,1,05,2.6,146.7,M,8.4,M,,0000*6D,1
1778777017455430993,$GPGSA,M,3,21,05,14,17,30,,,,,,,,6.5,2.6,6.0*39,1
1778777017620481543,$GPRMC,164337.000,A,1205.9923,S,07701.4551,W,0.00,279.82,140526,,,A*64,1
1778777018343396160,$GPGGA,164338.000,1205.9923,S,07701.4551,W,1,05,2.6,146.7,M,8.4,M,,0000*62,1
1778777018455687570,$GPGSA,M,3,21,05,14,17,30,,,,,,,,6.5,2.6,6.0*39,1
1778777018620720933,$GPRMC,164338.000,A,1205.9923,S,07701.4551,W,0.00,279.82,140526,,,A*6B,1
1778777019343459514,$GPGGA,164339.000,1205.9923,S,07701.4551,W,1,05,2.6,146.7,M,8.4,M,,0000*63,1
1778777019455783686,$GPGSA,M,3,21,05,14,17,30,,,,,,,,6.5,2.6,6.0*39,1
1778777019616218104,$GPGSV,3,1,12,21,63,333,47,05,57,265,34,14,36,146,30,17,29,076,46*71,1
1778777019776626259,$GPGSV,3,2,12,30,17,134,33,11,13,344,19,13,42,177,18,24,38,197,22*7F,1
1778777019918698212,$GPGSV,3,3,12,44,42,284,,28,67,143,,26,43,147,,23,35,082,*73,1
1778777020083691516,$GPRMC,164339.000,A,1205.9923,S,07701.4551,W,0.00,279.82,140526,,,A*6A,1
1778777020342454065,$GPGGA,164340.000,1205.9923,S,07701.4551,W,1,05,2.6,146.7,M,8.4,M,,0000*6D,1
1778777020454787923,$GPGSA,M,3,21,05,14,17,30,,,,,,,,6.5,2.6,6.0*39,1
1778777020619761503,$GPRMC,164340.000,A,1205.9923,S,07701.4551,W,0.00,279.82,140526,,,A*64,1
1778777021343388425,$GPGGA,164341.000,1205.9923,S,07701.4551,W,1,05,2.6,146.7,M,8.4,M,,0000*6C,1
1778777021455660481,$GPGSA,M,3,21,05,14,17,30,,,,,,,,6.5,2.6,6.0*39,1
1778777021620644636,$GPRMC,164341.000,A,1205.9923,S,07701.4551,W,0.00,279.82,140526,,,A*65,1
1778777022344640907,$GPGGA,164342.000,1205.9923,S,07701.4551,W,1,05,2.6,146.7,M,8.4,M,,0000*6F,1
1778777022456960801,$GPGSA,M,3,21,05,14,17,30,,,,,,,,6.5,2.6,6.0*39,1
1778777022621941788,$GPRMC,164342.000,A,1205.9923,S,07701.4551,W,0.00,279.82,140526,,,A*66,1
1778777023345122428,$GPGGA,164343.000,1205.9923,S,07701.4551,W,1,05,2.6,146.7,M,8.4,M,,0000*6E,1
1778777023457390131,$GPGSA,M,3,21,05,14,17,30,,,,,,,,6.5,2.6,6.0*39,1
1778777023622431476,$GPRMC,164343.000,A,1205.9923,S,07701.4551,W,0.00,279.82,140526,,,A*67,1
1778777024344984928,$GPGGA,164344.000,1205.9923,S,07701.4551,W,1,05,2.6,146.7,M,8.4,M,,0000*69,1
1778777024457273133,$GPGSA,M,3,21,05,14,17,30,,,,,,,,6.5,2.6,6.0*39,0
1778777024617680214,$GPGSV,3,1,12,21,63,333,47,05,57,265,34,14,36,146,30,17,29,076,46*71,0
1778777024778077202,$GPGSV,3,2,12,30,17,134,32,11,13,344,19,13,42,177,17,24,38,197,22*71,0
1778777024924751878,$GPGSV,3,3,12,44,42,284,37,28,67,143,,26,43,147,,23,35,082,*77,0
1778777025089789630,$GPRMC,164344.000,A,1205.9923,S,07701.4551,W,0.00,279.82,140526,,,A*60,0
1778777025344607534,$GPGGA,164345.000,1205.9923,S,07701.4551,W,1,05,2.6,146.7,M,8.4,M,,0000*68,0
1778777025456878090,$GPGSA,M,3,21,05,14,17,30,,,,,,,,6.5,2.6,6.0*39,0
1778777025621906415,$GPRMC,164345.000,A,1205.9923,S,07701.4551,W,0.00,279.82,140526,,,A*61,0
1778777026344855995,$GPGGA,164346.000,1205.9923,S,07701.4551,W,1,05,2.6,146.7,M,8.4,M,,0000*6B,0
1778777026457119643,$GPGSA,M,3,21,05,14,17,30,,,,,,,,6.5,2.6,6.0*39,0
1778777026622164432,$GPRMC,164346.000,A,1205.9923,S,07701.4551,W,0.65,279.82,140526,,,A*61,0
1778777027344279212,$GPGGA,164347.000,1205.9922,S,07701.4553,W,1,05,2.6,146.7,M,8.4,M,,0000*69,0
1778777027456545897,$GPGSA,M,3,21,05,14,17,30,,,,,,,,6.5,2.6,6.0*39,0
1778777027621547960,$GPRMC,164347.000,A,1205.9922,S,07701.4553,W,1.43,300.84,140526,,,A*6F,0
1778777028345136840,$GPGGA,164348.000,1205.9920,S,07701.4555,W,1,05,2.6,146.8,M,8.4,M,,0000*6D,0
1778777028457429897,$GPGSA,M,3,21,05,14,17,30,,,,,,,,6.5,2.6,6.0*39,0
1778777028622426571,$GPRMC,164348.000,A,1205.9920,S,07701.4555,W,1.90,309.19,140526,,,A*67,0
1778777029344767519,$GPGGA,164349.000,1205.9916,S,07701.4560,W,1,05,2.6,147.0,M,8.4,M,,0000*66,0
1778777029457055224,$GPGSA,M,3,21,05,14,17,30,,,,,,,,6.5,2.6,6.0*39,0
1778777029617496216,$GPGSV,3,1,12,21,63,333,46,05,57,265,34,14,36,146,40,17,29,076,39*7F,0
1778777029777917557,$GPGSV,3,2,12,30,17,134,34,11,13,344,19,13,42,177,28,24,38,197,21*78,0
1778777029924598123,$GPGSV,3,3,12,44,42,284,36,28,67,143,,26,43,147,,23,35,082,*76,0
1778777030089596723,$GPRMC,164349.000,A,1205.9916,S,07701.4560,W,2.79,312.23,140526,,,A*62,0
1778777030345027757,$GPGGA,164350.000,1205.9910,S,07701.4565,W,1,06,1.4,147.2,M,8.4,M,,0000*6D,0
1778777030461899203,$GPGSA,M,3,21,05,14,17,30,11,,,,,,,2.4,1.4,2.0*39,0
1778777030626901895,$GPRMC,164350.000,A,1205.9910,S,07701.4565,W,3.77,315.78,140526,,,A*6F,0
1778777031346320183,$GPGGA,164351.000,1205.9903,S,07701.4570,W,1,06,1.4,147.9,M,8.4,M,,0000*61,0
1778777031463208537,$GPGSA,M,3,21,05,14,17,30,11,,,,,,,2.4,1.4,2.0*39,0
1778777031628212675,$GPRMC,164351.000,A,1205.9903,S,07701.4570,W,4.35,311.08,140526,,,A*6A,0
1778777032344708820,$GPGGA,164352.000,1205.9895,S,07701.4578,W,1,05,2.6,148.2,M,8.4,M,,0000*62,0
1778777032456991488,$GPGSA,M,3,21,05,14,17,30,,,,,,,,6.6,2.6,6.0*3A,0
1778777032622004348,$GPRMC,164352.000,A,1205.9895,S,07701.4578,W,4.06,306.11,140526,,,A*61,0
1778777033344764390,$GPGGA,164353.000,1205.9888,S,07701.4586,W,1,05,2.6,148.6,M,8.4,M,,0000*6A,0
1778777033457041723,$GPGSA,M,3,21,05,14,17,30,,,,,,,,6.6,2.6,6.0*3A,0
1778777033622054861,$GPRMC,164353.000,A,1205.9888,S,07701.4586,W,3.82,302.63,140526,,,A*67,0
1778777034346059555,$GPGGA,164354.000,1205.9881,S,07701.4593,W,1,05,2.6,149.0,M,8.4,M,,0000*67,0
1778777034458344149,$GPGSA,M,3,21,05,14,17,30,,,,,,,,6.6,2.6,6.0*3A,0
1778777034618769972,$GPGSV,3,1,12,21,63,333,45,05,57,265,43,14,36,146,34,17,29,076,40*71,0
1778777034779199628,$GPGSV,3,2,12,30,17,134,32,11,13,344,19,13,42,177,29,24,38,197,21*7F,0
1778777034925875823,$GPGSV,3,3,12,44,42,284,44,28,67,143,,26,43,147,,23,35,082,*73,0
1778777035090884090,$GPRMC,164354.000,A,1205.9881,S,07701.4593,W,3.60,298.12,140526,,,A*65,0
1778777035346100956,$GPGGA,164355.000,1205.9876,S,07701.4600,W,1,05,2.6,149.4,M,8.4,M,,0000*63,0
1778777035458394476,$GPGSA,M,3,21,05,14,17,30,,,,,,,,6.6,2.6,6.0*3A,0
1778777035623403984,$GPRMC,164355.000,A,1205.9876,S,07701.4600,W,3.20,298.45,140526,,,A*63,0
1778777036346576804,$GPGGA,164356.000,1205.9869,S,07701.4607,W,1,05,2.6,149.7,M,8.4,M,,0000*6A,0
1778777036458863619,$GPGSA,M,3,21,05,14,17,30,,,,,,,,6.6,2.6,6.0*3A,0
1778777036623872479,$GPRMC,164356.000,A,1205.9869,S,07701.4607,W,3.55,303.27,140526,,,A*6C,0
1778777037345792238,$GPGGA,164357.000,1205.9861,S,07701.4612,W,1,05,2.6,150.5,M,8.4,M,,0000*6D,0
1778777037458068034,$GPGSA,M,3,21,05,14,17,30,,,,,,,,6.6,2.6,6.0*3A,0
1778777037623107748,$GPRMC,164357.000,A,1205.9861,S,07701.4612,W,4.16,315.19,140526,,,A*6B,0
1778777038346248935,$GPGGA,164358.000,1205.9849,S,07701.4615,W,1,05,2.6,151.1,M,8.4,M,,0000*6A,0
1778777038458553919,$GPGSA,M,3,21,05,14,17,30,,,,,,,,6.6,2.6,6.0*3A,0
1778777038623590355,$GPRMC,164358.000,A,1205.9849,S,07701.4615,W,4.77,328.60,140526,,,A*6E,0
1778777039345462054,$GPGGA,164359.000,1205.9830,S,07701.4611,W,1,05,2.6,151.4,M,8.4,M,,0000*64,0
1778777039457794503,$GPGSA,M,3,21,05,14,17,30,,,,,,,,6.6,2.6,6.0*3A,0
1778777039618171821,$GPGSV,3,1,12,21,61,335,44,05,57,268,43,14,35,146,42,17,29,077,41*7B,0
1778777039778612479,$GPGSV,3,2,12,30,16,133,25,06,02,021,13,11,13,345,19,24,38,195,25*73,0
1778777039925289191,$GPGSV,3,3,12,44,42,284,41,28,66,145,,26,44,145,,13,43,175,*7F,0
1778777040090288698,$GPRMC,164359.000,A,1205.9830,S,07701.4611,W,5.82,352.47,140526,,,A*66,0
1778777040347187942,$GPGGA,164400.000,1205.9810,S,07701.4601,W,1,06,1.4,151.8,M,8.4,M,,0000*62,0
1778777040464057387,$GPGSA,M,3,21,05,14,17,30,11,,,,,,,2.4,1.4,2.0*39,0
1778777040626788738,$GPRMC,164400.000,A,1205.9810,S,07701.4601,W,7.92,21.57,140526,,,A*5B,0
1778777041346392929,$GPGGA,164401.000,1205.9788,S,07701.4588,W,1,06,1.4,152.4,M,8.4,M,,0000*60,0
1778777041463282987,$GPGSA,M,3,21,05,14,17,30,11,,,,,,,2.4,1.4,2.0*39,0
1778777041625993596,$GPRMC,164401.000,A,1205.9788,S,07701.4588,W,8.89,24.51,140526,,,A*50,0
1778777042347074628,$GPGGA,164402.000,1205.9764,S,07701.4575,W,1,06,1.4,152.9,M,8.4,M,,0000*6E,0
1778777042463934423,$GPGSA,M,3,21,05,14,17,30,11,,,,,,,2.4,1.4,2.0*39,0
1778777042626673331,$GPRMC,164402.000,A,1205.9764,S,07701.4575,W,9.72,25.65,140526,,,A*50,0
1778777043349831092,$GPGGA,164403.000,1205.9738,S,07701.4561,W,1,06,1.4,153.5,M,8.4,M,,0000*6E,0
1778777043466777803,$GPGSA,M,3,21,05,14,17,30,11,,,,,,,2.4,1.4,2.0*39,0
1778777043631716323,$GPRMC,164403.000,A,1205.9738,S,07701.4561,W,10.23,25.69,140526,,,A*6D,0
1778777044346543810,$GPGGA,164404.000,1205.9712,S,07701.4547,W,1,05,2.6,154.0,M,8.4,M,,0000*65,0
1778777044458837959,$GPGSA,M,3,21,05,14,17,30,,,,,,,,6.6,2.6,6.0*3A,0
1778777044619270301,$GPGSV,3,1,12,21,61,335,43,05,57,268,44,14,35,146,43,17,29,077,42*79,0
1778777044779734960,$GPGSV,3,2,12,30,16,133,26,11,13,345,24,24,38,195,28,44,42,284,44*7E,0
1778777044921819969,$GPGSV,3,3,12,28,66,145,,26,44,145,,13,43,175,,23,35,080,*7D,0
1778777045086786138,$GPRMC,164404.000,A,1205.9712,S,07701.4547,W,10.41,25.09,140526,,,A*64,0
1778777045346391578,$GPGGA,164405.000,1205.9685,S,07701.4533,W,1,05,2.6,154.6,M,8.4,M,,0000*6E,0
1778777045458682060,$GPGSA,M,3,21,05,14,17,30,,,,,,,,6.6,2.6,6.0*3A,0
1778777045623698179,$GPRMC,164405.000,A,1205.9685,S,07701.4533,W,10.49,24.82,140526,,,A*63,0
1778777046348312853,$GPGGA,164406.000,1205.9659,S,07701.4519,W,1,05,2.6,155.2,M,8.4,M,,0000*61,0
1778777046460625170,$GPGSA,M,3,21,05,14,17,30,,,,,,,,6.6,2.6,6.0*3A,0
1778777046625609916,$GPRMC,164406.000,A,1205.9659,S,07701.4519,W,10.46,25.04,140526,,,A*69,0
1778777047347526320,$GPGGA,164407.000,1205.9632,S,07701.4506,W,1,05,2.6,155.7,M,8.4,M,,0000*66,0
1778777047459813302,$GPGSA,M,3,21,05,14,17,30,,,,,,,,6.6,2.6,6.1*3B,0
1778777047624836366,$GPRMC,164407.000,A,1205.9632,S,07701.4506,W,10.16,24.82,140526,,,A*61,0
1778777048348407738,$GPGGA,164408.000,1205.9607,S,07701.4493,W,1,05,2.6,156.2,M,8.4,M,,0000*64,0
1778777048460690720,$GPGSA,M,3,21,05,14,17,30,,,,,,,,6.6,2.6,6.1*3B,0
1778777048623412478,$GPRMC,164408.000,A,1205.9607,S,07701.4493,W,9.86,24.87,140526,,,A*51,0
1778777049347836818,$GPGGA,164409.000,1205.9582,S,07701.4480,W,1,05,2.6,156.7,M,8.4,M,,0000*6C,0
1778777049460117892,$GPGSA,M,3,21,05,14,17,30,,,,,,,,6.6,2.6,6.1*3B,0
1778777049620550363,$GPGSV,3,1,12,21,61,335,43,05,57,268,44,14,35,146,44,17,29,077,28*72,0
1778777049780982019,$GPGSV,3,2,12,30,16,133,27,06,02,021,23,11,13,345,17,24,38,195,35*7D,0
1778777049927665065,$GPGSV,3,3,12,44,42,284,44,28,66,145,,26,44,145,,13,43,175,*7A,0
1778777050092654292,$GPRMC,164409.000,A,1205.9582,S,07701.4480,W,10.12,24.90,140526,,,A*6F,0
1778777050344961776,$GPGGA,164410.000,1205.9555,S,07701.4466,W,1,05,1.6,157.2,M,8.4,M,,0000*61,0
1778777050457253184,$GPGSA,M,3,21,05,14,17,11,,,,,,,,2.9,1.6,2.4*31,0
1778777050622266062,$GPRMC,164410.000,A,1205.9555,S,07701.4466,W,10.64,24.96,140526,,,A*62,0
1778777051343969519,$GPGGA,164411.000,1205.9527,S,07701.4451,W,1,05,1.6,157.6,M,8.4,M,,0000*65,0
1778777051456263853,$GPGSA,M,3,21,05,14,17,11,,,,,,,,2.9,1.6,2.4*31,0
1778777051621277213,$GPRMC,164411.000,A,1205.9527,S,07701.4451,W,11.12,25.26,140526,,,A*68,0
1778777052343827119,$GPGGA,164412.000,1205.9501,S,07701.4441,W,1,04,2.6,158.5,M,8.4,M,,0000*6D,0
1778777052451518396,$GPGSA,M,3,21,05,17,11,,,,,,,,,4.2,2.6,3.3*3C,0
1778777052616533330,$GPRMC,164412.000,A,1205.9501,S,07701.4441,W,10.72,23.99,140526,,,A*6B,0
1778777053340979449,$GPGGA,164413.000,1205.9474,S,07701.4430,W,1,04,2.6,159.4,M,8.4,M,,0000*69,0
1778777053448647965,$GPGSA,M,3,21,05,17,11,,,,,,,,,4.2,2.6,3.3*3C,0
1778777053613658286,$GPRMC,164413.000,A,1205.9474,S,07701.4430,W,10.83,24.00,140526,,,A*66,0
1778777054334324777,$GPGGA,164414.000,1205.9447,S,07701.4417,W,0,00,,159.5,M,8.4,M,,0000*45,0
1778777054403078494,$GPGSA,M,1,,,,,,,,,,,,,,,*12,0
1778777054563493444,$GPGSV,3,1,12,05,57,268,45,11,13,345,09,14,35,146,32,17,29,077,44*77,0
1778777054723924489,$GPGSV,3,2,12,21,61,335,43,24,38,195,28,30,16,133,21,44,42,284,43*7E,0
1778777054866025239,$GPGSV,3,3,12,28,66,145,,26,44,145,,13,43,175,,23,35,080,*7D,0
1778777055008109506,$GPRMC,164414.000,V,1205.9447,S,07701.4417,W,,,140526,,,N*70,0
1778777055343549079,$GPGGA,164415.000,1205.9418,S,07701.4405,W,1,04,1.8,160.2,M,8.4,M,,0000*62,0
1778777055451263413,$GPGSA,M,3,21,05,14,17,,,,,,,,,3.6,1.8,3.1*35,0
1778777055616286051,$GPRMC,164415.000,A,1205.9418,S,07701.4405,W,11.28,24.65,140526,,,A*6F,0
1778777056347976472,$GPGGA,164416.080,1205.9395,S,07701.4388,W,1,05,2.6,161.7,M,8.4,M,,0000*61,0
1778777056460262953,$GPGSA,M,3,21,05,14,17,30,,,,,,,,6.6,2.6,6.1*3B,0
1778777056625277831,$GPRMC,164416.080,A,1205.9395,S,07701.4388,W,10.84,25.60,140526,,,A*67,0
1778777057345156451,$GPGGA,164417.000,1205.9370,S,07701.4375,W,1,05,2.6,162.0,M,8.4,M,,0000*65,0
1778777057457395854,$GPGSA,M,3,21,05,14,17,30,,,,,,,,6.6,2.6,6.1*3B,0
1778777057622397583,$GPRMC,164417.000,A,1205.9370,S,07701.4375,W,11.03,26.97,140526,,,A*62,0
1778777058345567360,$GPGGA,164418.000,1205.9342,S,07701.4359,W,1,05,2.6,163.1,M,8.4,M,,0000*65,0
1778777058457863676,$GPGSA,M,3,21,05,14,17,30,,,,,,,,6.6,2.6,6.1*3B,0
1778777058622864700,$GPRMC,164418.000,A,1205.9342,S,07701.4359,W,11.46,25.76,140526,,,A*6F,0
1778777059345653034,$GPGGA,164419.000,1205.9313,S,07701.4343,W,1,05,2.6,164.0,M,8.4,M,,0000*6D,0
1778777059457908939,$GPGSA,M,3,21,05,14,17,30,,,,,,,,6.6,2.6,6.1*3B,0
1778777059618333742,$GPGSV,3,1,12,21,61,335,43,05,57,268,44,14,35,146,42,17,29,077,25*79,0
1778777059778760342,$GPGSV,3,2,12,30,16,133,29,06,02,021,18,11,13,345,06,24,38,195,29*76,0
1778777059925423034,$GPGSV,3,3,12,44,42,284,43,28,66,145,,26,44,145,,13,43,175,*7D,0
1778777060090453320,$GPRMC,164419.000,A,1205.9313,S,07701.4343,W,11.51,25.73,140526,,,A*62,0
1778777060347332283,$GPGGA,164420.000,1205.9282,S,07701.4327,W,1,06,1.4,165.0,M,8.4,M,,0000*6F,0
1778777060464205375,$GPGSA,M,3,21,05,14,17,30,11,,,,,,,2.4,1.4,2.0*39,0
1778777060629214789,$GPRMC,164420.000,A,1205.9282,S,07701.4327,W,11.82,23.98,140526,,,A*6E,0
1778777061346330337,$GPGGA,164421.000,1205.9252,S,07701.4312,W,1,05,1.5,165.9,M,8.4,M,,0000*6E,0
1778777061458633227,$GPGSA,M,3,21,05,17,30,11,,,,,,,,2.5,1.5,2.0*3C,0
1778777061623626344,$GPRMC,164421.000,A,1205.9252,S,07701.4312,W,11.59,24.89,140526,,,A*65,0
1778777062348881999,$GPGGA,164422.000,1205.9223,S,07701.4297,W,1,06,1.4,166.7,M,8.4,M,,0000*68,0
1778777062465770797,$GPGSA,M,3,21,05,14,17,30,11,,,,,,,2.4,1.4,2.0*39,0
1778777062630774914,$GPRMC,164422.000,A,1205.9223,S,07701.4297,W,11.01,25.87,140526,,,A*6E,0
1778777063346434067,$GPGGA,164423.000,1205.9195,S,07701.4283,W,1,06,1.4,167.7,M,8.4,M,,0000*63,0
1778777063463310030,$GPGSA,M,3,21,05,14,17,30,11,,,,,,,2.4,1.4,2.0*39,0
1778777063628329074,$GPRMC,164423.000,A,1205.9195,S,07701.4283,W,10.57,24.45,140526,,,A*69,0
1778777064347737205,$GPGGA,164424.000,1205.9166,S,07701.4270,W,1,06,1.4,168.1,M,8.4,M,,0000*6D,0
1778777064464654061,$GPGSA,M,3,21,05,14,17,30,11,,,,,,,2.4,1.4,2.0*39,0
1778777064625055435,$GPGSV,3,1,12,21,61,335,43,05,57,268,44,14,35,146,43,17,29,077,39*75,0
1778777064785474293,$GPGSV,3,2,12,30,16,133,25,11,13,345,27,24,38,195,35,44,42,284,36*77,0
1778777064927544503,$GPGSV,3,3,12,28,66,145,,26,44,145,,13,43,175,,23,35,080,*7D,0
1778777065092558102,$GPRMC,164424.000,A,1205.9166,S,07701.4270,W,10.72,25.23,140526,,,A*68,0
1778777065353850734,$GPGGA,164425.000,1205.9138,S,07701.4255,W,1,06,1.4,169.0,M,8.4,M,,0000*60,0
1778777065470713029,$GPGSA,M,3,21,05,14,17,30,11,,,,,,,2.4,1.4,2.0*39,0
1778777065635714423,$GPRMC,164425.000,A,1205.9138,S,07701.4255,W,10.74,25.68,140526,,,A*6C,0
1778777066348033544,$GPGGA,164426.000,1205.9111,S,07701.4240,W,1,06,1.4,169.9,M,8.4,M,,0000*65,0
1778777066464920267,$GPGSA,M,3,21,05,14,17,30,11,,,,,,,2.4,1.4,2.0*39,0
1778777066629927903,$GPRMC,164426.000,A,1205.9111,S,07701.4240,W,10.67,25.88,140526,,,A*6C,0
1778777067348515864,$GPGGA,164427.000,1205.9084,S,07701.4226,W,1,06,1.4,170.4,M,8.4,M,,0000*6C,0
1778777067465387160,$GPGSA,M,3,21,05,14,17,30,11,,,,,,,2.4,1.4,2.0*39,0
1778777067630392481,$GPRMC,164427.000,A,1205.9084,S,07701.4226,W,10.53,26.09,140526,,,A*6D,0
1778777068349179590,$GPGGA,164428.000,1205.9057,S,07701.4212,W,1,06,1.4,170.9,M,8.4,M,,0000*67,0
1778777068466061461,$GPGSA,M,3,21,05,14,17,30,11,,,,,,,2.4,1.4,2.0*39,0
1778777068631066115,$GPRMC,164428.000,A,1205.9057,S,07701.4212,W,10.37,26.41,140526,,,A*65,0
1778777069347560178,$GPGGA,164429.000,1205.9031,S,07701.4198,W,1,06,1.4,171.6,M,8.4,M,,0000*69,0
1778777069464440493,$GPGSA,M,3,21,05,14,17,30,11,,,,,,,2.4,1.4,2.0*39,0
1778777069624871555,$GPGSV,3,1,12,21,61,335,42,05,57,268,44,14,35,146,44,17,29,077,32*78,0
1778777069785312526,$GPGSV,3,2,12,30,16,133,28,11,13,345,31,24,38,195,25,44,42,284,42*7F,0
1778777069927384144,$GPGSV,3,3,12,28,66,145,,26,44,145,,13,43,175,,23,35,080,*7D,0
1778777070092385704,$GPRMC,164429.000,A,1205.9031,S,07701.4198,W,10.42,26.03,140526,,,A*61,0
1778777070350744471,$GPGGA,164430.000,1205.9003,S,07701.4186,W,1,06,1.4,171.5,M,8.4,M,,0000*6C,0
1778777070467619637,$GPGSA,M,3,21,05,14,17,30,11,,,,,,,2.4,1.4,2.0*39,0
1778777070632618050,$GPRMC,164430.000,A,1205.9003,S,07701.4186,W,10.80,25.67,140526,,,A*68,0
1778777071349325262,$GPGGA,164431.000,1205.8974,S,07701.4173,W,1,06,1.4,171.2,M,8.4,M,,0000*68,0
1778777071466207873,$GPGSA,M,3,21,05,14,17,30,11,,,,,,,2.5,1.4,2.0*38,0
1778777071631201211,$GPRMC,164431.000,A,1205.8974,S,07701.4173,W,11.33,24.35,140526,,,A*64,0
1778777072348954835,$GPGGA,164432.000,1205.8946,S,07701.4160,W,1,06,1.4,172.4,M,8.4,M,,0000*6D,0
1778777072465838854,$GPGSA,M,3,21,05,14,17,30,11,,,,,,,2.5,1.4,2.0*38,0
1778777072630878863,$GPRMC,164432.000,A,1205.8946,S,07701.4160,W,11.29,23.11,140526,,,A*6E,0
1778777073349641914,$GPGGA,164433.000,1205.8917,S,07701.4147,W,1,06,1.4,173.2,M,8.4,M,,0000*6A,0
1778777073466505579,$GPGSA,M,3,21,05,14,17,30,11,,,,,,,2.5,1.4,2.0*38,0
1778777073631518048,$GPRMC,164433.000,A,1205.8917,S,07701.4147,W,11.21,24.28,140526,,,A*6B,0
1778777074348298545,$GPGGA,164434.000,1205.8889,S,07701.4134,W,1,06,1.4,174.1,M,8.4,M,,0000*6B,0
1778777074465097167,$GPGSA,M,3,21,05,14,17,30,11,,,,,,,2.5,1.4,2.0*38,0
1778777074625530674,$GPGSV,3,1,12,21,61,335,43,05,57,268,44,14,35,146,33,17,29,077,40*7C,0
1778777074785948402,$GPGSV,3,2,12,30,16,133,23,11,13,345,24,06,02,021,14,24,38,195,24*7D,0
1778777074932625613,$GPGSV,3,3,12,44,42,284,42,28,66,145,,26,44,145,,13,43,175,*7C,0
1778777075097633137,$GPRMC,164434.000,A,1205.8889,S,07701.4134,W,10.99,24.52,140526,,,A*61,0
1778777075353621387,$GPGGA,164435.000,1205.8860,S,07701.4121,W,1,06,1.4,174.6,M,8.4,M,,0000*6E,0
1778777075470351243,$GPGSA,M,3,21,05,14,17,30,11,,,,,,,2.5,1.4,2.0*38,0
1778777075635355101,$GPRMC,164435.000,A,1205.8860,S,07701.4121,W,11.10,24.07,140526,,,A*63,0
1778777076347287498,$GPGGA,164436.000,1205.8832,S,07701.4110,W,1,05,1.6,173.9,M,8.4,M,,0000*61,0
1778777076459575442,$GPGSA,M,3,21,05,14,17,11,,,,,,,,2.9,1.6,2.4*31,0
1778777076624591671,$GPRMC,164436.000,A,1205.8832,S,07701.4110,W,10.98,22.42,140526,,,A*63,0
1778777077352541908,$GPGGA,164437.000,1205.8803,S,07701.4100,W,1,06,1.4,173.0,M,8.4,M,,0000*6B,0
1778777077469410777,$GPGSA,M,3,21,05,14,17,30,11,,,,,,,2.5,1.4,2.0*38,0
1778777077634420301,$GPRMC,164437.000,A,1205.8803,S,07701.4100,W,10.14,22.50,140526,,,A*66,0
1778777078353416484,$GPGGA,164438.000,1205.8777,S,07701.4092,W,1,06,1.4,171.5,M,8.4,M,,0000*65,0
1778777078470300577,$GPGSA,M,3,21,05,14,17,30,11,,,,,,,2.5,1.4,2.0*38,0
1778777078633012944,$GPRMC,164438.000,A,1205.8777,S,07701.4092,W,9.27,22.19,140526,,,A*5A,0
1778777079352853057,$GPGGA,164439.000,1205.8754,S,07701.4084,W,1,06,1.4,171.3,M,8.4,M,,0000*64,0
1778777079469730501,$GPGSA,M,3,21,05,14,17,30,11,,,,,,,2.5,1.4,2.0*38,0
1778777079630143061,$GPGSV,3,1,12,21,61,335,43,05,57,268,44,14,35,146,29,17,29,077,26*77,0
1778777079790629036,$GPGSV,3,2,12,30,16,133,25,11,13,345,22,24,38,195,30,44,42,284,43*75,0
1778777079932656797,$GPGSV,3,3,12,28,66,145,,26,44,145,,13,43,175,,23,35,080,*7D,0
1778777080095383961,$GPRMC,164439.000,A,1205.8754,S,07701.4084,W,8.35,21.26,140526,,,A*50,0
1778777080352896871,$GPGGA,164440.000,1205.8734,S,07701.4078,W,1,06,1.4,171.7,M,8.4,M,,0000*6B,0
1778777080469792502,$GPGSA,M,3,21,05,14,17,30,11,,,,,,,2.5,1.4,2.0*38,0
1778777080632476162,$GPRMC,164440.000,A,1205.8734,S,07701.4078,W,7.27,17.63,140526,,,A*53,0
1778777081355246806,$GPGGA,164441.000,1205.8717,S,07701.4075,W,1,06,1.4,171.9,M,8.4,M,,0000*68,0
1778777081472107600,$GPGSA,M,3,21,05,14,17,30,11,,,,,,,2.5,1.4,2.0*38,0
1778777081634837302,$GPRMC,164441.000,A,1205.8717,S,07701.4075,W,6.26,12.50,140526,,,A*5B,0
1778777082360699140,$GPGGA,164442.000,1205.8702,S,07701.4077,W,1,06,1.4,172.9,M,8.4,M,,0000*6E,0
1778777082477571973,$GPGSA,M,3,21,05,14,17,30,11,,,,,,,2.5,1.4,2.0*38,0
1778777082637993349,$GPRMC,164442.000,A,1205.8702,S,07701.4077,W,5.85,0.24,140526,,,A*64,0
1778777083353257036,$GPGGA,164443.000,1205.8688,S,07701.4088,W,1,06,1.4,174.1,M,8.4,M,,0000*62,0
1778777083470130295,$GPGSA,M,3,21,05,14,17,30,11,,,,,,,2.5,1.4,2.0*38,0
1778777083635129281,$GPRMC,164443.000,A,1205.8688,S,07701.4088,W,6.57,340.56,140526,,,A*68,0
1778777084349963373,$GPGGA,164444.000,1205.8680,S,07701.4105,W,1,06,1.4,175.5,M,8.4,M,,0000*6C,0
1778777084466838687,$GPGSA,M,3,21,05,14,17,30,11,,,,,,,2.5,1.4,2.0*38,0
1778777084627274657,$GPGSV,3,1,12,21,61,335,44,05,57,268,44,14,35,146,44,17,29,077,40*7B,0
1778777084787709905,$GPGSV,3,2,12,30,16,133,29,11,13,345,22,24,38,195,36,44,42,284,44*78,0
1778777084929785429,$GPGSV,3,3,12,28,66,145,,26,44,145,,13,43,175,,23,35,080,*7D,0
1778777085094790675,$GPRMC,164444.000,A,1205.8680,S,07701.4105,W,8.06,292.21,140526,,,A*67,0
1778777085352981240,$GPGGA,164445.000,1205.8675,S,07701.4130,W,1,06,1.4,175.4,M,8.4,M,,0000*60,0
1778777085469809124,$GPGSA,M,3,21,05,14,17,30,11,,,,,,,2.5,1.4,2.0*38,0
1778777085634816092,$GPRMC,164445.000,A,1205.8675,S,07701.4130,W,8.38,282.35,140526,,,A*63,0
1778777086353223571,$GPGGA,164446.000,1205.8672,S,07701.4158,W,1,06,1.4,174.7,M,8.4,M,,0000*68,0
1778777086470111071,$GPGSA,M,3,21,05,14,17,30,11,,,,,,,2.5,1.4,2.0*38,0
1778777086635084462,$GPRMC,164446.000,A,1205.8672,S,07701.4158,W,9.27,277.03,140526,,,A*69,0
1778777087354911203,$GPGGA,164447.000,1205.8669,S,07701.4185,W,1,06,1.4,175.7,M,8.4,M,,0000*62,0
1778777087471772793,$GPGSA,M,3,21,05,14,17,30,11,,,,,,,2.5,1.4,2.0*38,0
1778777087636789800,$GPRMC,164447.000,A,1205.8669,S,07701.4185,W,9.69,276.64,140526,,,A*68,0
1778777088354122549,$GPGGA,164448.000,1205.8668,S,07701.4212,W,1,06,1.4,177.0,M,8.4,M,,0000*64,0
1778777088470979973,$GPGSA,M,3,21,05,14,17,30,11,,,,,,,2.5,1.4,2.0*38,0
1778777088636015221,$GPRMC,164448.000,A,1205.8668,S,07701.4212,W,9.59,276.38,140526,,,A*61,0
1778777089350210512,$GPGGA,164449.000,1205.8666,S,07701.4240,W,1,06,1.4,177.4,M,8.4,M,,0000*68,0
1778777089467088494,$GPGSA,M,3,21,05,14,17,30,11,,,,,,,2.5,1.4,2.0*38,0
1778777089627514851,$GPGSV,3,1,12,21,61,335,45,05,57,268,46,14,35,146,42,17,29,077,47*79,0
1778777089787932079,$GPGSV,3,2,12,30,16,133,30,11,13,345,16,24,38,195,16,44,42,284,48*79,0
1778777089930080073,$GPGSV,3,3,12,28,66,145,,26,44,145,,13,43,175,,23,35,080,*7D,0
1778777090095051019,$GPRMC,164449.000,A,1205.8666,S,07701.4240,W,9.87,276.07,140526,,,A*66,0
1778777090350258028,$GPGGA,164450.000,1205.8663,S,07701.4269,W,1,06,1.4,177.5,M,8.4,M,,0000*6F,0
1778777090467141269,$GPGSA,M,3,21,05,14,17,30,11,,,,,,,2.5,1.4,2.0*38,0
1778777090634442784,$GPRMC,164450.000,A,1205.8663,S,07701.4269,W,10.17,276.80,140526,,,A*5E,0
1778777091352816963,$GPGGA,164451.000,1205.8658,S,07701.4299,W,1,06,1.4,177.0,M,8.4,M,,0000*6C,0
1778777091469688795,$GPGSA,M,3,21,05,14,17,30,11,,,,,,,2.5,1.4,2.0*38,0
1778777091634694967,$GPRMC,164451.000,A,1205.8658,S,07701.4299,W,9.68,276.65,140526,,,A*63,0
1778777092353062830,$GPGGA,164452.000,1205.8655,S,07701.4327,W,1,06,1.4,175.6,M,8.4,M,,0000*62,0
1778777092469943126,$GPGSA,M,3,21,05,14,17,30,11,,,,,,,2.5,1.4,2.0*38,0
1778777092634949391,$GPRMC,164452.000,A,1205.8655,S,07701.4327,W,9.16,276.95,140526,,,A*6F,0
1778777093353952813,$GPGGA,164453.000,1205.8651,S,07701.4357,W,1,06,1.4,172.1,M,8.4,M,,0000*60,0
1778777093470826535,$GPGSA,M,3,21,05,14,17,30,11,,,,,,,2.5,1.4,2.0*38,0
1778777093635832225,$GPRMC,164453.000,A,1205.8651,S,07701.4357,W,8.60,277.44,140526,,,A*60,0
1778777094355448056,$GPGGA,164454.000,1205.8647,S,07701.4384,W,1,06,1.4,170.0,M,8.4,M,,0000*6D,0
1778777094472324851,$GPGSA,M,3,21,05,14,17,30,11,,,,,,,2.5,1.4,2.0*38,0
1778777094632764784,$GPGSV,3,1,12,21,61,335,46,05,57,268,46,14,35,146,42,17,29,077,47*7A,0
1778777094793179734,$GPGSV,3,2,12,30,16,133,41,11,13,345,29,24,38,195,16,44,42,284,47*7C,0
1778777094935305022,$GPGSV,3,3,12,28,66,145,,26,44,145,,13,43,175,,23,35,080,*7D,0
1778777095100357772,$GPRMC,164454.000,A,1205.8647,S,07701.4384,W,8.13,278.10,140526,,,A*64,0
1778777095358421046,$GPGGA,164455.000,1205.8643,S,07701.4407,W,1,06,1.4,169.6,M,8.4,M,,0000*6A,0
1778777095475315084,$GPGSA,M,3,21,05,14,17,30,11,,,,,,,2.5,1.4,2.0*38,0
1778777095640298532,$GPRMC,164455.000,A,1205.8643,S,07701.4407,W,7.63,278.32,140526,,,A*65,0
1778777096354718269,$GPGGA,164456.000,1205.8637,S,07701.4432,W,1,06,1.4,166.4,M,8.4,M,,0000*61,0
1778777096471592379,$GPGSA,M,3,21,05,14,17,30,11,,,,,,,2.5,1.4,2.0*38,0
1778777096636602199,$GPRMC,164456.000,A,1205.8637,S,07701.4432,W,7.31,278.10,140526,,,A*64,0
1778777097356028179,$GPGGA,164457.000,1205.8634,S,07701.4452,W,1,06,1.4,166.5,M,8.4,M,,0000*64,0
1778777097472915568,$GPGSA,M,3,21,05,14,17,30,11,,,,,,,2.5,1.4,2.0*38,0
1778777097637964633,$GPRMC,164457.000,A,1205.8634,S,07701.4452,W,6.93,278.23,140526,,,A*69,0
1778777098355865081,$GPGGA,164458.000,1205.8631,S,07701.4474,W,1,06,1.4,165.2,M,8.4,M,,0000*6E,0
1778777098472743563,$GPGSA,M,3,21,05,14,17,30,11,,,,,,,2.5,1.4,2.0*38,0
1778777098637759643,$GPRMC,164458.000,A,1205.8631,S,07701.4474,W,6.61,275.68,140526,,,A*68,0
1778777099356386492,$GPGGA,164459.000,1205.8631,S,07701.4493,W,1,06,1.4,164.3,M,8.4,M,,0000*66,0
1778777099473203134,$GPGSA,M,3,21,05,14,17,30,11,,,,,,,2.5,1.4,2.0*38,0
1778777099633624824,$GPGSV,3,1,12,21,61,335,46,05,57,268,46,14,35,146,42,17,29,077,32*78,0
1778777099794060775,$GPGSV,3,2,12,30,16,133,33,11,13,345,32,24,38,195,17,44,42,284,34*76,0
1778777099936144393,$GPGSV,3,3,12,28,66,145,,26,44,145,,13,43,175,,23,35,080,*7D,0
1778777100101156935,$GPRMC,164459.000,A,1205.8631,S,07701.4493,W,6.19,268.07,140526,,,A*6A,0
1778777100353670361,$GPGGA,164500.000,1205.8636,S,07701.4509,W,1,06,1.4,164.5,M,8.4,M,,0000*68,0
1778777100470541286,$GPGSA,M,3,21,05,14,17,30,11,,,,,,,2.5,1.4,2.0*38,0
1778777100635574645,$GPRMC,164500.000,A,1205.8636,S,07701.4509,W,5.87,259.44,140526,,,A*63,0
1778777101352679724,$GPGGA,164501.000,1205.8647,S,07701.4523,W,1,06,1.4,164.6,M,8.4,M,,0000*64,0
1778777101469555779,$GPGSA,M,3,21,05,14,17,30,11,,,,,,,2.5,1.4,2.0*38,0
1778777101634565562,$GPRMC,164501.000,A,1205.8647,S,07701.4523,W,5.80,243.70,140526,,,A*67,0
1778777102351265899,$GPGGA,164502.000,1205.8663,S,07701.4534,W,1,06,1.4,165.0,M,8.4,M,,0000*60,0
1778777102468145009,$GPGSA,M,3,21,05,14,17,30,11,,,,,,,2.5,1.4,2.0*38,0
1778777102633182221,$GPRMC,164502.000,A,1205.8663,S,07701.4534,W,6.15,225.36,140526,,,A*69,0
1778777103351369140,$GPGGA,164503.000,1205.8686,S,07701.4544,W,1,06,1.4,165.5,M,8.4,M,,0000*68,0
1778777103468187782,$GPGSA,M,3,21,05,14,17,30,11,,,,,,,2.5,1.4,2.0*38,0
1778777103633198325,$GPRMC,164503.000,A,1205.8686,S,07701.4544,W,7.60,209.92,140526,,,A*67,0
1778777104348651472,$GPGGA,164504.000,1205.8712,S,07701.4554,W,1,05,1.6,165.7,M,8.4,M,,0000*61,0
1778777104460948972,$GPGSA,M,3,21,05,14,17,11,,,,,,,,2.9,1.6,2.4*31,0
1778777104621377792,$GPGSV,3,1,12,21,61,335,45,05,57,268,26,14,35,146,42,17,29,077,41*79,0
1778777104781800631,$GPGSV,3,2,12,11,13,345,24,06,02,021,18,24,38,195,24,44,42,284,22*7D,0
1778777104923887600,$GPGSV,3,3,12,28,66,145,,26,44,145,,13,43,175,,23,35,080,*7D,0
1778777105088901995,$GPRMC,164504.000,A,1205.8712,S,07701.4554,W,8.26,201.79,140526,,,A*6D,0
1778777105354959215,$GPGGA,164505.000,1205.8733,S,07701.4562,W,1,05,1.6,165.7,M,8.4,M,,0000*66,0
1778777105467247547,$GPGSA,M,3,21,05,14,17,11,,,,,,,,2.9,1.6,2.4*31,0
1778777105632276980,$GPRMC,164505.000,A,1205.8733,S,07701.4562,W,8.42,201.13,140526,,,A*64,0
1778777106358336038,$GPGGA,164506.000,1205.8756,S,07701.4572,W,1,06,1.4,165.8,M,8.4,M,,0000*69,0
1778777106475225501,$GPGSA,M,3,21,05,14,17,30,11,,,,,,,2.5,1.4,2.0*38,0
1778777106640216375,$GPRMC,164506.000,A,1205.8756,S,07701.4572,W,9.52,203.95,140526,,,A*69,0
1778777107350047648,$GPGGA,164507.000,1205.8778,S,07701.4582,W,1,06,1.4,166.0,M,8.4,M,,0000*60,0
1778777107466921702,$GPGSA,M,3,21,05,14,17,30,11,,,,,,,2.5,1.4,2.0*38,0
1778777107631932541,$GPRMC,164507.000,A,1205.8778,S,07701.4582,W,9.92,205.52,140526,,,A*6A,0
1778777108354058529,$GPGGA,164508.000,1205.8802,S,07701.4595,W,1,05,1.6,166.1,M,8.4,M,,0000*6B,0
1778777108466354992,$GPGSA,M,3,21,05,14,17,11,,,,,,,,2.9,1.6,2.4*31,0
1778777108631357108,$GPRMC,164508.000,A,1205.8802,S,07701.4595,W,9.94,207.36,140526,,,A*67,0
1778777109356202719,$GPGGA,164509.000,1205.8826,S,07701.4609,W,1,05,1.6,166.1,M,8.4,M,,0000*6A,0
1778777109468489347,$GPGSA,M,3,21,05,14,17,11,,,,,,,,2.9,1.6,2.4*31,0
1778777109628902370,$GPGSV,3,1,12,21,61,335,46,05,57,268,40,14,35,146,28,17,29,077,31*71,0
1778777109789325486,$GPGSV,3,2,12,11,13,345,24,06,02,021,21,24,38,195,24,30,16,133,28*70,0
1778777109931423975,$GPGSV,3,3,12,44,42,284,,28,66,145,,26,44,145,,13,43,175,*7A,0
1778777110096429387,$GPRMC,164509.000,A,1205.8826,S,07701.4609,W,9.73,208.22,140526,,,A*65,0
1778777110352489346,$GPGGA,164510.000,1205.8850,S,07701.4630,W,1,06,1.4,165.6,M,8.4,M,,0000*6C,0
1778777110469365734,$GPGSA,M,3,21,05,14,17,30,11,,,,,,,2.5,1.4,2.0*38,0
1778777110634374387,$GPRMC,164510.000,A,1205.8850,S,07701.4630,W,9.64,212.03,140526,,,A*68,0
1778777111350041405,$GPGGA,164511.000,1205.8874,S,07701.4652,W,1,05,2.6,165.0,M,8.4,M,,0000*6B,0
1778777111462336460,$GPGSA,M,3,21,05,14,17,30,,,,,,,,6.7,2.6,6.2*39,0
1778777111627367227,$GPRMC,164511.000,A,1205.8874,S,07701.4652,W,9.80,213.86,140526,,,A*6D,0
1778777112352597410,$GPGGA,164512.000,1205.8900,S,07701.4672,W,1,05,2.6,164.6,M,8.4,M,,0000*6F,0
1778777112464884539,$GPGSA,M,3,21,05,14,17,30,,,,,,,,6.7,2.6,6.2*39,0
1778777112632181867,$GPRMC,164512.000,A,1205.8900,S,07701.4672,W,10.27,210.60,140526,,,A*50,0
1778777113357430275,$GPGGA,164513.000,1205.8927,S,07701.4691,W,1,05,2.6,164.3,M,8.4,M,,0000*63,0
1778777113469711514,$GPGSA,M,3,21,05,14,17,30,,,,,,,,6.7,2.6,6.2*39,0
1778777113637025196,$GPRMC,164513.000,A,1205.8927,S,07701.4691,W,10.30,207.45,140526,,,A*5E,0
1778777114351441134,$GPGGA,164514.000,1205.8953,S,07701.4712,W,1,05,2.6,164.1,M,8.4,M,,0000*6F,0
1778777114463730967,$GPGSA,M,3,21,05,14,17,30,,,,,,,,6.7,2.6,6.2*39,0
1778777114624159676,$GPGSV,3,1,12,21,61,335,41,05,57,268,46,14,35,146,29,17,29,077,32*72,0
1778777114784582626,$GPGSV,3,2,12,30,16,133,29,11,13,345,14,24,38,195,24,44,42,284,33*7E,0
1778777114926677226,$GPGSV,3,3,12,28,66,145,,26,44,145,,13,43,175,,23,35,080,*7D,0
1778777115093966257,$GPRMC,164514.000,A,1205.8953,S,07701.4712,W,10.22,210.42,140526,,,A*52,0
1778777115352313742,$GPGGA,164515.000,1205.8986,S,07701.4726,W,1,05,2.6,164.3,M,8.4,M,,0000*63,0
1778777115464607038,$GPGSA,M,3,21,05,14,17,30,,,,,,,,6.7,2.6,6.2*39,0
1778777115631912960,$GPRMC,164515.000,A,1205.8986,S,07701.4726,W,10.66,206.39,140526,,,A*57,0
1778777116351958291,$GPGGA,164516.000,1205.9024,S,07701.4738,W,1,05,2.6,165.2,M,8.4,M,,0000*6F,0
1778777116464237438,$GPGSA,M,3,21,05,14,17,30,,,,,,,,6.7,2.6,6.2*39,0
1778777116631589031,$GPRMC,164516.000,A,1205.9024,S,07701.4738,W,11.28,204.65,140526,,,A*5B,0
1778777117351583450,$GPGGA,164517.000,1205.9060,S,07701.4751,W,1,05,2.6,165.8,M,8.4,M,,0000*6B,0
1778777117463860281,$GPGSA,M,3,21,05,14,17,30,,,,,,,,6.7,2.6,6.2*39,0
1778777117631237858,$GPRMC,164517.000,A,1205.9060,S,07701.4751,W,11.67,205.91,140526,,,A*54,0
1778777118354339306,$GPGGA,164518.000,1205.9096,S,07701.4766,W,1,05,2.6,166.4,M,8.4,M,,0000*66,0
1778777118466638417,$GPGSA,M,3,21,05,14,17,30,,,,,,,,6.7,2.6,6.2*39,0
1778777118633939542,$GPRMC,164518.000,A,1205.9096,S,07701.4766,W,11.60,206.07,140526,,,A*5D,0
1778777119352725016,$GPGGA,164519.000,1205.9129,S,07701.4779,W,1,05,2.6,167.2,M,8.4,M,,0000*6B,0
1778777119465020608,$GPGSA,M,3,21,05,14,17,30,,,,,,,,6.7,2.6,6.2*39,0
1778777119625445169,$GPGSV,3,1,12,21,61,335,44,05,57,268,46,14,35,146,41,17,29,077,37*7C,0
1778777119781357496,$GPGSV,3,2,12,30,16,133,29,24,38,195,38,44,42,284,41,28,66,145,*79,0
1778777119923392331,$GPGSV,3,3,12,26,44,145,,13,43,175,,23,35,080,,16,33,145,*70,0
1778777120090684788,$GPRMC,164519.000,A,1205.9129,S,07701.4779,W,11.43,205.58,140526,,,A*5F,0
1778777120350495669,$GPGGA,164520.000,1205.9167,S,07701.4798,W,1,04,1.8,168.7,M,8.4,M,,0000*62,0
1778777120458191038,$GPGSA,M,3,21,05,14,17,,,,,,,,,3.6,1.8,3.1*35,0
1778777120625561780,$GPRMC,164520.000,A,1205.9167,S,07701.4798,W,11.69,205.08,140526,,,A*5D,0
1778777121358647285,$GPGGA,164521.000,1205.9197,S,07701.4813,W,1,05,1.6,168.7,M,8.4,M,,0000*6F,0
1778777121470937599,$GPGSA,M,3,21,05,14,17,11,,,,,,,,2.9,1.6,2.4*31,0
1778777121638247058,$GPRMC,164521.000,A,1205.9197,S,07701.4813,W,11.27,205.68,140526,,,A*53,0
1778777122356619215,$GPGGA,164522.000,1205.9225,S,07701.4827,W,1,06,1.4,168.5,M,8.4,M,,0000*62,0
1778777122473492158,$GPGSA,M,3,21,05,14,17,30,11,,,,,,,2.5,1.4,2.0*38,0
1778777122640799710,$GPRMC,164522.000,A,1205.9225,S,07701.4827,W,11.10,205.72,140526,,,A*52,0
1778777123355232446,$GPGGA,164523.000,1205.9254,S,07701.4840,W,1,06,1.4,168.4,M,8.4,M,,0000*65,0
1778777123472079479,$GPGSA,M,3,21,05,14,17,30,11,,,,,,,2.5,1.4,2.0*38,0
1778777123639385067,$GPRMC,164523.000,A,1205.9254,S,07701.4840,W,11.26,204.84,140526,,,A*59,0
1778777124353794357,$GPGGA,164524.000,1205.9283,S,07701.4852,W,1,05,2.6,167.9,M,8.4,M,,0000*6B,0
1778777124466095949,$GPGSA,M,3,21,05,14,17,30,,,,,,,,6.7,2.6,6.2*39,0
1778777124626531215,$GPGSV,3,1,12,21,61,335,43,05,57,268,34,14,35,146,33,17,29,077,37*7B,0
1778777124786949534,$GPGSV,3,2,12,30,16,133,21,11,13,345,11,24,38,195,37,44,42,284,35*77,0
1778777124929022020,$GPGSV,3,3,12,28,66,145,,26,44,145,,13,43,175,,23,35,080,*7D,0
1778777125096322256,$GPRMC,164524.000,A,1205.9283,S,07701.4852,W,11.49,204.60,140526,,,A*54,0
1778777125350726783,$GPGGA,164525.000,1205.9312,S,07701.4865,W,1,04,1.8,167.9,M,8.4,M,,0000*6B,0
1778777125458428911,$GPGSA,M,3,21,05,14,17,,,,,,,,,3.6,1.8,3.1*35,0
1778777125625776022,$GPRMC,164525.000,A,1205.9312,S,07701.4865,W,11.11,204.50,140526,,,A*56,0
1778777126355777148,$GPGGA,164526.000,1205.9340,S,07701.4877,W,1,05,1.6,167.8,M,8.4,M,,0000*62,0
1778777126468060887,$GPGSA,M,3,21,05,14,17,11,,,,,,,,2.9,1.6,2.4*31,0
1778777126635360160,$GPRMC,164526.000,A,1205.9340,S,07701.4877,W,11.21,204.21,140526,,,A*54,0
1778777127356030771,$GPGGA,164527.000,1205.9371,S,07701.4890,W,1,06,1.4,167.9,M,8.4,M,,0000*68,0
1778777127472908881,$GPGSA,M,3,21,05,14,17,30,11,,,,,,,2.5,1.4,2.0*38,0
1778777127640279105,$GPRMC,164527.000,A,1205.9371,S,07701.4890,W,11.55,204.93,140526,,,A*54,0
1778777128355034796,$GPGGA,164528.000,1205.9402,S,07701.4903,W,1,06,1.4,167.9,M,8.4,M,,0000*6F,0
1778777128471901813,$GPGSA,M,3,21,05,14,17,30,11,,,,,,,2.5,1.4,2.0*38,0
1778777128639214457,$GPRMC,164528.000,A,1205.9402,S,07701.4903,W,11.96,205.16,140526,,,A*50,0
1778777129358008394,$GPGGA,164529.000,1205.9432,S,07701.4914,W,1,06,1.4,167.6,M,8.4,M,,0000*64,0
1778777129474883523,$GPGSA,M,3,21,05,14,17,30,11,,,,,,,2.5,1.4,2.0*38,0
1778777129635300693,$GPGSV,3,1,12,21,61,335,39,05,57,268,40,14,35,146,39,17,29,077,39*71,0
1778777129795795057,$GPGSV,3,2,12,30,16,133,23,11,13,345,22,06,02,021,13,13,43,175,32*7D,0
1778777129946978111,$GPGSV,3,3,12,24,38,195,34,44,42,284,35,28,66,145,,26,44,145,*7D,0
1778777130114294237,$GPRMC,164529.000,A,1205.9432,S,07701.4914,W,11.97,204.27,140526,,,A*56,0
1778777130355555858,$GPGGA,164530.000,1205.9460,S,07701.4926,W,1,06,1.4,167.1,M,8.4,M,,0000*6D,0
1778777130472434895,$GPGSA,M,3,21,05,14,17,30,11,,,,,,,2.5,1.4,2.0*38,0
1778777130639744965,$GPRMC,164530.000,A,1205.9460,S,07701.4926,W,11.47,203.91,140526,,,A*5F,0
1778777131358098990,$GPGGA,164531.000,1205.9488,S,07701.4938,W,1,06,1.4,166.8,M,8.4,M,,0000*6D,0
1778777131474969636,$GPGSA,M,3,21,05,14,17,30,11,,,,,,,2.5,1.4,2.0*38,0
1778777131642285170,$GPRMC,164531.000,A,1205.9488,S,07701.4938,W,11.18,204.28,140526,,,A*58,0
1778777132357327777,$GPGGA,164532.000,1205.9515,S,07701.4951,W,1,06,1.4,166.2,M,8.4,M,,0000*6E,0
1778777132474189997,$GPGSA,M,3,21,05,14,17,30,11,,,,,,,2.5,1.4,2.0*38,0
1778777132641508493,$GPRMC,164532.000,A,1205.9515,S,07701.4951,W,10.69,204.45,140526,,,A*5D,0
1778777133356742525,$GPGGA,164533.000,1205.9540,S,07701.4964,W,1,06,1.4,166.1,M,8.4,M,,0000*6A,0
1778777133473687549,$GPGSA,M,3,21,05,14,17,30,11,,,,,,,2.5,1.4,2.0*38,0
1778777133640922945,$GPRMC,164533.000,A,1205.9540,S,07701.4964,W,10.39,205.73,140526,,,A*5B,0
1778777134355953088,$GPGGA,164534.000,1205.9562,S,07701.4978,W,1,05,1.6,164.6,M,8.4,M,,0000*64,0
1778777134468240272,$GPGSA,M,3,21,05,14,17,11,,,,,,,,2.9,1.6,2.4*31,0
1778777134628722060,$GPGSV,3,1,12,21,61,335,36,05,57,268,34,14,35,146,18,17,29,077,21*77,0
1778777134789104746,$GPGSV,3,2,12,11,13,345,29,13,43,175,25,24,38,195,18,30,16,133,07*7A,0
1778777134935776382,$GPGSV,3,3,12,44,42,284,35,28,66,145,,26,44,145,,23,35,080,*75,0
1778777135103092360,$GPRMC,164534.000,A,1205.9562,S,07701.4978,W,10.05,206.51,140526,,,A*5D,0
1778777135357045029,$GPGGA,164535.000,1205.9581,S,07701.4989,W,1,06,1.4,163.2,M,8.4,M,,0000*64,0
1778777135473927343,$GPGSA,M,3,21,05,14,17,30,11,,,,,,,2.5,1.4,2.0*38,0
1778777135638949423,$GPRMC,164535.000,A,1205.9581,S,07701.4989,W,8.64,206.00,140526,,,A*65,0
1778777136357102874,$GPGGA,164536.000,1205.9594,S,07701.4998,W,1,06,1.4,161.7,M,8.4,M,,0000*64,0
1778777136474052769,$GPGSA,M,3,21,05,14,17,30,11,,,,,,,2.5,1.4,2.0*38,0
1778777136638985192,$GPRMC,164536.000,A,1205.9594,S,07701.4998,W,6.96,204.64,140526,,,A*61,0
1778777137359023892,$GPGGA,164537.000,1205.9601,S,07701.5003,W,1,06,1.4,160.3,M,8.4,M,,0000*65,0
1778777137475891594,$GPGSA,M,3,21,05,14,17,30,11,,,,,,,2.5,1.4,2.0*38,0
1778777137640914247,$GPRMC,164537.000,A,1205.9601,S,07701.5003,W,4.51,205.26,140526,,,A*6B,0
1778777138358661420,$GPGGA,164538.000,1205.9605,S,07701.5008,W,1,06,1.4,156.8,M,8.4,M,,0000*6B,0
1778777138475526769,$GPGSA,M,3,21,05,14,17,30,11,,,,,,,2.5,1.4,2.0*38,0
1778777138640537959,$GPRMC,164538.000,A,1205.9605,S,07701.5008,W,3.67,205.41,140526,,,A*68,0
1778777139361630090,$GPGGA,164539.000,1205.9612,S,07701.5013,W,1,06,1.4,154.1,M,8.4,M,,0000*6D,0
1778777139478502867,$GPGSA,M,3,21,05,14,17,30,11,,,,,,,2.5,1.4,2.0*38,0
1778777139638927464,$GPGSV,3,1,12,21,61,335,43,05,57,268,43,14,35,146,39,17,29,077,21*76,0
1778777139799354765,$GPGSV,3,2,12,30,16,133,31,11,13,345,39,13,43,175,19,24,38,195,16*7F,0
1778777139946021752,$GPGSV,3,3,12,44,42,284,42,28,66,145,,26,44,145,,23,35,080,*75,0
1778777140111038702,$GPRMC,164539.000,A,1205.9612,S,07701.5013,W,4.38,205.18,140526,,,A*64,0
1778777140358120900,$GPGGA,164540.000,1205.9625,S,07701.5018,W,1,06,1.4,152.9,M,8.4,M,,0000*62,0
1778777140475003159,$GPGSA,M,3,21,05,14,17,30,11,,,,,,,2.5,1.4,2.0*38,0
1778777140640009904,$GPRMC,164540.000,A,1205.9625,S,07701.5018,W,5.39,204.43,140526,,,A*6A,0
1778777141355678957,$GPGGA,164541.000,1205.9641,S,07701.5025,W,1,06,1.4,152.3,M,8.4,M,,0000*65,0
1778777141472554011,$GPGSA,M,3,21,05,14,17,30,11,,,,,,,2.5,1.4,2.0*38,0
1778777141637564516,$GPRMC,164541.000,A,1205.9641,S,07701.5025,W,6.15,203.92,140526,,,A*61,0
1778777142356147432,$GPGGA,164542.000,1205.9658,S,07701.5033,W,1,06,1.4,151.4,M,8.4,M,,0000*6D,0
1778777142473006911,$GPGSA,M,3,21,05,14,17,30,11,,,,,,,2.5,1.4,2.0*38,0
1778777142638030157,$GPRMC,164542.000,A,1205.9658,S,07701.5033,W,6.57,206.43,140526,,,A*62,0
1778777143355774607,$GPGGA,164543.000,1205.9675,S,07701.5043,W,1,06,1.4,150.8,M,8.4,M,,0000*69,0
1778777143472649550,$GPGSA,M,3,21,05,14,17,30,11,,,,,,,2.5,1.4,2.0*38,0
1778777143637668815,$GPRMC,164543.000,A,1205.9675,S,07701.5043,W,7.03,209.62,140526,,,A*67,0
1778777144358349185,$GPGGA,164544.000,1205.9691,S,07701.5055,W,1,06,1.4,149.9,M,8.4,M,,0000*6A,0
1778777144475197885,$GPGSA,M,3,21,05,14,17,30,11,,,,,,,2.5,1.4,2.0*38,0
1778777144635642040,$GPGSV,3,1,12,21,61,335,43,05,57,268,44,14,35,146,31,17,29,077,29*71,0
1778777144796056803,$GPGSV,3,2,12,30,16,133,33,11,13,345,36,24,38,195,16,44,42,284,40*70,0
1778777144938136512,$GPGSV,3,3,12,28,66,145,,26,44,145,,13,43,175,,23,35,080,*7D,0
1778777145103149831,$GPRMC,164544.000,A,1205.9691,S,07701.5055,W,7.12,210.78,140526,,,A*6E,0
1778777145355253459,$GPGGA,164545.000,1205.9708,S,07701.5072,W,1,06,1.4,148.7,M,8.4,M,,0000*60,0
1778777145472124957,$GPGSA,M,3,21,05,14,17,30,11,,,,,,,2.5,1.4,2.0*38,0
1778777145637136295,$GPRMC,164545.000,A,1205.9708,S,07701.5072,W,6.67,206.67,140526,,,A*61,0
1778777146359666059,$GPGGA,164546.000,1205.9727,S,07701.5077,W,1,06,1.4,147.2,M,8.4,M,,0000*61,0
1778777146476547503,$GPGSA,M,3,21,05,14,17,30,11,,,,,,,2.5,1.4,2.0*38,0
1778777146641544135,$GPRMC,164546.000,A,1205.9727,S,07701.5077,W,6.17,192.01,140526,,,A*63,0
1778777147359718995,$GPGGA,164547.000,1205.9744,S,07701.5075,W,1,06,1.4,145.9,M,8.4,M,,0000*6E,0
1778777147476597383,$GPGSA,M,3,21,05,14,17,30,11,,,,,,,2.5,1.4,2.0*38,0
1778777147641598035,$GPRMC,164547.000,A,1205.9744,S,07701.5075,W,6.06,175.67,140526,,,A*6C,0
1778777148356849530,$GPGGA,164548.000,1205.9764,S,07701.5064,W,1,06,1.4,144.9,M,8.4,M,,0000*62,0
1778777148473723399,$GPGSA,M,3,21,05,14,17,30,11,,,,,,,2.5,1.4,2.0*38,0
1778777148638738589,$GPRMC,164548.000,A,1205.9764,S,07701.5064,W,7.46,149.19,140526,,,A*62,0
1778777149360862630,$GPGGA,164549.000,1205.9781,S,07701.5045,W,1,06,1.4,144.4,M,8.4,M,,0000*66,0
1778777149477728073,$GPGSA,M,3,21,05,14,17,30,11,,,,,,,2.5,1.4,2.0*38,0
1778777149638156152,$GPGSV,3,1,12,21,61,335,35,05,57,268,45,14,35,146,44,17,29,077,37*7C,0
1778777149798568359,$GPGSV,3,2,12,30,16,133,38,11,13,345,36,24,38,195,23,44,42,284,44*79,0
1778777149940706796,$GPGSV,3,3,12,28,66,145,,26,44,145,,13,43,175,,23,35,080,*7D,0
1778777150105747803,$GPRMC,164549.000,A,1205.9781,S,07701.5045,W,8.99,132.64,140526,,,A*60,0
1778777150360928271,$GPGGA,164550.000,1205.9797,S,07701.5020,W,1,06,1.4,143.8,M,8.4,M,,0000*61,0
1778777150477839181,$GPGSA,M,3,21,05,14,17,30,11,,,,,,,2.5,1.4,2.0*38,0
1778777150645098061,$GPRMC,164550.000,A,1205.9797,S,07701.5020,W,10.09,122.28,140526,,,A*55,0
