Unix_time,GPS_data,motion_flag
1779392414370,$GPGSA,M,3,15,24,12,20,25,29,11,19,06,05,,,1.7,0.8,1.4*31,0
1779392431823,$GPRMC,194014.000,A,1205.9643,S,07701.4561,W,0.00,25.98,210526,,,A*55,0
1779392431824,$GPGGA,194015.000,1205.9643,S,07701.4561,W,1,09,0.9,139.3,M,8.4,M,,0000*66,0
1779392431824,$GPGSA,M,3,15,24,12,20,25,29,11,06,05,,,,1.8,0.9,1.6*35,0
1779392431824,$GPRMC,194015.000,A,1205.9643,S,07701.4561,W,0.00,25.98,210526,,,A*54,0
1779392431824,$GPGGA,194016.000,1205.9643,S,07701.4561,W,1,09,0.9,139.3,M,8.4,M,,0000*65,0
1779392431825,$GPGSA,M,3,15,24,12,20,25,29,11,06,05,,,,1.8,0.9,1.6*35,0
1779392431825,$GPRMC,194016.000,A,1205.9643,S,07701.4561,W,0.00,25.98,210526,,,A*57,0
1779392431825,$GPGGA,194017.000,1205.9643,S,07701.4561,W,1,10,0.8,139.3,M,8.4,M,,0000*6D,0
1779392431825,$GPGSA,M,3,15,24,12,20,25,29,11,19,06,05,,,1.7,0.8,1.4*31,0
1779392431825,$GPGSV,3,1,12,15,58,341,46,24,52,165,40,12,44,208,46,20,39,017,43*70,0
1779392431825,$GPGSV,3,2,12,25,28,252,43,29,27,329,40,11,23,068,40,19,10,142,18*7A,0
1779392431825,$GPGSV,3,3,12,06,10,105,14,05,06,010,23,46,29,279,44,14,33,220,*7F,0
1779392431825,$GPRMC,194017.000,A,1205.9643,S,07701.4561,W,0.00,25.98,210526,,,A*56,0
1779392431826,$GPGGA,194018.000,1205.9643,S,07701.4561,W,1,10,0.8,139.3,M,8.4,M,,0000*62,0
1779392431826,$GPGSA,M,3,15,24,12,20,25,29,11,19,06,05,,,1.7,0.8,1.4*31,0
1779392431826,$GPRMC,194018.000,A,1205.9643,S,07701.4561,W,0.00,25.98,210526,,,A*59,0
1779392431826,$GPGGA,194019.000,1205.9643,S,07701.4561,W,1,10,0.8,139.3,M,8.4,M,,0000*63,0
1779392431826,$GPGSA,M,3,15,24,12,20,25,29,11,19,06,05,,,1.7,0.8,1.4*31,0
1779392431826,$GPRMC,194019.000,A,1205.9643,S,07701.4561,W,0.00,25.98,210526,,,A*58,0
1779392431826,$GPGGA,194020.000,1205.9643,S,07701.4561,W,1,10,0.8,139.3,M,8.4,M,,0000*69,0
1779392431826,$GPGSA,M,3,15,24,12,20,25,29,11,19,06,05,,,1.7,0.8,1.4*31,0
1779392431827,$GPRMC,194020.000,A,1205.9643,S,07701.4561,W,0.00,25.98,210526,,,A*52,0
1779392431827,$GPGGA,194021.000,1205.9643,S,07701.4561,W,1,10,0.8,139.3,M,8.4,M,,0000*68,0
1779392431827,$GPGSA,M,3,15,24,12,20,25,29,11,19,06,05,,,1.7,0.8,1.4*31,0
1779392431827,$GPRMC,194021.000,A,1205.9643,S,07701.4561,W,0.00,25.98,210526,,,A*53,0
1779392431827,$GPGGA,194022.000,1205.9643,S,07701.4561,W,1,10,0.8,139.3,M,8.4,M,,0000*6B,0
1779392431827,$GPGSA,M,3,15,24,12,20,25,29,11,19,06,05,,,1.7,0.8,1.4*31,0
1779392431827,$GPGSV,3,1,12,15,58,341,46,24,52,165,40,12,44,208,47,20,39,017,44*76,0
1779392431827,$GPGSV,3,2,12,25,28,252,43,29,27,329,40,11,23,068,40,19,10,142,17*75,0
1779392431828,$GPGSV,3,3,12,06,10,105,17,05,06,010,22,46,29,279,44,14,33,220,*7D,0
1779392431828,$GPRMC,194022.000,A,1205.9643,S,07701.4561,W,0.00,25.98,210526,,,A*50,0
1779392431828,$GPGGA,194023.000,1205.9643,S,07701.4561,W,1,10,0.8,139.3,M,8.4,M,,0000*6A,0
1779392431828,$GPGSA,M,3,15,24,12,20,25,29,11,19,06,05,,,1.7,0.8,1.4*31,0
1779392431828,$GPRMC,194023.000,A,1205.9643,S,07701.4561,W,0.00,25.98,210526,,,A*51,0
1779392431828,$GPGGA,194024.000,1205.9643,S,07701.4561,W,1,10,0.8,139.3,M,8.4,M,,0000*6D,0
1779392431828,$GPGSA,M,3,15,24,12,20,25,29,11,19,06,05,,,1.7,0.8,1.4*31,0
1779392431828,$GPRMC,194024.000,A,1205.9643,S,07701.4561,W,0.00,25.98,210526,,,A*56,0
1779392431829,$GPGGA,194025.000,1205.9643,S,07701.4561,W,1,10,0.8,139.3,M,8.4,M,,0000*6C,0
1779392431829,$GPGSA,M,3,15,24,12,20,25,29,11,19,06,05,,,1.7,0.8,1.4*31,0
1779392431829,$GPRMC,194025.000,A,1205.9643,S,07701.4561,W,0.00,25.98,210526,,,A*57,0
1779392431829,$GPGGA,194026.000,1205.9643,S,07701.4561,W,1,10,0.8,139.3,M,8.4,M,,0000*6F,0
1779392431829,$GPGSA,M,3,15,24,12,20,25,29,11,19,06,05,,,1.7,0.8,1.4*31,0
1779392431829,$GPRMC,194026.000,A,1205.9643,S,07701.4561,W,0.00,25.98,210526,,,A*54,0
1779392431829,$GPGGA,194027.000,1205.9643,S,07701.4561,W,1,10,0.8,139.3,M,8.4,M,,0000*6E,0
1779392431830,$GPGSA,M,3,15,24,12,20,25,29,11,19,06,05,,,1.7,0.8,1.4*31,0
1779392431830,$GPGSV,3,1,12,15,58,341,46,24,52,165,40,12,44,208,47,20,39,017,44*76,0
1779392431830,$GPGSV,3,2,12,25,28,252,43,29,27,329,40,11,23,068,39,19,10,142,16*7A,0
1779392431830,$GPGSV,3,3,12,06,10,105,18,05,06,010,22,46,29,279,43,14,33,220,*75,0
1779392431830,$GPRMC,194027.000,A,1205.9643,S,07701.4561,W,0.00,25.98,210526,,,A*55,0
1779392431830,$GPGGA,194028.000,1205.9643,S,07701.4561,W,1,10,0.8,139.3,M,8.4,M,,0000*61,0
1779392431830,$GPGSA,M,3,15,24,12,20,25,29,11,19,06,05,,,1.7,0.8,1.4*31,0
1779392431830,$GPRMC,194028.000,A,1205.9643,S,07701.4561,W,0.00,25.98,210526,,,A*5A,0
1779392431831,$GPGGA,194029.000,1205.9643,S,07701.4561,W,1,10,0.8,139.3,M,8.4,M,,0000*60,0
1779392431831,$GPGSA,M,3,15,24,12,20,25,29,11,19,06,05,,,1.7,0.8,1.4*31,0
1779392431831,$GPRMC,194029.000,A,1205.9643,S,07701.4561,W,0.00,25.98,210526,,,A*5B,0
1779392431831,$GPGGA,194030.000,1205.9643,S,07701.4561,W,1,10,0.8,139.3,M,8.4,M,,0000*68,0
1779392431831,$GPGSA,M,3,15,24,12,20,29,25,11,06,19,05,,,1.7,0.8,1.4*31,0
1779392431831,$GPRMC,194030.000,A,1205.9643,S,07701.4561,W,0.00,25.98,210526,,,A*53,0
1779392431831,$GPGGA,194031.000,1205.9643,S,07701.4561,W,1,10,0.8,139.3,M,8.4,M,,0000*69,0
1779392431832,$GPGSA,M,3,15,24,12,20,29,25,11,06,19,05,,,1.7,0.8,1.4*31,0
1779392431832,$GPRMC,194031.000,A,1205.9643,S,07701.4561,W,0.00,25.98,210526,,,A*52,0
1779392432235,$GPGGA,194032.000,1205.9643,S,07701.4561,W,1,10,0.8,139.3,M,8.4,M,,0000*6A,0
1779392432371,$GPGSA,M,3,15,24,12,20,29,25,11,06,19,05,,,1.7,0.8,1.4*31,0
1779392432531,$GPGSV,3,1,12,15,56,343,46,24,53,163,41,12,43,206,47,20,37,017,44*7B,0
1779392432691,$GPGSV,3,2,12,29,28,329,40,25,28,250,43,11,23,069,40,06,10,106,16*76,0
1779392432847,$GPGSV,3,3,12,19,09,142,16,05,05,011,21,46,29,279,43,14,35,221,*78,0
1779392433010,$GPRMC,194032.000,A,1205.9643,S,07701.4561,W,0.00,25.98,210526,,,A*51,0
1779392433232,$GPGGA,194033.000,1205.9643,S,07701.4561,W,1,09,0.9,139.3,M,8.4,M,,0000*62,0
1779392433363,$GPGSA,M,3,15,24,12,20,29,25,11,06,05,,,,1.8,0.9,1.6*35,0
1779392433526,$GPRMC,194033.000,A,1205.9643,S,07701.4561,W,0.00,25.98,210526,,,A*50,0
1779392434234,$GPGGA,194034.000,1205.9643,S,07701.4561,W,1,10,0.8,139.3,M,8.4,M,,0000*6C,0
1779392434370,$GPGSA,M,3,15,24,12,20,29,25,11,06,19,05,,,1.7,0.8,1.4*31,0
1779392434532,$GPRMC,194034.000,A,1205.9643,S,07701.4561,W,0.00,25.98,210526,,,A*57,0
1779392435234,$GPGGA,194035.000,1205.9643,S,07701.4561,W,1,10,0.8,139.3,M,8.4,M,,0000*6D,0
1779392435369,$GPGSA,M,3,15,24,12,20,29,25,11,06,19,05,,,1.7,0.8,1.4*31,0
1779392435532,$GPRMC,194035.000,A,1205.9643,S,07701.4561,W,0.00,25.98,210526,,,A*56,0
1779392436232,$GPGGA,194036.000,1205.9643,S,07701.4561,W,1,09,0.9,139.3,M,8.4,M,,0000*67,0
1779392436362,$GPGSA,M,3,15,24,12,20,29,25,11,06,05,,,,1.8,0.9,1.6*35,0
1779392436525,$GPRMC,194036.000,A,1205.9643,S,07701.4561,W,0.00,25.98,210526,,,A*55,0
1779392437240,$GPGGA,194037.000,1205.9643,S,07701.4561,W,1,09,0.9,139.3,M,8.4,M,,0000*66,0
1779392437371,$GPGSA,M,3,15,24,12,20,29,25,11,06,05,,,,1.8,0.9,1.6*35,0
1779392437531,$GPGSV,3,1,12,15,56,343,45,24,53,163,41,12,43,206,47,20,37,017,44*78,0
1779392437691,$GPGSV,3,2,12,29,28,329,40,25,28,250,43,11,23,069,39,06,10,106,15*7B,0
1779392437847,$GPGSV,3,3,12,05,05,011,21,19,09,142,18,46,29,279,44,14,35,221,*71,0
1779392438010,$GPRMC,194037.000,A,1205.9643,S,07701.4561,W,0.00,25.98,210526,,,A*54,0
1779392438235,$GPGGA,194038.000,1205.9643,S,07701.4561,W,1,10,0.8,139.3,M,8.4,M,,0000*60,0
1779392438371,$GPGSA,M,3,15,24,12,20,29,25,11,06,19,05,,,1.7,0.8,1.4*31,0
1779392438533,$GPRMC,194038.000,A,1205.9643,S,07701.4561,W,0.00,25.98,210526,,,A*5B,0
1779392439236,$GPGGA,194039.000,1205.9643,S,07701.4561,W,1,10,0.8,139.3,M,8.4,M,,0000*61,0
1779392439371,$GPGSA,M,3,15,24,12,20,29,25,11,06,19,05,,,1.7,0.8,1.4*31,0
1779392439534,$GPRMC,194039.000,A,1205.9643,S,07701.4561,W,0.00,25.98,210526,,,A*5A,0
1779392440235,$GPGGA,194040.000,1205.9643,S,07701.4561,W,1,10,0.8,139.3,M,8.4,M,,0000*6F,0
1779392440371,$GPGSA,M,3,15,24,12,20,29,25,11,06,19,05,,,1.7,0.8,1.4*31,0
1779392440533,$GPRMC,194040.000,A,1205.9643,S,07701.4561,W,0.00,25.98,210526,,,A*54,0
1779392441236,$GPGGA,194041.000,1205.9643,S,07701.4561,W,1,10,0.8,139.3,M,8.4,M,,0000*6E,0
1779392441371,$GPGSA,M,3,15,24,12,20,29,25,11,06,19,05,,,1.7,0.8,1.4*31,0
1779392441534,$GPRMC,194041.000,A,1205.9643,S,07701.4561,W,0.00,25.98,210526,,,A*55,0
1779392442230,$GPGGA,194042.000,1205.9643,S,07701.4561,W,1,09,0.9,139.3,M,8.4,M,,0000*64,0
1779392442361,$GPGSA,M,3,15,24,12,20,29,25,11,06,19,,,,1.9,0.9,1.7*38,0
1779392442521,$GPGSV,3,1,12,15,56,343,45,24,53,163,41,12,43,206,47,20,37,017,44*78,0
1779392442681,$GPGSV,3,2,12,29,28,329,40,25,28,250,43,11,23,069,40,06,10,106,15*75,0
1779392442837,$GPGSV,3,3,12,19,09,142,20,05,05,011,10,46,29,279,44,14,35,221,*78,0
1779392443000,$GPRMC,194042.000,A,1205.9643,S,07701.4561,W,0.00,25.98,210526,,,A*56,0
1779392443229,$GPGGA,194043.000,1205.9643,S,07701.4561,W,1,08,0.9,139.3,M,8.4,M,,0000*64,0
1779392443355,$GPGSA,M,3,15,24,12,20,29,25,11,06,,,,,2.1,0.9,1.9*35,0
1779392443518,$GPRMC,194043.000,A,1205.9643,S,07701.4561,W,0.00,25.98,210526,,,A*57,0
1779392444228,$GPGGA,194044.000,1205.9643,S,07701.4561,W,1,08,0.9,139.3,M,8.4,M,,0000*63,0
1779392444355,$GPGSA,M,3,15,24,12,20,29,25,11,06,,,,,2.1,0.9,1.9*35,0
1779392444517,$GPRMC,194044.000,A,1205.9643,S,07701.4561,W,0.00,25.98,210526,,,A*50,0
1779392445229,$GPGGA,194045.000,1205.9643,S,07701.4561,W,1,08,0.9,139.3,M,8.4,M,,0000*62,0
1779392445355,$GPGSA,M,3,15,24,12,20,29,25,11,06,,,,,2.1,0.9,1.9*35,0
1779392445518,$GPRMC,194045.000,A,1205.9643,S,07701.4561,W,0.00,25.98,210526,,,A*51,0
1779392446228,$GPGGA,194046.000,1205.9643,S,07701.4561,W,1,08,0.9,139.3,M,8.4,M,,0000*61,0
1779392446354,$GPGSA,M,3,15,24,12,20,29,25,11,06,,,,,2.1,0.9,1.9*35,0
1779392446517,$GPRMC,194046.000,A,1205.9643,S,07701.4561,W,0.00,25.98,210526,,,A*52,0
1779392447239,$GPGGA,194047.000,1205.9643,S,07701.4561,W,1,10,0.8,139.3,M,8.4,M,,0000*68,0
1779392447374,$GPGSA,M,3,15,24,12,20,29,25,11,06,19,05,,,1.7,0.8,1.4*31,0
1779392447534,$GPGSV,3,1,12,15,56,343,45,24,53,163,41,12,43,206,47,20,37,017,44*78,0
1779392447695,$GPGSV,3,2,12,29,28,329,40,25,28,250,43,11,23,069,39,06,10,106,15*7B,0
1779392447851,$GPGSV,3,3,12,19,09,142,19,05,05,011,09,46,29,279,43,14,35,221,*7D,0
1779392448013,$GPRMC,194047.000,A,1205.9643,S,07701.4561,W,0.00,25.98,210526,,,A*53,0
1779392448234,$GPGGA,194048.000,1205.9643,S,07701.4561,W,2,05,1.6,139.3,M,8.4,M,2.0,0000*43,0
1779392448347,$GPGSA,M,3,15,20,25,11,05,,,,,,,,2.5,1.6,1.9*32,0
1779392448509,$GPRMC,194048.000,A,1205.9643,S,07701.4561,W,0.00,25.98,210526,,,D*59,0
1779392449238,$GPGGA,194049.000,1205.9643,S,07701.4561,W,2,06,1.4,139.3,M,8.4,M,2.0,0000*43,0
1779392449354,$GPGSA,M,3,15,20,29,25,11,05,,,,,,,2.4,1.4,1.9*3A,0
1779392449517,$GPRMC,194049.000,A,1205.9643,S,07701.4561,W,0.00,25.98,210526,,,D*58,0
1779392450236,$GPGGA,194050.000,1205.9643,S,07701.4561,W,2,06,1.4,139.3,M,8.4,M,3.0,0000*4A,0
1779392450353,$GPGSA,M,3,15,20,29,25,11,05,,,,,,,2.4,1.4,1.9*3A,0
1779392450516,$GPRMC,194050.000,A,1205.9643,S,07701.4561,W,0.00,25.98,210526,,,D*50,0
1779392451237,$GPGGA,194051.000,1205.9643,S,07701.4561,W,2,06,1.4,139.3,M,8.4,M,4.0,0000*4C,0
1779392451353,$GPGSA,M,3,15,20,29,25,11,05,,,,,,,2.4,1.4,1.9*3A,0
1779392451516,$GPRMC,194051.000,A,1205.9643,S,07701.4561,W,0.00,25.98,210526,,,D*51,0
1779392452232,$GPGGA,194052.000,1205.9643,S,07701.4561,W,2,06,1.4,139.3,M,8.4,M,5.0,0000*4E,0
1779392452349,$GPGSA,M,3,15,20,29,25,11,05,,,,,,,2.4,1.4,1.9*3A,0
1779392452509,$GPGSV,3,1,12,15,56,343,44,20,37,017,43,29,28,329,40,25,28,250,42*7D,0
1779392452670,$GPGSV,3,2,12,11,23,069,40,05,05,011,14,06,10,106,11,12,43,206,47*77,0
1779392452826,$GPGSV,3,3,12,19,09,142,23,24,53,163,41,46,29,279,43,14,35,221,*7C,0
1779392452988,$GPRMC,194052.000,A,1205.9643,S,07701.4561,W,0.00,25.98,210526,,,D*52,0
1779392453237,$GPGGA,194053.000,1205.9643,S,07701.4561,W,2,06,1.4,139.3,M,8.4,M,2.0,0000*48,0
1779392453354,$GPGSA,M,3,15,20,29,25,11,05,,,,,,,2.4,1.4,1.9*3A,0
1779392453516,$GPRMC,194053.000,A,1205.9643,S,07701.4561,W,0.00,25.98,210526,,,D*53,0
1779392454236,$GPGGA,194054.000,1205.9643,S,07701.4561,W,2,06,1.4,139.3,M,8.4,M,2.0,0000*4F,0
1779392454353,$GPGSA,M,3,15,20,29,25,11,05,,,,,,,2.4,1.4,1.9*3A,0
1779392454516,$GPRMC,194054.000,A,1205.9643,S,07701.4561,W,0.00,25.98,210526,,,D*54,0
1779392455237,$GPGGA,194055.000,1205.9643,S,07701.4561,W,2,06,1.4,139.3,M,8.4,M,2.0,0000*4E,0
1779392455354,$GPGSA,M,3,15,20,29,25,11,05,,,,,,,2.4,1.4,1.9*3A,0
1779392455517,$GPRMC,194055.000,A,1205.9643,S,07701.4561,W,0.00,25.98,210526,,,D*55,0
1779392456236,$GPGGA,194056.000,1205.9643,S,07701.4561,W,2,06,1.4,139.3,M,8.4,M,3.0,0000*4C,0
1779392456353,$GPGSA,M,3,15,20,29,25,11,05,,,,,,,2.4,1.4,1.9*3A,0
1779392456516,$GPRMC,194056.000,A,1205.9643,S,07701.4561,W,0.00,25.98,210526,,,D*56,0
1779392457237,$GPGGA,194057.000,1205.9643,S,07701.4561,W,2,06,1.4,139.3,M,8.4,M,2.0,0000*4C,0
1779392457354,$GPGSA,M,3,15,20,29,25,11,05,,,,,,,2.4,1.4,1.9*3A,0
1779392457514,$GPGSV,3,1,12,15,56,343,44,20,37,017,43,29,28,329,40,25,28,250,42*7D,0
1779392457675,$GPGSV,3,2,12,11,23,069,40,05,05,011,16,06,10,106,14,12,43,206,47*70,0
1779392457830,$GPGSV,3,3,12,19,09,142,23,24,53,163,41,46,29,279,43,14,35,221,*7C,0
1779392457993,$GPRMC,194057.000,A,1205.9643,S,07701.4561,W,0.00,25.98,210526,,,D*57,0
1779392458236,$GPGGA,194058.000,1205.9643,S,07701.4561,W,2,06,1.4,139.3,M,8.4,M,2.0,0000*43,0
1779392458353,$GPGSA,M,3,15,20,29,25,11,05,,,,,,,2.4,1.4,1.9*3A,0
1779392458516,$GPRMC,194058.000,A,1205.9643,S,07701.4561,W,0.00,25.98,210526,,,D*58,0
1779392459237,$GPGGA,194059.000,1205.9643,S,07701.4561,W,2,06,1.4,139.3,M,8.4,M,2.0,0000*42,0
1779392459353,$GPGSA,M,3,15,20,29,25,11,05,,,,,,,2.4,1.4,1.9*3A,0
1779392459516,$GPRMC,194059.000,A,1205.9643,S,07701.4561,W,0.00,25.98,210526,,,D*59,0
1779392460237,$GPGGA,194100.000,1205.9643,S,07701.4561,W,2,06,1.4,139.3,M,8.4,M,2.0,0000*4F,0
1779392460354,$GPGSA,M,3,15,20,29,25,11,05,,,,,,,2.4,1.4,1.9*3A,0
1779392460516,$GPRMC,194100.000,A,1205.9643,S,07701.4561,W,0.00,25.98,210526,,,D*54,0
1779392461237,$GPGGA,194101.000,1205.9643,S,07701.4561,W,2,06,1.4,139.3,M,8.4,M,2.0,0000*4E,0
1779392461354,$GPGSA,M,3,15,20,29,25,11,05,,,,,,,2.4,1.4,1.9*3A,0
1779392461517,$GPRMC,194101.000,A,1205.9643,S,07701.4561,W,0.00,25.98,210526,,,D*55,0
1779392462231,$GPGGA,194102.000,1205.9643,S,07701.4561,W,2,05,1.6,139.3,M,8.4,M,3.0,0000*4D,0
1779392462343,$GPGSA,M,3,15,20,29,25,11,,,,,,,,3.6,1.6,3.2*37,0
1779392462503,$GPGSV,3,1,12,15,56,343,44,20,37,017,43,29,28,329,40,25,28,250,42*7D,0
1779392462664,$GPGSV,3,2,12,11,23,069,41,05,05,011,06,06,10,106,10,12,43,206,47*74,0
1779392462819,$GPGSV,3,3,12,19,09,142,22,24,53,163,41,46,29,279,43,14,35,221,*7D,0
1779392462982,$GPRMC,194102.000,A,1205.9643,S,07701.4561,W,0.00,25.98,210526,,,D*56,0
1779392463236,$GPGGA,194103.000,1205.9643,S,07701.4561,W,2,06,1.4,139.3,M,8.4,M,2.0,0000*4C,0
1779392463353,$GPGSA,M,3,15,20,29,25,11,05,,,,,,,2.4,1.4,1.9*3A,0
1779392463516,$GPRMC,194103.000,A,1205.9643,S,07701.4561,W,0.00,25.98,210526,,,D*57,0
1779392464237,$GPGGA,194104.000,1205.9643,S,07701.4561,W,2,06,1.4,139.3,M,8.4,M,2.0,0000*4B,0
1779392464354,$GPGSA,M,3,15,20,29,25,11,05,,,,,,,2.4,1.4,1.9*3A,0
1779392464517,$GPRMC,194104.000,A,1205.9643,S,07701.4561,W,0.00,25.98,210526,,,D*50,0
1779392465237,$GPGGA,194105.000,1205.9643,S,07701.4561,W,2,06,1.4,139.3,M,8.4,M,2.0,0000*4A,0
1779392465354,$GPGSA,M,3,15,20,29,25,11,05,,,,,,,2.4,1.4,1.9*3A,0
1779392465517,$GPRMC,194105.000,A,1205.9643,S,07701.4561,W,0.00,25.98,210526,,,D*51,0
1779392466237,$GPGGA,194106.000,1205.9643,S,07701.4561,W,2,06,1.4,139.3,M,8.4,M,2.0,0000*49,0
1779392466353,$GPGSA,M,3,15,20,29,25,11,05,,,,,,,2.4,1.4,1.9*3A,0
1779392466516,$GPRMC,194106.000,A,1205.9643,S,07701.4561,W,0.00,25.98,210526,,,D*52,0
1779392467237,$GPGGA,194107.000,1205.9643,S,07701.4561,W,2,06,1.4,139.3,M,8.4,M,2.0,0000*48,0
1779392467354,$GPGSA,M,3,15,20,29,25,11,05,,,,,,,2.4,1.4,1.9*3A,0
1779392467514,$GPGSV,3,1,12,15,56,343,44,20,37,017,43,29,28,329,41,25,28,250,42*7C,0
1779392467674,$GPGSV,3,2,12,11,23,069,41,05,05,011,13,06,10,106,13,12,43,206,46*72,0
1779392467830,$GPGSV,3,3,12,19,09,142,22,24,53,163,41,46,29,279,43,14,35,221,*7D,0
1779392467993,$GPRMC,194107.000,A,1205.9643,S,07701.4561,W,0.00,25.98,210526,,,D*53,0
1779392468232,$GPGGA,194108.000,1205.9643,S,07701.4561,W,2,06,1.4,139.3,M,8.4,M,3.0,0000*46,0
1779392468349,$GPGSA,M,3,15,20,29,25,11,05,,,,,,,2.4,1.4,1.9*3A,0
1779392468511,$GPRMC,194108.000,A,1205.9643,S,07701.4561,W,0.00,25.98,210526,,,D*5C,0
1779392469236,$GPGGA,194109.000,1205.9643,S,07701.4561,W,2,06,1.4,139.3,M,8.4,M,4.0,0000*40,0
1779392469353,$GPGSA,M,3,15,20,29,25,11,05,,,,,,,2.4,1.4,1.9*3A,0
1779392469516,$GPRMC,194109.000,A,1205.9643,S,07701.4561,W,0.00,25.98,210526,,,D*5D,0
1779392470236,$GPGGA,194110.000,1205.9643,S,07701.4561,W,2,06,1.4,139.3,M,8.4,M,2.0,0000*4E,0
1779392470353,$GPGSA,M,3,15,20,29,25,11,05,,,,,,,2.4,1.4,1.9*3A,0
1779392470515,$GPRMC,194110.000,A,1205.9643,S,07701.4561,W,0.00,25.98,210526,,,D*55,0
1779392471236,$GPGGA,194111.000,1205.9643,S,07701.4561,W,2,06,1.4,139.3,M,8.4,M,2.0,0000*4F,0
1779392471353,$GPGSA,M,3,15,20,29,25,11,05,,,,,,,2.4,1.4,1.9*3A,0
1779392471516,$GPRMC,194111.000,A,1205.9643,S,07701.4561,W,0.00,25.98,210526,,,D*54,0
1779392472237,$GPGGA,194112.000,1205.9643,S,07701.4561,W,2,06,1.4,139.3,M,8.4,M,2.0,0000*4C,0
1779392472353,$GPGSA,M,3,15,20,29,25,11,05,,,,,,,2.4,1.4,1.9*3A,0
1779392472514,$GPGSV,3,1,12,15,56,343,44,20,37,017,43,29,28,329,41,25,28,250,42*7C,0
1779392472674,$GPGSV,3,2,12,11,23,069,42,05,05,011,22,06,10,106,17,12,43,206,46*77,0
1779392472830,$GPGSV,3,3,12,19,09,142,22,24,53,163,41,46,29,279,43,14,35,221,*7D,0
1779392472993,$GPRMC,194112.000,A,1205.9643,S,07701.4561,W,0.00,25.98,210526,,,D*57,0
1779392473237,$GPGGA,194113.000,1205.9643,S,07701.4561,W,2,06,1.4,139.3,M,8.4,M,2.0,0000*4D,0
1779392473354,$GPGSA,M,3,15,20,29,25,11,05,,,,,,,2.4,1.4,1.9*3A,0
1779392473517,$GPRMC,194113.000,A,1205.9643,S,07701.4561,W,0.00,25.98,210526,,,D*56,0
1779392474236,$GPGGA,194114.000,1205.9643,S,07701.4561,W,2,06,1.4,139.3,M,8.4,M,2.0,0000*4A,0
1779392474353,$GPGSA,M,3,15,20,29,25,11,05,,,,,,,2.4,1.4,1.9*3A,0
1779392474516,$GPRMC,194114.000,A,1205.9643,S,07701.4561,W,0.00,25.98,210526,,,D*51,0
1779392475236,$GPGGA,194115.000,1205.9643,S,07701.4561,W,2,06,1.4,139.3,M,8.4,M,3.0,0000*4A,0
1779392475353,$GPGSA,M,3,15,20,29,25,11,05,,,,,,,2.4,1.4,1.9*3A,0
1779392475516,$GPRMC,194115.000,A,1205.9643,S,07701.4561,W,0.00,25.98,210526,,,D*50,0
1779392476232,$GPGGA,194116.000,1205.9643,S,07701.4561,W,2,06,1.4,139.3,M,8.4,M,4.0,0000*4E,0
1779392476349,$GPGSA,M,3,15,20,29,25,11,05,,,,,,,2.4,1.4,1.9*3A,0
1779392476512,$GPRMC,194116.000,A,1205.9643,S,07701.4561,W,0.00,25.98,210526,,,D*53,0
1779392477236,$GPGGA,194117.000,1205.9643,S,07701.4561,W,2,06,1.4,139.3,M,8.4,M,2.0,0000*49,0
1779392477353,$GPGSA,M,3,15,20,29,25,11,05,,,,,,,2.4,1.4,1.9*3A,0
1779392477514,$GPGSV,3,1,12,15,56,343,44,20,37,017,43,29,28,329,41,25,28,250,41*7F,0
1779392477674,$GPGSV,3,2,12,11,23,069,42,05,05,011,21,06,10,106,19,12,43,206,46*7A,0
1779392477830,$GPGSV,3,3,12,19,09,142,22,24,53,163,41,46,29,279,43,14,35,221,*7D,0
1779392477993,$GPRMC,194117.000,A,1205.9643,S,07701.4561,W,0.00,25.98,210526,,,D*52,0
1779392478236,$GPGGA,194118.000,1205.9643,S,07701.4561,W,2,06,1.4,139.3,M,8.4,M,2.0,0000*46,0
1779392478352,$GPGSA,M,3,15,20,29,25,11,05,,,,,,,2.4,1.4,1.9*3A,0
1779392478515,$GPRMC,194118.000,A,1205.9643,S,07701.4561,W,0.00,25.98,210526,,,D*5D,0
1779392479237,$GPGGA,194119.000,1205.9643,S,07701.4561,W,2,06,1.4,139.3,M,8.4,M,2.0,0000*47,0
1779392479354,$GPGSA,M,3,15,20,29,25,11,05,,,,,,,2.4,1.4,1.9*3A,0
1779392479517,$GPRMC,194119.000,A,1205.9643,S,07701.4561,W,0.00,25.98,210526,,,D*5C,0
1779392480232,$GPGGA,194120.000,1205.9643,S,07701.4561,W,2,06,1.4,139.3,M,8.4,M,3.0,0000*4C,0
1779392480349,$GPGSA,M,3,15,20,29,25,11,05,,,,,,,2.4,1.4,1.9*3A,0
1779392480511,$GPRMC,194120.000,A,1205.9643,S,07701.4561,W,0.00,25.98,210526,,,D*56,0
1779392481236,$GPGGA,194121.000,1205.9643,S,07701.4561,W,2,06,1.4,139.3,M,8.4,M,4.0,0000*4A,0
1779392481353,$GPGSA,M,3,15,20,29,25,11,05,,,,,,,2.4,1.4,1.9*3A,0
1779392481516,$GPRMC,194121.000,A,1205.9643,S,07701.4561,W,0.00,25.98,210526,,,D*57,0
1779392482236,$GPGGA,194122.000,1205.9643,S,07701.4561,W,2,06,1.4,139.3,M,8.4,M,5.0,0000*48,0
1779392482353,$GPGSA,M,3,15,20,29,25,11,05,,,,,,,2.4,1.4,1.9*3A,0
1779392482513,$GPGSV,3,1,12,15,56,343,44,20,37,017,43,29,28,329,41,25,28,250,41*7F,0
1779392482674,$GPGSV,3,2,12,11,23,069,42,05,05,011,21,06,10,106,20,12,43,206,46*70,0
1779392482830,$GPGSV,3,3,12,19,09,142,22,24,53,163,41,46,29,279,42,14,35,221,*7C,0
1779392482992,$GPRMC,194122.000,A,1205.9643,S,07701.4561,W,0.00,25.98,210526,,,D*54,0
1779392483237,$GPGGA,194123.000,1205.9643,S,07701.4562,W,2,06,1.4,139.3,M,8.4,M,2.0,0000*4D,0
1779392483353,$GPGSA,M,3,15,20,29,25,11,05,,,,,,,2.4,1.4,1.9*3A,0
1779392483516,$GPRMC,194123.000,A,1205.9643,S,07701.4562,W,0.00,25.98,210526,,,D*56,0
1779392484236,$GPGGA,194124.000,1205.9643,S,07701.4562,W,2,06,1.4,139.3,M,8.4,M,2.0,0000*4A,0
1779392484353,$GPGSA,M,3,15,20,29,25,11,05,,,,,,,2.4,1.4,1.9*3A,0
1779392484516,$GPRMC,194124.000,A,1205.9643,S,07701.4562,W,0.00,25.98,210526,,,D*51,0
1779392485237,$GPGGA,194125.000,1205.9643,S,07701.4562,W,2,06,1.4,139.3,M,8.4,M,2.0,0000*4B,0
1779392485354,$GPGSA,M,3,15,20,29,25,11,05,,,,,,,2.4,1.4,1.9*3A,0
1779392485517,$GPRMC,194125.000,A,1205.9643,S,07701.4562,W,0.00,25.98,210526,,,D*50,0
1779392486236,$GPGGA,194126.000,1205.9643,S,07701.4562,W,2,06,1.4,139.3,M,8.4,M,2.0,0000*48,0
1779392486352,$GPGSA,M,3,15,20,29,25,11,05,,,,,,,2.4,1.4,1.9*3A,0
1779392486515,$GPRMC,194126.000,A,1205.9643,S,07701.4562,W,0.00,25.98,210526,,,D*53,0
1779392487231,$GPGGA,194127.000,1205.9643,S,07701.4562,W,2,06,1.4,139.3,M,8.4,M,3.0,0000*48,0
1779392487348,$GPGSA,M,3,15,20,29,25,11,05,,,,,,,2.4,1.4,1.9*3A,0
1779392487509,$GPGSV,3,1,12,15,56,343,44,20,37,017,42,29,28,329,41,25,28,250,40*7F,0
1779392487669,$GPGSV,3,2,12,11,23,069,41,05,05,011,21,06,10,106,19,12,43,206,46*79,0
1779392487825,$GPGSV,3,3,12,19,09,142,20,24,53,163,41,46,29,279,42,14,35,221,*7E,0
1779392487987,$GPRMC,194127.000,A,1205.9643,S,07701.4562,W,0.00,25.98,210526,,,D*52,0
1779392488236,$GPGGA,194128.000,1205.9643,S,07701.4562,W,2,06,1.4,139.3,M,8.4,M,4.0,0000*40,0
1779392488353,$GPGSA,M,3,15,20,29,25,11,05,,,,,,,2.4,1.4,1.9*3A,0
1779392488516,$GPRMC,194128.000,A,1205.9643,S,07701.4562,W,0.00,25.98,210526,,,D*5D,0
1779392489236,$GPGGA,194129.000,1205.9643,S,07701.4562,W,2,06,1.4,139.3,M,8.4,M,2.0,0000*47,0
1779392489353,$GPGSA,M,3,15,20,29,25,11,05,,,,,,,2.4,1.4,1.9*3A,0
1779392489516,$GPRMC,194129.000,A,1205.9643,S,07701.4562,W,0.00,25.98,210526,,,D*5C,0
1779392490235,$GPGGA,194130.000,1205.9643,S,07701.4562,W,2,06,1.4,139.3,M,8.4,M,2.0,0000*4F,0
1779392490352,$GPGSA,M,3,15,20,29,25,11,05,,,,,,,2.4,1.4,1.9*3A,0
1779392490515,$GPRMC,194130.000,A,1205.9643,S,07701.4562,W,0.00,25.98,210526,,,D*54,0
1779392491237,$GPGGA,194131.000,1205.9643,S,07701.4562,W,2,06,1.4,139.3,M,8.4,M,2.0,0000*4E,0
1779392491354,$GPGSA,M,3,15,20,29,25,11,05,,,,,,,2.4,1.4,1.9*3A,0
1779392491517,$GPRMC,194131.000,A,1205.9643,S,07701.4562,W,0.00,25.98,210526,,,D*55,0
1779392492232,$GPGGA,194132.000,1205.9643,S,07701.4562,W,2,06,1.4,139.3,M,8.4,M,3.0,0000*4C,0
1779392492348,$GPGSA,M,3,15,20,29,25,11,05,,,,,,,2.4,1.4,1.9*3A,0
1779392492509,$GPGSV,3,1,12,15,56,343,44,20,37,017,42,29,28,329,41,25,28,250,40*7F,0
1779392492669,$GPGSV,3,2,12,11,23,069,41,05,05,011,13,06,10,106,19,12,43,206,46*78,0
1779392492825,$GPGSV,3,3,12,19,09,142,21,24,53,163,42,46,29,279,42,14,35,221,*7C,0
1779392492988,$GPRMC,194132.000,A,1205.9643,S,07701.4562,W,0.00,25.98,210526,,,D*56,0
1779392493236,$GPGGA,194133.000,1205.9643,S,07701.4562,W,2,06,1.4,139.3,M,8.4,M,4.0,0000*4A,0
1779392493352,$GPGSA,M,3,15,20,29,25,11,05,,,,,,,2.4,1.4,1.9*3A,0
1779392493515,$GPRMC,194133.000,A,1205.9643,S,07701.4562,W,0.00,25.98,210526,,,D*57,0
1779392494236,$GPGGA,194134.000,1205.9643,S,07701.4562,W,2,06,1.4,139.3,M,8.4,M,5.0,0000*4C,0
1779392494353,$GPGSA,M,3,15,20,29,25,11,05,,,,,,,2.4,1.4,1.9*3A,0
1779392494515,$GPRMC,194134.000,A,1205.9643,S,07701.4562,W,0.00,25.98,210526,,,D*50,0
1779392495236,$GPGGA,194135.000,1205.9643,S,07701.4562,W,2,06,1.4,139.3,M,8.4,M,2.0,0000*4A,0
1779392495353,$GPGSA,M,3,15,20,29,25,11,05,,,,,,,2.4,1.4,1.9*3A,0
1779392495516,$GPRMC,194135.000,A,1205.9643,S,07701.4562,W,0.00,25.98,210526,,,D*51,0
1779392496237,$GPGGA,194136.000,1205.9643,S,07701.4562,W,2,06,1.4,139.3,M,8.4,M,2.0,0000*49,0
1779392496353,$GPGSA,M,3,15,20,29,25,11,05,,,,,,,2.4,1.4,1.9*3A,0
1779392496516,$GPRMC,194136.000,A,1205.9643,S,07701.4562,W,0.00,25.98,210526,,,D*52,0
1779392497237,$GPGGA,194137.000,1205.9643,S,07701.4562,W,2,06,1.4,139.3,M,8.4,M,2.0,0000*48,0
1779392497353,$GPGSA,M,3,15,20,29,25,11,05,,,,,,,2.4,1.4,1.9*3A,0
1779392497514,$GPGSV,3,1,12,15,56,343,44,20,37,017,42,29,28,329,41,25,28,250,41*7E,0
1779392497674,$GPGSV,3,2,12,11,23,069,41,05,05,011,14,06,10,106,20,12,43,206,46*75,0
1779392497830,$GPGSV,3,3,12,19,09,142,20,24,53,163,41,46,29,279,42,14,35,221,*7E,0
1779392497993,$GPRMC,194137.000,A,1205.9643,S,07701.4562,W,0.00,25.98,210526,,,D*53,0
1779392498235,$GPGGA,194138.000,1205.9643,S,07701.4562,W,2,06,1.4,139.3,M,8.4,M,3.0,0000*46,0
1779392498352,$GPGSA,M,3,15,20,29,25,11,05,,,,,,,2.4,1.4,1.9*3A,0
1779392498515,$GPRMC,194138.000,A,1205.9643,S,07701.4562,W,0.00,25.98,210526,,,D*5C,0
1779392499231,$GPGGA,194139.000,1205.9643,S,07701.4562,W,2,06,1.4,139.3,M,8.4,M,4.0,0000*40,0
1779392499348,$GPGSA,M,3,15,20,29,25,11,05,,,,,,,2.4,1.4,1.9*3A,0
1779392499511,$GPRMC,194139.000,A,1205.9643,S,07701.4562,W,0.00,25.98,210526,,,D*5D,0
1779392500231,$GPGGA,194140.000,1205.9643,S,07701.4562,W,2,06,1.4,139.3,M,8.4,M,5.0,0000*4F,0
1779392500348,$GPGSA,M,3,15,20,29,25,11,05,,,,,,,2.4,1.4,1.9*3A,0
1779392500511,$GPRMC,194140.000,A,1205.9643,S,07701.4562,W,0.00,25.98,210526,,,D*53,0
1779392501236,$GPGGA,194141.000,1205.9643,S,07701.4562,W,2,06,1.4,139.3,M,8.4,M,2.0,0000*49,0
1779392501353,$GPGSA,M,3,15,20,29,25,11,05,,,,,,,2.4,1.4,1.9*3A,0
1779392501516,$GPRMC,194141.000,A,1205.9643,S,07701.4562,W,0.00,25.98,210526,,,D*52,0
1779392502235,$GPGGA,194142.000,1205.9643,S,07701.4562,W,2,06,1.4,139.3,M,8.4,M,2.0,0000*4A,0
1779392502352,$GPGSA,M,3,15,20,29,25,11,05,,,,,,,2.4,1.4,1.9*3A,0
1779392502513,$GPGSV,3,1,12,15,56,343,44,20,37,017,43,29,28,329,42,25,28,250,41*7C,0
1779392502673,$GPGSV,3,2,12,11,23,069,41,05,05,011,16,06,10,106,23,12,43,206,46*74,0
1779392502829,$GPGSV,3,3,12,19,09,142,20,24,53,163,41,46,29,279,42,14,35,221,*7E,0
1779392502992,$GPRMC,194142.000,A,1205.9643,S,07701.4562,W,0.00,25.98,210526,,,D*51,0
1779392503236,$GPGGA,194143.000,1205.9643,S,07701.4562,W,2,06,1.4,139.3,M,8.4,M,2.0,0000*4B,0
1779392503353,$GPGSA,M,3,15,20,29,25,11,05,,,,,,,2.4,1.4,1.9*3A,0
1779392503516,$GPRMC,194143.000,A,1205.9643,S,07701.4562,W,0.00,25.98,210526,,,D*50,0
1779392504236,$GPGGA,194144.000,1205.9643,S,07701.4562,W,2,06,1.4,139.3,M,8.4,M,2.0,0000*4C,0
1779392504353,$GPGSA,M,3,15,20,29,25,11,05,,,,,,,2.4,1.4,1.9*3A,0
1779392504516,$GPRMC,194144.000,A,1205.9643,S,07701.4562,W,0.00,25.98,210526,,,D*57,0
1779392505236,$GPGGA,194145.000,1205.9643,S,07701.4562,W,2,06,1.4,139.3,M,8.4,M,2.0,0000*4D,0
1779392505353,$GPGSA,M,3,15,20,29,25,11,05,,,,,,,2.4,1.4,1.9*3A,0
1779392505515,$GPRMC,194145.000,A,1205.9643,S,07701.4562,W,0.00,25.98,210526,,,D*56,0
1779392506235,$GPGGA,194146.000,1205.9643,S,07701.4562,W,2,06,1.4,139.3,M,8.4,M,3.0,0000*4F,0
1779392506352,$GPGSA,M,3,15,20,29,25,11,05,,,,,,,2.4,1.4,1.9*3A,0
1779392506515,$GPRMC,194146.000,A,1205.9643,S,07701.4562,W,0.00,25.98,210526,,,D*55,0
1779392507236,$GPGGA,194147.000,1205.9643,S,07701.4562,W,2,06,1.4,139.3,M,8.4,M,2.0,0000*4F,0
1779392507352,$GPGSA,M,3,15,20,29,25,11,05,,,,,,,2.4,1.4,1.9*3A,0
1779392507513,$GPGSV,3,1,12,15,56,343,44,20,37,017,43,29,28,329,42,25,28,250,41*7C,0
1779392507673,$GPGSV,3,2,12,11,23,069,41,05,05,011,18,06,10,106,25,12,43,206,46*7C,0
1779392507829,$GPGSV,3,3,12,19,09,142,21,24,53,163,41,46,29,279,43,14,35,221,*7E,0
1779392507992,$GPRMC,194147.000,A,1205.9643,S,07701.4562,W,0.00,25.98,210526,,,D*54,0
1779392508236,$GPGGA,194148.000,1205.9643,S,07701.4562,W,2,06,1.4,139.3,M,8.4,M,2.0,0000*40,0
1779392508353,$GPGSA,M,3,15,20,29,25,11,05,,,,,,,2.4,1.4,1.9*3A,0
1779392508515,$GPRMC,194148.000,A,1205.9643,S,07701.4562,W,0.00,25.98,210526,,,D*5B,0
1779392509237,$GPGGA,194149.000,1205.9643,S,07701.4562,W,2,06,1.4,139.3,M,8.4,M,2.0,0000*41,0
1779392509353,$GPGSA,M,3,15,20,29,25,11,05,,,,,,,2.4,1.4,1.9*3A,0
1779392509516,$GPRMC,194149.000,A,1205.9643,S,07701.4562,W,0.00,25.98,210526,,,D*5A,0
1779392510231,$GPGGA,194150.000,1205.9643,S,07701.4562,W,2,06,1.4,139.3,M,8.4,M,3.0,0000*48,0
1779392510348,$GPGSA,M,3,15,20,29,25,11,05,,,,,,,2.4,1.4,1.9*3A,0
1779392510510,$GPRMC,194150.000,A,1205.9643,S,07701.4562,W,0.00,25.98,210526,,,D*52,0
1779392511235,$GPGGA,194151.000,1205.9643,S,07701.4562,W,2,06,1.4,139.3,M,8.4,M,2.0,0000*48,0
1779392511352,$GPGSA,M,3,15,20,29,25,11,05,,,,,,,2.4,1.4,1.9*3A,0
1779392511515,$GPRMC,194151.000,A,1205.9643,S,07701.4562,W,0.00,25.98,210526,,,D*53,0
1779392512236,$GPGGA,194152.000,1205.9643,S,07701.4562,W,2,06,1.4,139.3,M,8.4,M,3.0,0000*4A,0
1779392512352,$GPGSA,M,3,15,20,29,25,11,05,,,,,,,2.4,1.4,1.9*3A,0
1779392512513,$GPGSV,3,1,12,15,56,343,44,20,37,017,43,29,28,329,42,25,28,250,41*7C,0
1779392512673,$GPGSV,3,2,12,11,23,069,41,05,05,011,18,06,10,106,25,12,43,206,46*7C,0
1779392512829,$GPGSV,3,3,12,19,09,142,22,24,53,163,41,46,29,279,43,14,35,221,*7D,0
1779392512992,$GPRMC,194152.000,A,1205.9643,S,07701.4562,W,0.00,25.98,210526,,,D*50,0
1779392513235,$GPGGA,194153.000,1205.9643,S,07701.4562,W,2,06,1.4,139.3,M,8.4,M,2.0,0000*4A,0
1779392513352,$GPGSA,M,3,15,20,29,25,11,05,,,,,,,2.4,1.4,1.9*3A,0
1779392513515,$GPRMC,194153.000,A,1205.9643,S,07701.4562,W,0.00,25.98,210526,,,D*51,0
1779392514234,$GPGGA,194154.000,1205.9643,S,07701.4562,W,2,06,1.4,139.3,M,8.4,M,2.0,0000*4D,0
1779392514351,$GPGSA,M,3,15,20,29,25,11,05,,,,,,,2.4,1.4,1.9*3A,0
1779392514514,$GPRMC,194154.000,A,1205.9643,S,07701.4562,W,0.00,25.98,210526,,,D*56,0
1779392515236,$GPGGA,194155.000,1205.9643,S,07701.4562,W,2,06,1.4,139.3,M,8.4,M,2.0,0000*4C,0
1779392515352,$GPGSA,M,3,15,20,29,25,11,05,,,,,,,2.4,1.4,1.9*3A,0
1779392515515,$GPRMC,194155.000,A,1205.9643,S,07701.4562,W,0.00,25.98,210526,,,D*57,0
1779392516231,$GPGGA,194156.000,1205.9643,S,07701.4562,W,2,06,1.4,139.3,M,8.4,M,3.0,0000*4E,0
1779392516348,$GPGSA,M,3,15,20,29,25,11,05,,,,,,,2.4,1.4,1.9*3A,0
1779392516510,$GPRMC,194156.000,A,1205.9643,S,07701.4562,W,0.00,25.98,210526,,,D*54,0
1779392517231,$GPGGA,194157.000,1205.9643,S,07701.4562,W,2,06,1.4,139.3,M,8.4,M,4.0,0000*48,0
1779392517347,$GPGSA,M,3,15,20,29,25,11,05,,,,,,,2.4,1.4,1.9*3A,0
1779392517508,$GPGSV,3,1,12,15,56,343,44,20,37,017,43,29,28,329,42,25,28,250,40*7D,0
1779392517668,$GPGSV,3,2,12,11,23,069,41,05,05,011,17,06,10,106,24,12,43,206,46*72,0
1779392517824,$GPGSV,3,3,12,19,09,142,24,24,53,163,41,46,29,279,43,14,35,221,*7B,0
1779392517987,$GPRMC,194157.000,A,1205.9643,S,07701.4562,W,0.00,25.98,210526,,,D*55,0
1779392518234,$GPGGA,194158.000,1205.9643,S,07701.4562,W,2,06,1.4,139.3,M,8.4,M,2.0,0000*41,0
1779392518351,$GPGSA,M,3,15,20,29,25,11,05,,,,,,,2.4,1.4,1.9*3A,0
1779392518514,$GPRMC,194158.000,A,1205.9643,S,07701.4562,W,0.00,25.98,210526,,,D*5A,0
1779392519235,$GPGGA,194159.000,1205.9643,S,07701.4562,W,2,06,1.4,139.3,M,8.4,M,2.0,0000*40,0
1779392519352,$GPGSA,M,3,15,20,29,25,11,05,,,,,,,2.4,1.4,1.9*3A,0
1779392519514,$GPRMC,194159.000,A,1205.9643,S,07701.4562,W,0.00,25.98,210526,,,D*5B,0
1779392520235,$GPGGA,194200.000,1205.9643,S,07701.4562,W,2,06,1.4,139.3,M,8.4,M,2.0,0000*4F,0
1779392520352,$GPGSA,M,3,15,20,29,25,11,05,,,,,,,2.4,1.4,1.9*3A,0
1779392520515,$GPRMC,194200.000,A,1205.9643,S,07701.4562,W,0.00,25.98,210526,,,D*54,0
1779392521236,$GPGGA,194201.000,1205.9643,S,07701.4562,W,2,06,1.4,139.3,M,8.4,M,2.0,0000*4E,0
1779392521353,$GPGSA,M,3,15,20,29,25,11,05,,,,,,,2.4,1.4,1.9*3A,0
1779392521515,$GPRMC,194201.000,A,1205.9643,S,07701.4562,W,0.00,25.98,210526,,,D*55,0
1779392522233,$GPGGA,194202.000,1205.9643,S,07701.4562,W,2,05,1.6,139.3,M,8.4,M,3.0,0000*4D,0
1779392522345,$GPGSA,M,3,15,20,29,25,11,,,,,,,,3.6,1.6,3.3*36,0
1779392522506,$GPGSV,3,1,12,15,56,343,44,20,37,017,43,29,28,329,42,25,28,250,40*7D,0
1779392522666,$GPGSV,3,2,12,11,23,069,41,05,05,011,15,06,10,106,24,12,43,206,46*70,0
1779392522822,$GPGSV,3,3,12,19,09,142,24,24,53,163,41,46,29,279,42,14,35,221,*7A,0
1779392522985,$GPRMC,194202.000,A,1205.9643,S,07701.4562,W,0.00,25.98,210526,,,D*56,0
1779392523233,$GPGGA,194203.000,1205.9643,S,07701.4562,W,2,05,1.6,139.3,M,8.4,M,4.0,0000*4B,0
1779392523345,$GPGSA,M,3,15,20,29,25,11,,,,,,,,3.6,1.6,3.3*36,0
1779392523508,$GPRMC,194203.000,A,1205.9643,S,07701.4562,W,0.00,25.98,210526,,,D*57,0
1779392524229,$GPGGA,194204.000,1205.9643,S,07701.4562,W,2,05,1.6,139.3,M,8.4,M,5.0,0000*4D,0
1779392524342,$GPGSA,M,3,15,20,29,25,11,,,,,,,,3.6,1.6,3.3*36,0
1779392524504,$GPRMC,194204.000,A,1205.9643,S,07701.4562,W,0.00,25.98,210526,,,D*50,0
1779392525234,$GPGGA,194205.000,1205.9643,S,07701.4562,W,2,05,1.6,139.3,M,8.4,M,2.0,0000*4B,0
1779392525346,$GPGSA,M,3,15,20,29,25,11,,,,,,,,3.6,1.6,3.3*36,0
1779392525509,$GPRMC,194205.000,A,1205.9643,S,07701.4562,W,0.00,25.98,210526,,,D*51,0
1779392526233,$GPGGA,194206.000,1205.9643,S,07701.4562,W,2,05,1.6,139.3,M,8.4,M,2.0,0000*48,0
1779392526345,$GPGSA,M,3,15,20,29,25,11,,,,,,,,3.6,1.6,3.3*36,0
1779392526508,$GPRMC,194206.000,A,1205.9643,S,07701.4562,W,0.00,25.98,210526,,,D*52,0
1779392527234,$GPGGA,194207.000,1205.9643,S,07701.4562,W,2,05,1.6,139.3,M,8.4,M,2.0,0000*49,0
1779392527347,$GPGSA,M,3,15,20,29,25,11,,,,,,,,3.6,1.6,3.3*36,0
1779392527507,$GPGSV,3,1,12,15,56,343,44,20,37,017,42,29,28,329,42,25,28,250,40*7C,0
1779392527667,$GPGSV,3,2,12,11,23,069,41,05,05,011,20,06,10,106,21,12,43,206,46*73,0
1779392527823,$GPGSV,3,3,12,19,09,142,25,24,53,163,40,46,29,279,42,14,35,221,*7A,0
1779392527986,$GPRMC,194207.000,A,1205.9643,S,07701.4562,W,0.00,25.98,210526,,,D*53,0
1779392528233,$GPGGA,194208.000,1205.9643,S,07701.4562,W,2,05,1.6,139.3,M,8.4,M,3.0,0000*47,0
1779392528346,$GPGSA,M,3,15,20,29,25,11,,,,,,,,3.7,1.6,3.3*37,0
1779392528508,$GPRMC,194208.000,A,1205.9643,S,07701.4562,W,0.00,25.98,210526,,,D*5C,0
1779392529233,$GPGGA,194209.000,1205.9643,S,07701.4562,W,2,05,1.6,139.3,M,8.4,M,4.0,0000*41,0
1779392529346,$GPGSA,M,3,15,20,29,25,11,,,,,,,,3.7,1.6,3.3*37,0
1779392529508,$GPRMC,194209.000,A,1205.9643,S,07701.4562,W,0.00,25.98,210526,,,D*5D,0
1779392530234,$GPGGA,194210.000,1205.9643,S,07701.4562,W,2,05,1.6,139.3,M,8.4,M,5.0,0000*48,0
1779392530346,$GPGSA,M,3,15,20,29,25,11,,,,,,,,3.7,1.6,3.3*37,0
1779392530509,$GPRMC,194210.000,A,1205.9643,S,07701.4562,W,0.00,25.98,210526,,,D*55,0
1779392531233,$GPGGA,194211.000,1205.9643,S,07701.4562,W,2,05,1.6,139.3,M,8.4,M,2.0,0000*4E,0
1779392531345,$GPGSA,M,3,15,20,29,25,11,,,,,,,,3.7,1.6,3.3*37,0
1779392531508,$GPRMC,194211.000,A,1205.9643,S,07701.4562,W,0.00,25.98,210526,,,D*54,0
1779392532233,$GPGGA,194212.000,1205.9643,S,07701.4562,W,2,05,1.6,139.3,M,8.4,M,2.0,0000*4D,0
1779392532345,$GPGSA,M,3,15,20,29,25,11,,,,,,,,3.7,1.6,3.3*37,0
1779392532506,$GPGSV,3,1,12,15,56,343,44,20,37,017,43,29,28,329,42,25,28,250,40*7D,0
1779392532666,$GPGSV,3,2,12,11,23,069,41,06,10,106,04,12,43,206,45,19,09,142,25*74,0
1779392532817,$GPGSV,3,3,12,24,53,163,41,46,29,279,43,14,35,221,,13,28,031,*71,0
1779392532980,$GPRMC,194212.000,A,1205.9643,S,07701.4562,W,0.00,25.98,210526,,,D*57,0
1779392533234,$GPGGA,194213.000,1205.9643,S,07701.4562,W,2,05,1.6,139.3,M,8.4,M,2.0,0000*4C,0
1779392533346,$GPGSA,M,3,15,20,29,25,11,,,,,,,,3.7,1.6,3.3*37,0
1779392533509,$GPRMC,194213.000,A,1205.9643,S,07701.4562,W,0.00,25.98,210526,,,D*56,0
1779392534233,$GPGGA,194214.000,1205.9643,S,07701.4562,W,2,05,1.6,139.3,M,8.4,M,2.0,0000*4B,0
1779392534345,$GPGSA,M,3,15,20,29,25,11,,,,,,,,3.7,1.6,3.3*37,0
1779392534508,$GPRMC,194214.000,A,1205.9643,S,07701.4562,W,0.00,25.98,210526,,,D*51,0
1779392535233,$GPGGA,194215.000,1205.9643,S,07701.4563,W,2,05,1.6,139.3,M,8.4,M,3.0,0000*4A,0
1779392535345,$GPGSA,M,3,15,20,29,25,11,,,,,,,,3.7,1.6,3.3*37,0
1779392535508,$GPRMC,194215.000,A,1205.9643,S,07701.4563,W,0.00,25.98,210526,,,D*51,0
1779392536234,$GPGGA,194216.000,1205.9643,S,07701.4563,W,2,05,1.6,139.3,M,8.4,M,4.0,0000*4E,0
1779392536346,$GPGSA,M,3,15,20,29,25,11,,,,,,,,3.7,1.6,3.3*37,0
1779392536509,$GPRMC,194216.000,A,1205.9643,S,07701.4563,W,0.00,25.98,210526,,,D*52,0
1779392537233,$GPGGA,194217.000,1205.9643,S,07701.4563,W,2,05,1.6,139.3,M,8.4,M,2.0,0000*49,0
1779392537346,$GPGSA,M,3,15,20,29,25,11,,,,,,,,3.7,1.6,3.3*37,0
1779392537506,$GPGSV,3,1,12,15,56,343,44,20,37,017,42,29,28,329,42,25,28,250,40*7C,0
1779392537666,$GPGSV,3,2,12,11,23,069,41,06,10,106,04,12,43,206,45,19,09,142,26*77,0
1779392537818,$GPGSV,3,3,12,24,53,163,41,46,29,279,43,14,35,221,,13,28,031,*71,0
1779392537980,$GPRMC,194217.000,A,1205.9643,S,07701.4563,W,0.00,25.98,210526,,,D*53,0
1779392538233,$GPGGA,194218.000,1205.9643,S,07701.4563,W,2,05,1.6,139.3,M,8.4,M,2.0,0000*46,0
1779392538345,$GPGSA,M,3,15,20,29,25,11,,,,,,,,3.7,1.6,3.3*37,0
1779392538508,$GPRMC,194218.000,A,1205.9643,S,07701.4563,W,0.00,25.98,210526,,,D*5C,0
1779392539234,$GPGGA,194219.000,1205.9643,S,07701.4563,W,2,05,1.6,139.3,M,8.4,M,2.0,0000*47,0
1779392539346,$GPGSA,M,3,15,20,29,25,11,,,,,,,,3.7,1.6,3.3*37,0
1779392539509,$GPRMC,194219.000,A,1205.9643,S,07701.4563,W,0.00,25.98,210526,,,D*5D,0
1779392540233,$GPGGA,194220.000,1205.9643,S,07701.4563,W,2,05,1.6,139.3,M,8.4,M,3.0,0000*4C,0
1779392540345,$GPGSA,M,3,15,20,29,25,11,,,,,,,,3.7,1.6,3.3*37,0
1779392540508,$GPRMC,194220.000,A,1205.9643,S,07701.4563,W,0.00,25.98,210526,,,D*57,0
1779392541233,$GPGGA,194221.000,1205.9643,S,07701.4563,W,2,05,1.6,139.3,M,8.4,M,4.0,0000*4A,0
1779392541345,$GPGSA,M,3,15,20,29,25,11,,,,,,,,3.7,1.6,3.3*37,0
1779392541508,$GPRMC,194221.000,A,1205.9643,S,07701.4563,W,0.00,25.98,210526,,,D*56,0
1779392542230,$GPGGA,194222.000,1205.9643,S,07701.4563,W,2,05,1.6,139.3,M,8.4,M,5.0,0000*48,0
1779392542342,$GPGSA,M,3,15,20,29,25,11,,,,,,,,3.7,1.6,3.3*37,0
1779392542502,$GPGSV,3,1,12,15,56,343,44,20,37,017,42,29,28,329,42,25,28,250,40*7C,0
1779392542663,$GPGSV,3,2,12,11,23,069,42,05,05,011,16,06,10,106,04,12,43,206,45*71,0
1779392542819,$GPGSV,3,3,12,19,09,142,27,24,53,163,41,46,29,279,43,14,35,221,*78,0
1779392542981,$GPRMC,194222.000,A,1205.9643,S,07701.4563,W,0.00,25.98,210526,,,D*55,0
1779392543234,$GPGGA,194223.000,1205.9643,S,07701.4563,W,2,05,1.6,139.3,M,8.4,M,2.0,0000*4E,0
1779392543346,$GPGSA,M,3,15,20,29,25,11,,,,,,,,3.7,1.6,3.3*37,0
1779392543509,$GPRMC,194223.000,A,1205.9643,S,07701.4563,W,0.00,25.98,210526,,,D*54,0
1779392544236,$GPGGA,194224.000,1205.9643,S,07701.4563,W,2,06,1.4,139.3,M,8.4,M,2.0,0000*48,0
1779392544353,$GPGSA,M,3,15,20,29,25,11,05,,,,,,,2.4,1.4,1.9*3A,0
1779392544516,$GPRMC,194224.000,A,1205.9643,S,07701.4563,W,0.00,25.98,210526,,,D*53,0
1779392545235,$GPGGA,194225.000,1205.9643,S,07701.4563,W,2,06,1.4,139.3,M,8.4,M,2.0,0000*49,0
1779392545352,$GPGSA,M,3,15,20,29,25,11,05,,,,,,,2.4,1.4,1.9*3A,0
1779392545515,$GPRMC,194225.000,A,1205.9643,S,07701.4563,W,0.00,25.98,210526,,,D*52,0
1779392546235,$GPGGA,194226.000,1205.9643,S,07701.4563,W,2,06,1.4,139.3,M,8.4,M,3.0,0000*4B,0
1779392546352,$GPGSA,M,3,15,20,29,25,11,05,,,,,,,2.4,1.4,1.9*3A,0
1779392546514,$GPRMC,194226.000,A,1205.9643,S,07701.4563,W,0.00,25.98,210526,,,D*51,0
1779392547235,$GPGGA,194227.000,1205.9643,S,07701.4563,W,2,06,1.4,139.3,M,8.4,M,4.0,0000*4D,0
1779392547352,$GPGSA,M,3,15,20,29,25,11,05,,,,,,,2.4,1.4,1.9*3A,0
1779392547513,$GPGSV,3,1,12,15,56,343,44,20,37,017,43,29,28,329,42,25,28,250,40*7D,0
1779392547673,$GPGSV,3,2,12,11,23,069,42,05,05,011,20,06,10,106,22,12,43,206,45*70,0
1779392547829,$GPGSV,3,3,12,19,09,142,28,24,53,163,41,46,29,279,43,14,35,221,*77,0
1779392547992,$GPRMC,194227.000,A,1205.9643,S,07701.4563,W,0.00,25.98,210526,,,D*50,0
1779392548231,$GPGGA,194228.000,1205.9643,S,07701.4563,W,2,06,1.4,139.3,M,8.4,M,5.0,0000*43,0
1779392548348,$GPGSA,M,3,15,20,29,25,11,05,,,,,,,2.4,1.4,1.9*3A,0
1779392548511,$GPRMC,194228.000,A,1205.9643,S,07701.4563,W,0.00,25.98,210526,,,D*5F,0
1779392549235,$GPGGA,194229.000,1205.9643,S,07701.4563,W,2,06,1.4,139.3,M,8.4,M,2.0,0000*45,0
1779392549352,$GPGSA,M,3,15,20,29,25,11,05,,,,,,,2.4,1.4,1.9*3A,0
1779392549515,$GPRMC,194229.000,A,1205.9643,S,07701.4563,W,0.00,25.98,210526,,,D*5E,0
1779392550234,$GPGGA,194230.000,1205.9643,S,07701.4563,W,2,06,1.4,139.3,M,8.4,M,2.0,0000*4D,0
1779392550351,$GPGSA,M,3,15,20,29,25,11,05,,,,,,,2.4,1.4,1.9*3A,0
1779392550514,$GPRMC,194230.000,A,1205.9643,S,07701.4563,W,0.00,25.98,210526,,,D*56,0
1779392551237,$GPGGA,194231.000,1205.9643,S,07701.4563,W,2,06,1.4,139.3,M,8.4,M,2.0,0000*4C,0
1779392551353,$GPGSA,M,3,15,20,29,25,11,05,,,,,,,2.4,1.4,1.9*3A,0
1779392551516,$GPRMC,194231.000,A,1205.9643,S,07701.4563,W,0.00,25.98,210526,,,D*57,0
1779392552236,$GPGGA,194232.000,1205.9643,S,07701.4563,W,2,06,1.4,139.3,M,8.4,M,3.0,0000*4E,0
1779392552353,$GPGSA,M,3,15,20,29,25,11,05,,,,,,,2.4,1.4,1.9*3A,0
1779392552513,$GPGSV,3,1,12,15,56,343,44,20,37,017,43,29,28,329,42,25,28,250,40*7D,0
1779392552674,$GPGSV,3,2,12,11,23,069,42,05,05,011,21,06,10,106,22,12,43,206,45*71,0
1779392552829,$GPGSV,3,3,12,19,09,142,28,24,53,163,41,46,29,279,43,14,35,221,*77,0
1779392552992,$GPRMC,194232.000,A,1205.9643,S,07701.4563,W,0.00,25.98,210526,,,D*54,0
1779392553235,$GPGGA,194233.000,1205.9643,S,07701.4563,W,2,06,1.4,139.3,M,8.4,M,4.0,0000*48,0
1779392553352,$GPGSA,M,3,15,20,29,25,11,05,,,,,,,2.4,1.4,1.9*3A,0
1779392553515,$GPRMC,194233.000,A,1205.9643,S,07701.4563,W,0.00,25.98,210526,,,D*55,0
1779392554235,$GPGGA,194234.000,1205.9643,S,07701.4563,W,2,06,1.4,139.3,M,8.4,M,2.0,0000*49,0
1779392554352,$GPGSA,M,3,15,20,29,25,11,05,,,,,,,2.4,1.4,1.9*3A,0
1779392554515,$GPRMC,194234.000,A,1205.9643,S,07701.4563,W,0.00,25.98,210526,,,D*52,0
1779392555235,$GPGGA,194235.000,1205.9643,S,07701.4563,W,2,06,1.4,139.3,M,8.4,M,2.0,0000*48,0
1779392555352,$GPGSA,M,3,15,20,29,25,11,05,,,,,,,2.4,1.4,1.9*3A,0
1779392555515,$GPRMC,194235.000,A,1205.9643,S,07701.4563,W,0.00,25.98,210526,,,D*53,0
1779392556235,$GPGGA,194236.000,1205.9643,S,07701.4563,W,2,06,1.4,139.3,M,8.4,M,2.0,0000*4B,0
1779392556352,$GPGSA,M,3,15,20,29,25,11,05,,,,,,,2.4,1.4,1.9*3A,0
1779392556515,$GPRMC,194236.000,A,1205.9643,S,07701.4563,W,0.00,25.98,210526,,,D*50,0
1779392557236,$GPGGA,194237.000,1205.9643,S,07701.4563,W,2,06,1.4,139.3,M,8.4,M,2.0,0000*4A,0
1779392557353,$GPGSA,M,3,15,20,29,25,11,05,,,,,,,2.4,1.4,1.9*3A,0
1779392557513,$GPGSV,3,1,12,15,56,343,44,20,37,017,43,29,28,329,42,25,28,250,40*7D,0
1779392557674,$GPGSV,3,2,12,11,23,069,42,05,05,011,22,06,10,106,23,12,43,206,45*73,0
1779392557830,$GPGSV,3,3,12,19,09,142,29,24,53,163,41,46,29,279,43,14,35,221,*76,0
1779392557992,$GPRMC,194237.000,A,1205.9643,S,07701.4563,W,0.00,25.98,210526,,,D*51,0
1779392558230,$GPGGA,194238.000,1205.9643,S,07701.4563,W,2,06,1.4,139.3,M,8.4,M,3.0,0000*44,0
1779392558347,$GPGSA,M,3,15,20,29,25,11,05,,,,,,,2.4,1.4,1.9*3A,0
1779392558510,$GPRMC,194238.000,A,1205.9643,S,07701.4563,W,0.00,25.98,210526,,,D*5E,0
1779392559230,$GPGGA,194239.000,1205.9643,S,07701.4563,W,2,06,1.4,139.3,M,8.4,M,4.0,0000*42,0
1779392559347,$GPGSA,M,3,15,20,29,25,11,05,,,,,,,2.4,1.4,1.9*3A,0
1779392559510,$GPRMC,194239.000,A,1205.9643,S,07701.4563,W,0.00,25.98,210526,,,D*5F,0
1779392560235,$GPGGA,194240.000,1205.9643,S,07701.4563,W,2,06,1.4,139.3,M,8.4,M,2.0,0000*4A,0
1779392560352,$GPGSA,M,3,15,20,29,25,11,05,,,,,,,2.4,1.4,1.9*3A,0
1779392560515,$GPRMC,194240.000,A,1205.9643,S,07701.4563,W,0.00,25.98,210526,,,D*51,0
1779392561235,$GPGGA,194241.000,1205.9643,S,07701.4563,W,2,06,1.4,139.3,M,8.4,M,2.0,0000*4B,0
1779392561352,$GPGSA,M,3,15,20,29,25,11,05,,,,,,,2.4,1.4,1.9*3A,0
1779392561515,$GPRMC,194241.000,A,1205.9643,S,07701.4563,W,0.00,25.98,210526,,,D*50,0
1779392562235,$GPGGA,194242.000,1205.9643,S,07701.4563,W,2,06,1.4,139.3,M,8.4,M,2.0,0000*48,0
1779392562352,$GPGSA,M,3,15,20,29,25,11,05,,,,,,,2.4,1.4,1.9*3A,0
1779392562512,$GPGSV,3,1,12,15,56,343,44,20,37,017,43,29,28,329,42,25,28,250,41*7C,0
1779392562673,$GPGSV,3,2,12,11,23,069,42,05,05,011,22,06,10,106,23,12,43,206,45*73,0
1779392562828,$GPGSV,3,3,12,19,09,142,29,24,53,163,41,46,29,279,43,14,35,221,*76,0
1779392562991,$GPRMC,194242.000,A,1205.9643,S,07701.4563,W,0.00,25.98,210526,,,D*53,0
1779392563236,$GPGGA,194243.000,1205.9643,S,07701.4563,W,2,06,1.4,139.3,M,8.4,M,2.0,0000*49,0
1779392563353,$GPGSA,M,3,15,20,29,25,11,05,,,,,,,2.4,1.4,1.9*3A,0
1779392563515,$GPRMC,194243.000,A,1205.9643,S,07701.4563,W,0.00,25.98,210526,,,D*52,0
1779392564231,$GPGGA,194244.000,1205.9643,S,07701.4563,W,2,06,1.4,139.3,M,8.4,M,3.0,0000*4F,0
1779392564348,$GPGSA,M,3,15,20,29,25,11,05,,,,,,,2.4,1.4,1.9*3A,0
1779392564510,$GPRMC,194244.000,A,1205.9643,S,07701.4563,W,0.00,25.98,210526,,,D*55,0
1779392565235,$GPGGA,194245.000,1205.9643,S,07701.4563,W,2,06,1.4,139.3,M,8.4,M,2.0,0000*4F,0
1779392565352,$GPGSA,M,3,15,20,29,25,11,05,,,,,,,2.4,1.4,1.9*3A,0
1779392565515,$GPRMC,194245.000,A,1205.9643,S,07701.4563,W,0.00,25.98,210526,,,D*54,0
1779392566235,$GPGGA,194246.000,1205.9643,S,07701.4563,W,2,06,1.4,139.3,M,8.4,M,2.0,0000*4C,0
1779392566352,$GPGSA,M,3,15,20,29,25,11,05,,,,,,,2.4,1.4,1.9*3A,0
1779392566514,$GPRMC,194246.000,A,1205.9643,S,07701.4563,W,0.00,25.98,210526,,,D*57,0
1779392567235,$GPGGA,194247.000,1205.9643,S,07701.4563,W,2,06,1.4,139.3,M,8.4,M,2.0,0000*4D,0
1779392567352,$GPGSA,M,3,15,20,29,25,11,05,,,,,,,2.4,1.4,1.9*3A,0
1779392567512,$GPGSV,3,1,12,15,56,343,44,20,37,017,43,29,28,329,42,25,28,250,41*7C,0
1779392567673,$GPGSV,3,2,12,11,23,069,42,05,05,011,22,06,10,106,22,12,43,206,45*72,0
1779392567828,$GPGSV,3,3,12,19,09,142,30,24,53,163,42,46,29,279,43,14,35,221,*7D,0
1779392567991,$GPRMC,194247.000,A,1205.9643,S,07701.4563,W,0.00,25.98,210526,,,D*56,0
1779392568234,$GPGGA,194248.000,1205.9643,S,07701.4563,W,2,06,1.4,139.3,M,8.4,M,2.0,0000*42,0
1779392568351,$GPGSA,M,3,15,20,29,25,11,05,,,,,,,2.4,1.4,1.9*3A,0
1779392568514,$GPRMC,194248.000,A,1205.9643,S,07701.4563,W,0.00,25.98,210526,,,D*59,0
1779392569236,$GPGGA,194249.000,1205.9643,S,07701.4563,W,2,06,1.4,139.3,M,8.4,M,2.0,0000*43,0
1779392569353,$GPGSA,M,3,15,20,29,25,11,05,,,,,,,2.4,1.4,1.9*3A,0
1779392569516,$GPRMC,194249.000,A,1205.9643,S,07701.4563,W,0.00,25.98,210526,,,D*58,0
1779392570235,$GPGGA,194250.000,1205.9643,S,07701.4563,W,2,06,1.4,139.3,M,8.4,M,2.0,0000*4B,0
1779392570352,$GPGSA,M,3,15,20,29,25,11,05,,,,,,,2.4,1.4,1.9*3A,0
1779392570514,$GPRMC,194250.000,A,1205.9643,S,07701.4563,W,0.00,25.98,210526,,,D*50,0
1779392571230,$GPGGA,194251.000,1205.9643,S,07701.4563,W,2,06,1.4,139.3,M,8.4,M,3.0,0000*4B,0
1779392571347,$GPGSA,M,3,15,20,29,25,11,05,,,,,,,2.4,1.4,1.9*3A,0
1779392571510,$GPRMC,194251.000,A,1205.9643,S,07701.4563,W,0.00,25.98,210526,,,D*51,0
1779392572231,$GPGGA,194252.000,1205.9643,S,07701.4563,W,2,06,1.4,139.3,M,8.4,M,4.0,0000*4F,0
1779392572348,$GPGSA,M,3,15,20,29,25,11,05,,,,,,,2.4,1.4,1.9*3A,0
1779392572508,$GPGSV,3,1,12,15,56,343,44,20,37,017,43,29,28,329,43,25,28,250,40*7C,0
1779392572668,$GPGSV,3,2,12,11,23,069,42,05,05,011,22,06,10,106,22,12,43,206,45*72,0
1779392572824,$GPGSV,3,3,12,19,09,142,30,24,53,163,42,46,29,279,43,14,35,221,*7D,0
1779392572987,$GPRMC,194252.000,A,1205.9643,S,07701.4563,W,0.00,25.98,210526,,,D*52,0
1779392573235,$GPGGA,194253.000,1205.9643,S,07701.4563,W,2,06,1.4,139.3,M,8.4,M,2.0,0000*48,0
1779392573352,$GPGSA,M,3,15,20,29,25,11,05,,,,,,,2.4,1.4,1.9*3A,0
1779392573515,$GPRMC,194253.000,A,1205.9643,S,07701.4563,W,0.00,25.98,210526,,,D*53,0
1779392574235,$GPGGA,194254.000,1205.9643,S,07701.4563,W,2,06,1.4,139.3,M,8.4,M,2.0,0000*4F,0
1779392574352,$GPGSA,M,3,15,20,29,25,11,05,,,,,,,2.4,1.4,1.9*3A,0
1779392574514,$GPRMC,194254.000,A,1205.9643,S,07701.4563,W,0.00,25.98,210526,,,D*54,0
1779392575235,$GPGGA,194255.000,1205.9643,S,07701.4563,W,2,06,1.4,139.3,M,8.4,M,2.0,0000*4E,0
1779392575352,$GPGSA,M,3,15,20,29,25,11,05,,,,,,,2.4,1.4,1.9*3A,0
1779392575515,$GPRMC,194255.000,A,1205.9643,S,07701.4563,W,0.00,25.98,210526,,,D*55,0
1779392576235,$GPGGA,194256.000,1205.9643,S,07701.4563,W,2,06,1.4,139.3,M,8.4,M,2.0,0000*4D,0
1779392576351,$GPGSA,M,3,15,20,29,25,11,05,,,,,,,2.4,1.4,1.9*3A,0
1779392576514,$GPRMC,194256.000,A,1205.9643,S,07701.4563,W,0.00,25.98,210526,,,D*56,0
1779392577231,$GPGGA,194257.000,1205.9643,S,07701.4563,W,2,06,1.4,139.3,M,8.4,M,3.0,0000*4D,0
1779392577347,$GPGSA,M,3,15,20,29,25,11,05,,,,,,,2.4,1.4,1.9*3A,0
1779392577508,$GPGSV,3,1,12,15,56,343,44,20,37,017,43,29,28,329,43,25,28,250,41*7D,0
1779392577668,$GPGSV,3,2,12,11,23,069,42,05,05,011,20,06,10,106,21,12,43,206,45*73,0
1779392577824,$GPGSV,3,3,12,19,09,142,30,24,53,163,42,46,29,279,43,14,35,221,*7D,1
1779392577987,$GPRMC,194257.000,A,1205.9643,S,07701.4563,W,0.00,25.98,210526,,,D*57,1
1779392578230,$GPGGA,194258.000,1205.9643,S,07701.4563,W,2,06,1.4,139.3,M,8.4,M,4.0,0000*45,1
1779392578347,$GPGSA,M,3,15,20,29,25,11,05,,,,,,,2.4,1.4,1.9*3A,1
1779392578510,$GPRMC,194258.000,A,1205.9643,S,07701.4563,W,0.00,25.98,210526,,,D*58,1
1779392579234,$GPGGA,194259.000,1205.9643,S,07701.4563,W,2,06,1.4,139.3,M,8.4,M,2.0,0000*42,1
1779392579351,$GPGSA,M,3,15,20,29,25,11,05,,,,,,,2.4,1.4,1.9*3A,1
1779392579513,$GPRMC,194259.000,A,1205.9643,S,07701.4563,W,0.00,25.98,210526,,,D*59,1
1779392580234,$GPGGA,194300.000,1205.9643,S,07701.4563,W,2,06,1.4,139.3,M,8.4,M,2.0,0000*4F,1
1779392580351,$GPGSA,M,3,15,20,29,25,11,05,,,,,,,2.4,1.4,1.9*3A,1
1779392580513,$GPRMC,194300.000,A,1205.9643,S,07701.4563,W,0.00,25.98,210526,,,D*54,1
1779392581235,$GPGGA,194301.000,1205.9642,S,07701.4565,W,2,06,1.4,139.5,M,8.4,M,2.0,0000*4F,1
1779392581352,$GPGSA,M,3,15,20,29,25,11,05,,,,,,,2.4,1.4,1.9*3A,1
1779392581514,$GPRMC,194301.000,A,1205.9642,S,07701.4565,W,0.34,25.98,210526,,,D*55,1
1779392582234,$GPGGA,194302.000,1205.9639,S,07701.4564,W,2,06,1.4,139.6,M,8.4,M,2.0,0000*42,1
1779392582351,$GPGSA,M,3,15,20,29,25,11,05,,,,,,,2.4,1.4,1.9*3A,1
1779392582511,$GPGSV,3,1,12,15,56,343,44,20,37,017,44,29,28,329,43,25,28,250,41*7A,1
1779392582672,$GPGSV,3,2,12,11,23,069,42,05,05,011,19,06,10,106,18,12,43,206,45*73,1
1779392582828,$GPGSV,3,3,12,19,09,142,29,24,53,163,42,46,29,279,42,14,35,221,*74,1
1779392582990,$GPRMC,194302.000,A,1205.9639,S,07701.4564,W,2.25,25.00,210526,,,D*58,1
1779392583230,$GPGGA,194303.000,1205.9630,S,07701.4560,W,2,06,1.4,139.8,M,8.4,M,3.0,0000*41,1
1779392583347,$GPGSA,M,3,15,20,29,25,11,05,,,,,,,2.4,1.4,1.9*3A,1
1779392583510,$GPRMC,194303.000,A,1205.9630,S,07701.4560,W,4.62,22.27,210526,,,D*53,1
1779392584235,$GPGGA,194304.000,1205.9614,S,07701.4554,W,2,06,1.4,140.0,M,8.4,M,4.0,0000*46,1
1779392584352,$GPGSA,M,3,15,20,29,25,11,05,,,,,,,2.4,1.4,1.9*3A,1
1779392584515,$GPRMC,194304.000,A,1205.9614,S,07701.4554,W,7.05,21.99,210526,,,D*51,1
1779392585235,$GPGGA,194305.000,1205.9595,S,07701.4545,W,2,06,1.4,140.2,M,8.4,M,2.0,0000*49,1
1779392585352,$GPGSA,M,3,15,20,29,25,11,05,,,,,,,2.4,1.4,1.9*3A,1
1779392585515,$GPRMC,194305.000,A,1205.9595,S,07701.4545,W,8.36,25.17,210526,,,D*57,1
1779392586234,$GPGGA,194306.000,1205.9573,S,07701.4535,W,2,06,1.4,140.4,M,8.4,M,2.0,0000*43,1
1779392586351,$GPGSA,M,3,15,20,29,25,11,05,,,,,,,2.4,1.4,1.9*3A,1
1779392586514,$GPRMC,194306.000,A,1205.9573,S,07701.4535,W,8.43,25.12,210526,,,D*5C,1
1779392587235,$GPGGA,194307.000,1205.9551,S,07701.4524,W,2,06,1.4,140.6,M,8.4,M,2.0,0000*40,1
1779392587352,$GPGSA,M,3,15,20,29,25,11,05,,,,,,,2.4,1.4,1.9*3A,1
1779392587513,$GPGSV,3,1,12,15,56,343,45,20,37,017,44,29,28,329,42,25,28,250,41*7A,1
1779392587673,$GPGSV,3,2,12,11,23,069,31,05,05,011,19,06,10,106,18,12,43,206,46*74,1
1779392587829,$GPGSV,3,3,12,19,09,142,27,24,53,163,43,46,29,279,45,14,35,221,*7C,1
1779392587992,$GPRMC,194307.000,A,1205.9551,S,07701.4524,W,9.05,25.32,210526,,,D*5C,1
1779392588229,$GPGGA,194308.000,1205.9525,S,07701.4513,W,2,06,1.4,140.8,M,8.4,M,3.0,0000*47,1
1779392588346,$GPGSA,M,3,15,20,29,25,11,05,,,,,,,2.4,1.4,1.9*3A,1
1779392588511,$GPRMC,194308.000,A,1205.9525,S,07701.4513,W,10.65,24.75,210526,,,D*68,1
1779392589234,$GPGGA,194309.000,1205.9495,S,07701.4501,W,2,06,1.4,141.4,M,8.4,M,2.0,0000*43,1
1779392589351,$GPGSA,M,3,15,20,29,25,11,05,,,,,,,2.4,1.4,1.9*3A,1
1779392589516,$GPRMC,194309.000,A,1205.9495,S,07701.4501,W,11.88,24.62,210526,,,D*64,1
1779392590227,$GPGGA,194310.000,1205.9463,S,07701.4489,W,2,05,1.6,142.0,M,8.4,M,3.0,0000*44,1
1779392590340,$GPGSA,M,3,15,20,29,25,11,,,,,,,,3.8,1.6,3.4*3F,1
1779392590505,$GPRMC,194310.000,A,1205.9463,S,07701.4489,W,12.62,24.94,210526,,,D*6A,1
1779392591235,$GPGGA,194311.000,1205.9428,S,07701.4476,W,2,06,1.4,142.7,M,8.4,M,2.0,0000*4D,1
1779392591352,$GPGSA,M,3,15,20,29,25,11,05,,,,,,,2.4,1.4,1.9*3A,1
1779392591517,$GPRMC,194311.000,A,1205.9428,S,07701.4476,W,13.31,24.61,210526,,,D*69,1
1779392592236,$GPGGA,194312.000,1205.9393,S,07701.4460,W,2,06,1.4,142.8,M,8.4,M,2.0,0000*41,1
1779392592353,$GPGSA,M,3,15,20,29,25,11,05,,,,,,,2.4,1.4,1.9*3A,1
1779392592514,$GPGSV,3,1,12,15,56,343,41,20,37,017,43,29,28,329,30,25,28,250,42*7F,1
1779392592674,$GPGSV,3,2,12,11,23,069,35,05,05,011,26,06,10,106,07,12,43,206,46*72,1
1779392592830,$GPGSV,3,3,12,19,09,142,22,24,53,163,43,46,29,279,39,14,35,221,*72,1
1779392592995,$GPRMC,194312.000,A,1205.9393,S,07701.4460,W,13.99,23.34,210526,,,D*6F,1
1779392593228,$GPGGA,194313.000,1205.9355,S,07701.4443,W,2,05,1.6,142.8,M,8.4,M,3.0,0000*4B,1
1779392593340,$GPGSA,M,3,15,20,29,25,11,,,,,,,,3.8,1.6,3.4*3F,1
1779392593505,$GPRMC,194313.000,A,1205.9355,S,07701.4443,W,14.88,24.21,210526,,,D*61,1
1779392594225,$GPGGA,194314.000,1205.9315,S,07701.4424,W,2,05,1.6,143.0,M,8.4,M,4.0,0000*47,1
1779392594338,$GPGSA,M,3,15,20,29,25,11,,,,,,,,3.8,1.6,3.4*3F,1
1779392594503,$GPRMC,194314.000,A,1205.9315,S,07701.4424,W,16.02,24.42,210526,,,D*66,1
1779392595236,$GPGGA,194315.000,1205.9278,S,07701.4404,W,2,05,1.6,143.3,M,8.4,M,5.0,0000*4C,1
1779392595348,$GPGSA,M,3,15,20,29,25,11,,,,,,,,3.8,1.6,3.4*3F,1
1779392595513,$GPRMC,194315.000,A,1205.9278,S,07701.4404,W,15.42,24.31,210526,,,D*6C,1
1779392596228,$GPGGA,194316.000,1205.9241,S,07701.4383,W,2,06,1.4,143.8,M,8.4,M,6.0,0000*44,1
1779392596345,$GPGSA,M,3,15,20,29,25,11,05,,,,,,,2.4,1.4,1.9*3A,1
1779392596510,$GPRMC,194316.000,A,1205.9241,S,07701.4383,W,15.08,26.63,210526,,,D*66,1
1779392597229,$GPGGA,194317.000,1205.9201,S,07701.4364,W,2,06,1.4,144.1,M,8.4,M,7.0,0000*47,1
1779392597346,$GPGSA,M,3,15,20,29,25,11,05,,,,,,,2.4,1.4,1.9*3A,1
1779392597506,$GPGSV,3,1,12,15,56,343,44,20,37,017,43,29,28,329,36,25,28,250,40*7E,1
1779392597667,$GPGSV,3,2,12,11,23,069,35,05,05,011,21,06,10,106,19,12,43,206,46*7A,1
1779392597822,$GPGSV,3,3,12,19,09,142,15,24,53,163,43,46,29,279,36,14,35,221,*79,1
1779392597987,$GPRMC,194317.000,A,1205.9201,S,07701.4364,W,15.46,25.99,210526,,,D*66,1
1779392598227,$GPGGA,194318.000,1205.9161,S,07701.4345,W,2,06,1.4,144.3,M,8.4,M,8.0,0000*43,1
1779392598344,$GPGSA,M,3,15,20,29,25,11,05,,,,,,,2.4,1.4,1.9*3A,1
1779392598509,$GPRMC,194318.000,A,1205.9161,S,07701.4345,W,15.34,26.83,210526,,,D*62,1
1779392599230,$GPGGA,194319.000,1205.9118,S,07701.4330,W,2,06,1.4,144.5,M,8.4,M,9.0,0000*49,1
1779392599347,$GPGSA,M,3,15,20,29,25,11,05,,,,,,,2.4,1.4,1.9*3A,1
1779392599512,$GPRMC,194319.000,A,1205.9118,S,07701.4330,W,15.63,24.28,210526,,,D*6E,1
1779392600232,$GPGGA,194320.000,1205.9076,S,07701.4314,W,2,06,1.4,144.5,M,8.4,M,10.0,0000*74,1
1779392600348,$GPGSA,M,3,15,20,29,25,11,05,,,,,,,2.4,1.4,1.9*3A,1
1779392600513,$GPRMC,194320.000,A,1205.9076,S,07701.4314,W,15.62,24.58,210526,,,D*6D,1
1779392601231,$GPGGA,194321.000,1205.9035,S,07701.4295,W,2,06,1.4,144.7,M,8.4,M,11.0,0000*79,1
1779392601348,$GPGSA,M,3,15,20,29,25,11,05,,,,,,,2.4,1.4,1.9*3A,1
1779392601513,$GPRMC,194321.000,A,1205.9035,S,07701.4295,W,16.31,23.42,210526,,,D*6A,1
1779392602230,$GPGGA,194322.000,1205.8996,S,07701.4275,W,2,06,1.4,144.8,M,8.4,M,12.0,0000*79,1
1779392602347,$GPGSA,M,3,15,20,29,25,11,05,,,,,,,2.4,1.4,1.9*3A,1
1779392602508,$GPGSV,3,1,12,15,56,343,44,20,37,017,44,29,28,329,40,25,28,250,33*7C,1
1779392602668,$GPGSV,3,2,12,11,23,069,22,05,05,011,22,06,10,106,29,12,43,206,46*7C,1
1779392602824,$GPGSV,3,3,12,19,09,142,21,24,53,163,43,46,29,279,43,14,35,221,*7C,1
1779392602989,$GPRMC,194322.000,A,1205.8996,S,07701.4275,W,15.20,26.05,210526,,,D*63,1
1779392603233,$GPGGA,194323.000,1205.8958,S,07701.4256,W,2,06,1.4,145.1,M,8.4,M,2.0,0000*42,1
1779392603350,$GPGSA,M,3,15,20,29,25,11,05,,,,,,,2.4,1.4,1.9*3A,1
1779392603515,$GPRMC,194323.000,A,1205.8958,S,07701.4256,W,14.97,26.00,210526,,,D*69,1
1779392604233,$GPGGA,194324.000,1205.8922,S,07701.4237,W,2,06,1.4,145.2,M,8.4,M,2.0,0000*4C,1
1779392604349,$GPGSA,M,3,15,20,29,25,11,05,,,,,,,2.4,1.4,1.9*3A,1
1779392604514,$GPRMC,194324.000,A,1205.8922,S,07701.4237,W,14.28,27.01,210526,,,D*60,1
1779392605230,$GPGGA,194325.000,1205.8888,S,07701.4219,W,2,06,1.4,145.6,M,8.4,M,3.0,0000*45,1
1779392605347,$GPGSA,M,3,15,20,29,25,11,05,,,,,,,2.4,1.4,1.9*3A,1
1779392605512,$GPRMC,194325.000,A,1205.8888,S,07701.4219,W,13.60,26.88,210526,,,D*67,1
1779392606229,$GPGGA,194326.000,1205.8854,S,07701.4202,W,2,06,1.4,145.7,M,8.4,M,4.0,0000*4B,1
1779392606345,$GPGSA,M,3,15,20,29,25,11,05,,,,,,,2.4,1.4,1.9*3A,1
1779392606510,$GPRMC,194326.000,A,1205.8854,S,07701.4202,W,13.26,24.61,210526,,,D*68,1
1779392607225,$GPGGA,194327.000,1205.8822,S,07701.4187,W,2,05,2.7,145.7,M,8.4,M,5.0,0000*47,1
1779392607337,$GPGSA,M,3,15,20,29,25,05,,,,,,,,3.4,2.7,2.0*31,1
1779392607498,$GPGSV,3,1,12,15,56,343,45,20,37,017,44,29,28,329,42,25,28,250,37*7B,1
1779392607658,$GPGSV,3,2,12,05,05,011,15,06,10,106,17,12,43,206,45,19,09,142,21*7D,1
1779392607809,$GPGSV,3,3,12,24,53,163,43,46,29,279,27,14,35,221,,13,28,031,*71,1
1779392607974,$GPRMC,194327.000,A,1205.8822,S,07701.4187,W,12.50,23.62,210526,,,D*62,1
1779392608231,$GPGGA,194328.000,1205.8792,S,07701.4173,W,2,05,2.7,145.7,M,8.4,M,6.0,0000*44,1
1779392608343,$GPGSA,M,3,15,20,29,25,05,,,,,,,,3.4,2.7,2.0*31,1
1779392608508,$GPRMC,194328.000,A,1205.8792,S,07701.4173,W,11.49,23.93,210526,,,D*67,1
1779392609226,$GPGGA,194329.000,1205.8765,S,07701.4161,W,2,05,2.7,145.6,M,8.4,M,7.0,0000*4E,1
1779392609339,$GPGSA,M,3,15,20,29,25,05,,,,,,,,3.4,2.7,2.0*31,1
1779392609504,$GPRMC,194329.000,A,1205.8765,S,07701.4161,W,10.53,23.36,210526,,,D*68,1
1779392610227,$GPGGA,194330.000,1205.8741,S,07701.4151,W,2,05,2.7,145.5,M,8.4,M,8.0,0000*4F,1
1779392610339,$GPGSA,M,3,15,20,29,25,05,,,,,,,,3.4,2.7,2.0*31,1
1779392610502,$GPRMC,194330.000,A,1205.8741,S,07701.4151,W,8.68,24.08,210526,,,D*5E,1
1779392611229,$GPGGA,194331.000,1205.8724,S,07701.4143,W,2,06,1.4,145.2,M,8.4,M,9.0,0000*4B,1
1779392611346,$GPGSA,M,3,15,20,29,25,11,05,,,,,,,2.4,1.4,1.9*3A,1
1779392611509,$GPRMC,194331.000,A,1205.8724,S,07701.4143,W,6.86,21.19,210526,,,D*54,1
1779392612230,$GPGGA,194332.000,1205.8709,S,07701.4139,W,2,06,1.4,145.1,M,8.4,M,10.0,0000*71,1
1779392612347,$GPGSA,M,3,15,20,29,25,11,05,,,,,,,2.4,1.4,1.9*3A,1
1779392612507,$GPGSV,3,1,12,15,55,344,45,20,36,017,44,29,29,328,41,25,28,249,41*74,1
1779392612668,$GPGSV,3,2,12,11,24,071,23,05,05,012,15,06,10,108,17,12,43,204,45*76,1
1779392612824,$GPGSV,3,3,12,19,08,142,29,24,54,162,42,46,29,279,42,14,36,222,*73,1
1779392612986,$GPRMC,194332.000,A,1205.8709,S,07701.4139,W,5.63,12.85,210526,,,D*58,1
1779392613229,$GPGGA,194333.000,1205.8695,S,07701.4140,W,2,05,2.7,144.9,M,8.4,M,11.0,0000*71,1
1779392613341,$GPGSA,M,3,15,20,29,25,05,,,,,,,,3.4,2.7,2.0*31,1
1779392613506,$GPRMC,194333.000,A,1205.8695,S,07701.4140,W,5.63,352.22,210526,,,D*69,1
1779392614229,$GPGGA,194334.000,1205.8683,S,07701.4150,W,2,04,2.9,144.7,M,8.4,M,12.0,0000*72,1
1779392614337,$GPGSA,M,3,15,20,29,25,,,,,,,,,5.2,2.9,4.2*3E,1
1779392614502,$GPRMC,194334.000,A,1205.8683,S,07701.4150,W,6.30,327.20,210526,,,D*6D,1
1779392615227,$GPGGA,194335.000,1205.8674,S,07701.4168,W,2,04,2.9,144.5,M,8.4,M,2.0,0000*43,1
1779392615335,$GPGSA,M,3,15,20,29,25,,,,,,,,,5.2,2.9,4.2*3E,1
1779392615500,$GPRMC,194335.000,A,1205.8674,S,07701.4168,W,8.17,296.81,210526,,,D*64,1
1779392616229,$GPGGA,194336.000,1205.8669,S,07701.4195,W,2,04,2.9,144.3,M,8.4,M,2.0,0000*48,1
