Unix_time,GPS_data,motion_flag
1779393159204,$GPGGA,195239.000,1205.9652,S,07701.4565,W,1,08,0.9,141.2,M,8.4,M,,0000*60,0
1779393177736,$GPGSA,M,3,24,15,12,20,29,25,11,06,,,,,2.2,0.9,2.0*3C,0
1779393177736,$GPRMC,195239.000,A,1205.9652,S,07701.4565,W,0.00,26.80,210526,,,A*57,0
1779393177736,$GPGGA,195240.000,1205.9652,S,07701.4565,W,1,08,0.9,141.2,M,8.4,M,,0000*6E,0
1779393177736,$GPGSA,M,3,24,15,12,20,29,25,11,06,,,,,2.2,0.9,2.0*3C,0
1779393177736,$GPRMC,195240.000,A,1205.9652,S,07701.4565,W,0.00,26.80,210526,,,A*59,0
1779393177736,$GPGGA,195241.000,1205.9652,S,07701.4565,W,1,08,0.9,141.2,M,8.4,M,,0000*6F,0
1779393177737,$GPGSA,M,3,24,15,12,20,29,25,11,06,,,,,2.2,0.9,2.0*3C,0
1779393177737,$GPRMC,195241.000,A,1205.9652,S,07701.4565,W,0.00,26.80,210526,,,A*58,0
1779393177737,$GPGGA,195242.000,1205.9652,S,07701.4565,W,1,08,0.9,141.2,M,8.4,M,,0000*6C,0
1779393177737,$GPGSA,M,3,24,15,12,20,29,25,11,06,,,,,2.2,0.9,2.0*3C,0
1779393177737,$GPGSV,3,1,12,24,56,157,42,15,52,346,45,12,42,200,43,20,33,017,41*7A,0
1779393177737,$GPGSV,3,2,12,29,32,327,41,25,29,245,41,11,24,074,35,06,09,111,21*76,0
1779393177737,$GPGSV,3,3,12,05,04,015,11,13,24,029,43,51,52,289,,14,38,224,*7D,0
1779393177737,$GPRMC,195242.000,A,1205.9652,S,07701.4565,W,0.00,26.80,210526,,,A*5B,0
1779393177738,$GPGGA,195243.000,1205.9652,S,07701.4565,W,1,08,0.9,141.2,M,8.4,M,,0000*6D,0
1779393177738,$GPGSA,M,3,24,15,12,20,29,25,11,06,,,,,2.2,0.9,2.0*3C,0
1779393177738,$GPRMC,195243.000,A,1205.9652,S,07701.4565,W,0.00,26.80,210526,,,A*5A,0
1779393177738,$GPGGA,195244.000,1205.9652,S,07701.4565,W,1,08,0.9,141.2,M,8.4,M,,0000*6A,0
1779393177738,$GPGSA,M,3,24,15,12,20,29,25,11,06,,,,,2.2,0.9,2.0*3C,0
1779393177738,$GPRMC,195244.000,A,1205.9652,S,07701.4565,W,0.00,26.80,210526,,,A*5D,0
1779393177738,$GPGGA,195245.000,1205.9652,S,07701.4565,W,1,08,0.9,141.1,M,8.4,M,,0000*68,0
1779393177738,$GPGSA,M,3,24,15,12,20,29,25,11,06,,,,,2.2,0.9,2.0*3C,0
1779393177739,$GPRMC,195245.000,A,1205.9652,S,07701.4565,W,0.00,26.80,210526,,,A*5C,0
1779393177739,$GPGGA,195246.000,1205.9652,S,07701.4565,W,1,08,0.9,141.1,M,8.4,M,,0000*6B,0
1779393177739,$GPGSA,M,3,24,15,12,20,29,25,11,06,,,,,2.2,0.9,2.0*3C,0
1779393177739,$GPRMC,195246.000,A,1205.9652,S,07701.4565,W,0.00,26.80,210526,,,A*5F,0
1779393177739,$GPGGA,195247.000,1205.9652,S,07701.4565,W,1,08,0.9,141.1,M,8.4,M,,0000*6A,0
1779393177739,$GPGSA,M,3,24,15,12,20,29,25,11,06,,,,,2.2,0.9,2.0*3C,0
1779393177739,$GPGSV,3,1,12,24,56,157,42,15,52,346,44,12,42,200,43,20,33,017,40*7A,0
1779393177739,$GPGSV,3,2,12,29,32,327,41,25,29,245,41,11,24,074,35,06,09,111,22*75,0
1779393177739,$GPGSV,3,3,12,05,04,015,11,13,24,029,43,19,06,143,15,51,52,289,*7B,0
1779393177740,$GPRMC,195247.000,A,1205.9652,S,07701.4565,W,0.00,26.80,210526,,,A*5E,0
1779393177740,$GPGGA,195248.000,1205.9652,S,07701.4565,W,1,08,0.9,141.1,M,8.4,M,,0000*65,0
1779393177740,$GPGSA,M,3,24,15,12,20,29,25,11,06,,,,,2.2,0.9,2.0*3C,0
1779393177740,$GPRMC,195248.000,A,1205.9652,S,07701.4565,W,0.00,26.80,210526,,,A*51,0
1779393177740,$GPGGA,195249.000,1205.9652,S,07701.4565,W,1,08,0.9,141.1,M,8.4,M,,0000*64,0
1779393177740,$GPGSA,M,3,24,15,12,20,29,25,11,06,,,,,2.2,0.9,2.0*3C,0
1779393177741,$GPRMC,195249.000,A,1205.9652,S,07701.4565,W,0.00,26.80,210526,,,A*50,0
1779393177741,$GPGGA,195250.000,1205.9652,S,07701.4565,W,1,08,0.9,141.1,M,8.4,M,,0000*6C,0
1779393177741,$GPGSA,M,3,24,15,12,20,29,25,11,06,,,,,2.2,0.9,2.0*3C,0
1779393177741,$GPRMC,195250.000,A,1205.9652,S,07701.4565,W,0.00,26.80,210526,,,A*58,0
1779393177741,$GPGGA,195251.000,1205.9652,S,07701.4565,W,1,08,0.9,141.1,M,8.4,M,,0000*6D,0
1779393177741,$GPGSA,M,3,24,15,12,20,29,25,11,06,,,,,2.2,0.9,2.0*3C,0
1779393177741,$GPRMC,195251.000,A,1205.9652,S,07701.4565,W,0.00,26.80,210526,,,A*59,0
1779393177741,$GPGGA,195252.000,1205.9652,S,07701.4565,W,1,08,0.9,141.1,M,8.4,M,,0000*6E,0
1779393177742,$GPGSA,M,3,24,15,12,20,29,25,11,06,,,,,2.2,0.9,2.0*3C,0
1779393177742,$GPGSV,3,1,12,24,56,157,42,15,52,346,44,12,42,200,43,20,33,017,40*7A,0
1779393177742,$GPGSV,3,2,12,29,32,327,41,25,29,245,42,11,24,074,35,06,09,111,23*77,0
1779393177742,$GPGSV,3,3,12,13,24,029,43,51,52,289,,14,38,224,,09,18,222,*7A,0
1779393177742,$GPRMC,195252.000,A,1205.9652,S,07701.4565,W,0.00,26.80,210526,,,A*5A,0
1779393177742,$GPGGA,195253.000,1205.9652,S,07701.4565,W,1,08,0.9,141.1,M,8.4,M,,0000*6F,0
1779393177742,$GPGSA,M,3,24,15,12,20,29,25,11,06,,,,,2.2,0.9,2.0*3C,0
1779393177743,$GPRMC,195253.000,A,1205.9652,S,07701.4565,W,0.00,26.80,210526,,,A*5B,0
1779393177743,$GPGGA,195254.000,1205.9652,S,07701.4565,W,1,08,0.9,141.1,M,8.4,M,,0000*68,0
1779393177743,$GPGSA,M,3,24,15,12,20,29,25,11,06,,,,,2.2,0.9,2.0*3C,0
1779393177743,$GPRMC,195254.000,A,1205.9652,S,07701.4565,W,0.00,26.80,210526,,,A*5C,0
1779393177743,$GPGGA,195255.000,1205.9652,S,07701.4565,W,1,08,0.9,141.1,M,8.4,M,,0000*69,0
1779393177743,$GPGSA,M,3,24,15,12,20,29,25,11,06,,,,,2.2,0.9,2.0*3C,0
1779393177743,$GPRMC,195255.000,A,1205.9652,S,07701.4565,W,0.00,26.80,210526,,,A*5D,0
1779393177743,$GPGGA,195256.000,1205.9652,S,07701.4565,W,1,08,0.9,141.1,M,8.4,M,,0000*6A,0
1779393177744,$GPGSA,M,3,24,15,12,20,29,25,11,06,,,,,2.2,0.9,2.0*3C,0
1779393177744,$GPRMC,195256.000,A,1205.9652,S,07701.4565,W,0.00,26.80,210526,,,A*5E,0
1779393177744,$GPGGA,195257.000,1205.9652,S,07701.4565,W,1,08,0.9,141.1,M,8.4,M,,0000*6B,0
1779393177744,$GPGSA,M,3,24,15,12,20,29,25,11,06,,,,,2.2,0.9,2.0*3C,0
1779393177744,$GPGSV,3,1,12,24,56,157,42,15,52,346,45,12,42,200,44,20,33,017,40*7C,0
1779393177744,$GPGSV,3,2,12,29,32,327,41,25,29,245,42,11,24,074,36,06,09,111,23*74,0
1779393177798,$GPGSV,3,3,12,13,24,029,43,51,52,289,,14,38,224,,09,18,222,*7A,0
1779393177960,$GPRMC,195257.000,A,1205.9652,S,07701.4565,W,0.00,26.80,210526,,,A*5F,0
1779393178203,$GPGGA,195258.000,1205.9652,S,07701.4565,W,1,08,0.9,141.1,M,8.4,M,,0000*64,0
1779393178329,$GPGSA,M,3,24,15,12,20,29,25,11,06,,,,,2.2,0.9,2.0*3C,0
1779393178492,$GPRMC,195258.000,A,1205.9652,S,07701.4565,W,0.00,26.80,210526,,,A*50,0
1779393179204,$GPGGA,195259.000,1205.9652,S,07701.4565,W,1,08,0.9,141.1,M,8.4,M,,0000*65,0
1779393179330,$GPGSA,M,3,24,15,12,20,29,25,11,06,,,,,2.2,0.9,2.0*3C,0
1779393179493,$GPRMC,195259.000,A,1205.9652,S,07701.4565,W,0.00,26.80,210526,,,A*51,0
1779393180211,$GPGGA,195300.000,1205.9652,S,07701.4565,W,1,08,0.9,141.1,M,8.4,M,,0000*68,0
1779393180337,$GPGSA,M,3,24,15,12,20,29,25,11,06,,,,,2.2,0.9,2.0*3C,0
1779393180499,$GPRMC,195300.000,A,1205.9652,S,07701.4565,W,0.00,26.80,210526,,,A*5C,0
1779393181206,$GPGGA,195301.000,1205.9652,S,07701.4565,W,1,08,0.9,141.1,M,8.4,M,,0000*69,0
1779393181332,$GPGSA,M,3,24,15,12,20,29,25,11,06,,,,,2.2,0.9,2.0*3C,0
1779393181495,$GPRMC,195301.000,A,1205.9652,S,07701.4565,W,0.00,26.80,210526,,,A*5D,0
1779393182211,$GPGGA,195302.000,1205.9652,S,07701.4565,W,1,08,0.9,141.1,M,8.4,M,,0000*6A,0
1779393182337,$GPGSA,M,3,24,15,12,20,29,25,11,06,,,,,2.2,0.9,2.0*3C,0
1779393182497,$GPGSV,3,1,12,24,56,157,43,15,52,346,45,12,42,200,44,20,33,017,41*7C,0
1779393182658,$GPGSV,3,2,12,29,32,327,41,25,29,245,42,11,24,074,36,06,09,111,23*74,0
1779393182814,$GPGSV,3,3,12,05,04,015,04,13,24,029,43,19,06,143,04,51,52,289,*7F,0
1779393182976,$GPRMC,195302.000,A,1205.9652,S,07701.4565,W,0.00,26.80,210526,,,A*5E,0
1779393183204,$GPGGA,195303.000,1205.9652,S,07701.4565,W,1,08,0.9,141.1,M,8.4,M,,0000*6B,0
1779393183330,$GPGSA,M,3,24,15,12,20,29,25,11,06,,,,,2.2,0.9,2.0*3C,0
1779393183493,$GPRMC,195303.000,A,1205.9652,S,07701.4565,W,0.00,26.80,210526,,,A*5F,0
1779393184205,$GPGGA,195304.000,1205.9652,S,07701.4565,W,1,08,0.9,141.1,M,8.4,M,,0000*6C,0
1779393184331,$GPGSA,M,3,24,15,12,20,29,25,11,06,,,,,2.2,0.9,2.0*3C,0
1779393184494,$GPRMC,195304.000,A,1205.9652,S,07701.4565,W,0.00,26.80,210526,,,A*58,0
1779393185204,$GPGGA,195305.000,1205.9652,S,07701.4565,W,1,08,0.9,141.1,M,8.4,M,,0000*6D,0
1779393185330,$GPGSA,M,3,24,15,12,20,29,25,11,06,,,,,2.2,0.9,2.0*3C,0
1779393185493,$GPRMC,195305.000,A,1205.9652,S,07701.4565,W,0.00,26.80,210526,,,A*59,0
1779393186205,$GPGGA,195306.000,1205.9652,S,07701.4565,W,1,08,0.9,141.1,M,8.4,M,,0000*6E,0
1779393186331,$GPGSA,M,3,24,15,12,20,29,25,11,06,,,,,2.2,0.9,2.0*3C,0
1779393186493,$GPRMC,195306.000,A,1205.9652,S,07701.4565,W,0.00,26.80,210526,,,A*5A,1
1779393187207,$GPGGA,195307.000,1205.9652,S,07701.4565,W,1,08,0.9,141.1,M,8.4,M,,0000*6F,1
1779393187333,$GPGSA,M,3,24,15,12,20,29,25,11,06,,,,,2.2,0.9,2.0*3C,1
1779393187493,$GPGSV,3,1,12,24,56,157,43,15,52,346,44,12,42,200,44,20,33,017,41*7D,1
1779393187653,$GPGSV,3,2,12,29,32,327,40,25,29,245,42,11,24,074,37,06,09,111,22*75,1
1779393187809,$GPGSV,3,3,12,05,04,015,09,13,24,029,43,44,42,284,50,14,38,224,*79,1
1779393187972,$GPRMC,195307.000,A,1205.9652,S,07701.4565,W,0.00,26.80,210526,,,A*5B,1
1779393188206,$GPGGA,195308.000,1205.9651,S,07701.4564,W,1,08,0.9,140.9,M,8.4,M,,0000*6B,1
1779393188332,$GPGSA,M,3,24,15,12,20,29,25,11,06,,,,,2.2,0.9,2.0*3C,1
1779393188495,$GPRMC,195308.000,A,1205.9651,S,07701.4564,W,1.47,25.80,210526,,,A*57,1
1779393189207,$GPGGA,195309.000,1205.9644,S,07701.4561,W,1,08,0.9,140.8,M,8.4,M,,0000*6A,1
1779393189333,$GPGSA,M,3,24,15,12,20,29,25,11,06,,,,,2.2,0.9,2.0*3C,1
1779393189495,$GPRMC,195309.000,A,1205.9644,S,07701.4561,W,3.59,22.58,210526,,,A*58,1
1779393190205,$GPGGA,195310.000,1205.9631,S,07701.4556,W,1,08,0.9,140.8,M,8.4,M,,0000*64,1
1779393190331,$GPGSA,M,3,24,15,12,20,29,25,11,06,,,,,2.2,0.9,2.0*3C,1
1779393190494,$GPRMC,195310.000,A,1205.9631,S,07701.4556,W,6.30,20.32,210526,,,A*52,1
1779393191206,$GPGGA,195311.000,1205.9611,S,07701.4548,W,1,08,0.9,140.8,M,8.4,M,,0000*68,1
1779393191332,$GPGSA,M,3,24,15,12,20,29,25,11,06,,,,,2.2,0.9,2.0*3C,1
1779393191494,$GPRMC,195311.000,A,1205.9611,S,07701.4548,W,8.52,21.20,210526,,,A*56,1
1779393192206,$GPGGA,195312.000,1205.9587,S,07701.4539,W,1,08,0.9,140.8,M,8.4,M,,0000*61,1
1779393192332,$GPGSA,M,3,24,15,12,20,29,25,11,06,,,,,2.2,0.9,2.0*3C,1
1779393192492,$GPGSV,3,1,12,24,56,157,43,15,52,346,44,12,42,200,44,20,33,017,41*7D,1
1779393192653,$GPGSV,3,2,12,29,32,327,40,25,29,245,42,11,24,074,26,06,09,111,21*76,1
1779393192809,$GPGSV,3,3,12,05,04,015,18,13,24,029,43,44,42,284,42,14,38,224,*7A,1
1779393192971,$GPRMC,195312.000,A,1205.9587,S,07701.4539,W,9.64,22.66,210526,,,A*5A,1
1779393193209,$GPGGA,195313.000,1205.9561,S,07701.4528,W,1,08,0.9,140.9,M,8.4,M,,0000*69,1
1779393193335,$GPGSA,M,3,24,15,12,20,29,25,11,06,,,,,2.2,0.9,2.0*3C,1
1779393193498,$GPRMC,195313.000,A,1205.9561,S,07701.4528,W,9.51,23.79,210526,,,A*5A,1
1779393194208,$GPGGA,195314.000,1205.9535,S,07701.4517,W,1,08,0.9,141.0,M,8.4,M,,0000*6B,1
1779393194334,$GPGSA,M,3,24,15,12,20,29,25,11,06,,,,,2.2,0.9,2.0*3C,1
1779393194499,$GPRMC,195314.000,A,1205.9535,S,07701.4517,W,10.57,24.43,210526,,,A*60,1
1779393195211,$GPGGA,195315.000,1205.9505,S,07701.4503,W,1,08,0.9,140.9,M,8.4,M,,0000*64,1
1779393195337,$GPGSA,M,3,24,15,12,20,29,25,11,06,,,,,2.2,0.9,2.0*3C,1
1779393195502,$GPRMC,195315.000,A,1205.9505,S,07701.4503,W,12.33,25.16,210526,,,A*66,1
1779393196206,$GPGGA,195316.000,1205.9472,S,07701.4488,W,1,08,0.9,141.1,M,8.4,M,,0000*6D,1
1779393196332,$GPGSA,M,3,24,15,12,20,29,25,11,06,,,,,2.2,0.9,2.0*3C,1
1779393196497,$GPRMC,195316.000,A,1205.9472,S,07701.4488,W,13.16,24.66,210526,,,A*66,1
1779393197211,$GPGGA,195317.000,1205.9437,S,07701.4472,W,1,08,0.9,141.2,M,8.4,M,,0000*6B,1
1779393197337,$GPGSA,M,3,24,15,12,20,29,25,11,06,,,,,2.2,0.9,2.0*3C,1
1779393197497,$GPGSV,3,1,12,24,56,157,43,15,52,346,45,12,42,200,44,20,33,017,41*7C,1
1779393197658,$GPGSV,3,2,12,29,32,327,41,25,29,245,42,11,24,074,40,06,09,111,20*76,1
1779393197814,$GPGSV,3,3,12,05,04,015,19,13,24,029,43,44,42,284,41,14,38,224,*78,1
1779393197979,$GPRMC,195317.000,A,1205.9437,S,07701.4472,W,13.65,24.54,210526,,,A*66,1
1779393198211,$GPGGA,195318.000,1205.9402,S,07701.4456,W,1,08,0.9,141.4,M,8.4,M,,0000*62,1
1779393198337,$GPGSA,M,3,24,15,12,20,29,25,11,06,,,,,2.2,0.9,2.0*3C,1
1779393198502,$GPRMC,195318.000,A,1205.9402,S,07701.4456,W,13.95,24.70,210526,,,A*60,1
1779393199208,$GPGGA,195319.000,1205.9366,S,07701.4439,W,1,08,0.9,141.4,M,8.4,M,,0000*6F,1
1779393199334,$GPGSA,M,3,24,15,12,20,29,25,11,06,,,,,2.2,0.9,2.0*3C,1
1779393199499,$GPRMC,195319.000,A,1205.9366,S,07701.4439,W,14.25,24.70,210526,,,A*61,1
1779393200202,$GPGGA,195320.000,1205.9329,S,07701.4422,W,1,08,0.9,141.5,M,8.4,M,,0000*65,1
1779393200328,$GPGSA,M,3,24,15,12,20,29,25,11,06,,,,,2.2,0.9,2.0*3C,1
1779393200493,$GPRMC,195320.000,A,1205.9329,S,07701.4422,W,14.86,24.46,210526,,,A*66,1
1779393201208,$GPGGA,195321.000,1205.9290,S,07701.4404,W,1,07,1.0,141.6,M,8.4,M,,0000*67,1
1779393201329,$GPGSA,M,3,24,15,12,20,29,25,11,,,,,,2.9,1.0,2.8*31,1
1779393201494,$GPRMC,195321.000,A,1205.9290,S,07701.4404,W,15.44,25.14,210526,,,A*69,1
1779393202211,$GPGGA,195322.000,1205.9250,S,07701.4385,W,1,08,0.9,141.9,M,8.4,M,,0000*6E,1
1779393202337,$GPGSA,M,3,24,15,12,20,29,25,11,06,,,,,2.2,0.9,2.0*3C,1
1779393202497,$GPGSV,3,1,12,24,56,157,43,15,52,346,43,12,42,200,44,20,33,017,41*7A,1
1779393202657,$GPGSV,3,2,12,29,32,327,40,25,29,245,41,11,24,074,28,06,09,111,10*79,1
1779393202813,$GPGSV,3,3,12,05,04,015,25,13,24,029,43,44,42,284,40,14,38,224,*76,1
1779393202978,$GPRMC,195322.000,A,1205.9250,S,07701.4385,W,15.83,25.12,210526,,,A*65,1
1779393203202,$GPGGA,195323.000,1205.9209,S,07701.4365,W,1,07,1.0,141.9,M,8.4,M,,0000*6A,1
1779393203323,$GPGSA,M,3,24,15,12,20,29,25,11,,,,,,2.9,1.0,2.8*31,1
1779393203488,$GPRMC,195323.000,A,1205.9209,S,07701.4365,W,16.25,25.01,210526,,,A*6B,1
1779393204205,$GPGGA,195324.000,1205.9167,S,07701.4346,W,1,08,0.9,141.9,M,8.4,M,,0000*60,1
1779393204331,$GPGSA,M,3,24,15,12,20,29,25,11,06,,,,,2.2,0.9,2.0*3C,1
1779393204496,$GPRMC,195324.000,A,1205.9167,S,07701.4346,W,16.50,23.59,210526,,,A*6F,1
1779393205205,$GPGGA,195325.000,1205.9125,S,07701.4326,W,1,08,0.9,142.0,M,8.4,M,,0000*6B,1
1779393205331,$GPGSA,M,3,24,15,12,20,29,25,11,06,,,,,2.2,0.9,2.0*3C,1
1779393205496,$GPRMC,195325.000,A,1205.9125,S,07701.4326,W,16.88,24.66,210526,,,A*60,1
1779393206211,$GPGGA,195326.000,1205.9081,S,07701.4306,W,1,08,0.9,142.1,M,8.4,M,,0000*64,1
1779393206337,$GPGSA,M,3,24,15,12,20,29,25,11,06,,,,,2.2,0.9,2.0*3C,1
1779393206502,$GPRMC,195326.000,A,1205.9081,S,07701.4306,W,17.19,24.82,210526,,,A*6D,1
1779393207204,$GPGGA,195327.000,1205.9037,S,07701.4286,W,1,08,0.9,142.3,M,8.4,M,,0000*63,1
1779393207330,$GPGSA,M,3,24,15,12,20,29,25,11,06,,,,,2.2,0.9,2.0*3C,1
1779393207490,$GPGSV,3,1,12,24,56,157,43,15,52,346,43,12,42,200,44,20,33,017,41*7A,1
1779393207651,$GPGSV,3,2,12,29,32,327,36,25,29,245,39,11,24,074,37,06,09,111,18*71,1
1779393207807,$GPGSV,3,3,12,05,04,015,18,13,24,029,43,44,42,284,38,14,38,224,*77,1
1779393207972,$GPRMC,195327.000,A,1205.9037,S,07701.4286,W,17.27,24.81,210526,,,A*66,1
1779393208205,$GPGGA,195328.000,1205.8994,S,07701.4266,W,1,08,0.9,142.4,M,8.4,M,,0000*64,1
1779393208331,$GPGSA,M,3,24,15,12,20,29,25,11,06,,,,,2.2,0.9,2.0*3C,1
1779393208496,$GPRMC,195328.000,A,1205.8994,S,07701.4266,W,16.76,24.91,210526,,,A*62,1
1779393209212,$GPGGA,195329.000,1205.8953,S,07701.4247,W,1,08,0.9,142.6,M,8.4,M,,0000*6F,1
1779393209338,$GPGSA,M,3,24,15,12,20,29,25,11,06,,,,,2.2,0.9,2.0*3C,1
1779393209503,$GPRMC,195329.000,A,1205.8953,S,07701.4247,W,15.93,24.80,210526,,,A*63,1
1779393210208,$GPGGA,195330.000,1205.8913,S,07701.4228,W,1,08,0.9,142.8,M,8.4,M,,0000*64,1
1779393210334,$GPGSA,M,3,24,15,12,20,29,25,11,06,,,,,2.2,0.9,2.0*3C,1
1779393210499,$GPRMC,195330.000,A,1205.8913,S,07701.4228,W,15.45,24.84,210526,,,A*69,1
1779393211206,$GPGGA,195331.000,1205.8875,S,07701.4211,W,1,08,0.9,142.9,M,8.4,M,,0000*6F,1
1779393211332,$GPGSA,M,3,24,15,12,20,29,25,11,06,,,,,2.2,0.9,2.0*3C,1
1779393211497,$GPRMC,195331.000,A,1205.8875,S,07701.4211,W,14.38,23.83,210526,,,A*68,1
1779393212210,$GPGGA,195332.000,1205.8839,S,07701.4196,W,1,08,0.9,143.0,M,8.4,M,,0000*60,1
1779393212336,$GPGSA,M,3,24,15,12,29,20,25,11,06,,,,,2.2,0.9,2.0*3C,1
1779393212496,$GPGSV,3,1,12,24,57,155,43,15,50,347,44,12,41,198,44,29,34,326,39*7C,1
1779393212656,$GPGSV,3,2,12,20,31,017,41,25,29,243,38,11,25,076,26,06,09,112,18*7C,1
1779393212812,$GPGSV,3,3,12,05,04,016,17,13,22,029,43,44,42,284,42,14,39,225,*70,1
1779393212977,$GPRMC,195332.000,A,1205.8839,S,07701.4196,W,13.72,24.15,210526,,,A*6E,1
1779393213209,$GPGGA,195333.000,1205.8805,S,07701.4181,W,1,08,0.9,143.3,M,8.4,M,,0000*6B,1
1779393213335,$GPGSA,M,3,24,15,12,29,20,25,11,06,,,,,2.2,0.9,2.0*3C,1
1779393213500,$GPRMC,195333.000,A,1205.8805,S,07701.4181,W,13.06,24.47,210526,,,A*62,1
1779393214204,$GPGGA,195334.000,1205.8774,S,07701.4166,W,1,08,0.9,143.5,M,8.4,M,,0000*6A,1
1779393214330,$GPGSA,M,3,24,15,12,29,20,25,11,06,,,,,2.2,0.9,2.0*3C,1
1779393214495,$GPRMC,195334.000,A,1205.8774,S,07701.4166,W,11.28,25.23,210526,,,A*68,1
1779393215210,$GPGGA,195335.000,1205.8749,S,07701.4155,W,1,08,0.9,143.5,M,8.4,M,,0000*65,1
1779393215336,$GPGSA,M,3,24,15,12,29,20,25,11,06,,,,,2.2,0.9,2.0*3C,1
1779393215498,$GPRMC,195335.000,A,1205.8749,S,07701.4155,W,8.97,24.44,210526,,,A*5B,1
1779393216209,$GPGGA,195336.000,1205.8729,S,07701.4147,W,1,08,0.9,143.6,M,8.4,M,,0000*60,1
1779393216335,$GPGSA,M,3,24,15,12,29,20,25,11,06,,,,,2.2,0.9,2.0*3C,1
1779393216498,$GPRMC,195336.000,A,1205.8729,S,07701.4147,W,6.99,19.04,210526,,,A*57,1
1779393217212,$GPGGA,195337.000,1205.8712,S,07701.4144,W,1,08,0.9,143.6,M,8.4,M,,0000*6A,1
1779393217338,$GPGSA,M,3,24,15,12,29,20,25,11,06,,,,,2.2,0.9,2.0*3C,1
1779393217499,$GPGSV,3,1,12,24,57,155,42,15,50,347,44,12,41,198,44,29,34,326,41*72,1
1779393217659,$GPGSV,3,2,12,20,31,017,42,25,29,243,42,11,25,076,20,06,09,112,18*74,1
1779393217820,$GPGSV,3,3,12,05,04,016,18,13,22,029,44,19,05,143,13,44,42,284,42*7B,1
1779393217980,$GPRMC,195337.000,A,1205.8712,S,07701.4144,W,6.09,5.57,210526,,,A*6F,1
1779393218214,$GPGGA,195338.000,1205.8696,S,07701.4146,W,1,09,0.9,143.8,M,8.4,M,,0000*65,1
1779393218345,$GPGSA,M,3,24,15,12,29,20,25,11,06,19,,,,2.0,0.9,1.7*32,1
1779393218510,$GPRMC,195338.000,A,1205.8696,S,07701.4146,W,6.00,346.54,210526,,,A*61,1
1779393219214,$GPGGA,195339.000,1205.8681,S,07701.4157,W,1,09,0.9,143.8,M,8.4,M,,0000*62,1
1779393219345,$GPGSA,M,3,24,15,12,29,20,25,11,06,19,,,,2.0,0.9,1.7*32,1
1779393219510,$GPRMC,195339.000,A,1205.8681,S,07701.4157,W,6.88,318.20,210526,,,A*6E,1
1779393220208,$GPGGA,195340.000,1205.8671,S,07701.4176,W,1,09,0.9,143.8,M,8.4,M,,0000*60,1
1779393220339,$GPGSA,M,3,24,15,12,29,20,25,11,06,19,,,,2.0,0.9,1.7*32,1
1779393220504,$GPRMC,195340.000,A,1205.8671,S,07701.4176,W,8.80,292.50,210526,,,A*6E,1
1779393221206,$GPGGA,195341.000,1205.8664,S,07701.4204,W,1,08,0.9,143.8,M,8.4,M,,0000*62,1
1779393221332,$GPGSA,M,3,24,15,12,29,20,25,11,19,,,,,2.0,0.9,1.8*3B,1
1779393221499,$GPRMC,195341.000,A,1205.8664,S,07701.4204,W,10.73,281.77,210526,,,A*5F,1
1779393222216,$GPGGA,195342.000,1205.8660,S,07701.4236,W,1,09,0.9,143.5,M,8.4,M,,0000*68,1
1779393222346,$GPGSA,M,3,24,15,12,29,20,25,11,06,19,,,,2.0,0.9,1.7*32,1
1779393222507,$GPGSV,3,1,12,24,57,155,43,15,50,347,44,12,41,198,44,29,34,326,42*70,1
1779393222667,$GPGSV,3,2,12,20,31,017,38,25,29,243,36,11,25,076,21,06,09,112,23*73,1
1779393222827,$GPGSV,3,3,12,19,05,143,20,05,04,016,04,13,22,029,41,44,42,284,44*75,1
1779393222995,$GPRMC,195342.000,A,1205.8660,S,07701.4236,W,11.93,278.25,210526,,,A*57,1
1779393223215,$GPGGA,195343.000,1205.8656,S,07701.4272,W,1,09,0.9,143.3,M,8.4,M,,0000*6A,1
1779393223346,$GPGSA,M,3,24,15,12,29,20,25,11,06,19,,,,2.0,0.9,1.7*32,1
1779393223513,$GPRMC,195343.000,A,1205.8656,S,07701.4272,W,12.77,275.22,210526,,,A*50,1
1779393224213,$GPGGA,195344.000,1205.8653,S,07701.4310,W,1,09,0.9,144.0,M,8.4,M,,0000*69,1
1779393224344,$GPGSA,M,3,24,15,12,29,20,25,11,06,19,,,,2.0,0.9,1.7*32,1
1779393224511,$GPRMC,195344.000,A,1205.8653,S,07701.4310,W,13.16,276.02,210526,,,A*50,1
1779393225211,$GPGGA,195345.000,1205.8648,S,07701.4349,W,1,09,0.9,144.6,M,8.4,M,,0000*68,1
1779393225342,$GPGSA,M,3,24,15,12,29,20,25,11,06,19,,,,2.0,0.9,1.7*32,1
1779393225509,$GPRMC,195345.000,A,1205.8648,S,07701.4349,W,13.65,277.69,210526,,,A*5F,1
1779393226212,$GPGGA,195346.000,1205.8643,S,07701.4389,W,1,09,0.9,144.5,M,8.4,M,,0000*6F,1
1779393226343,$GPGSA,M,3,24,15,12,29,20,25,11,06,19,,,,2.0,0.9,1.7*32,1
1779393226510,$GPRMC,195346.000,A,1205.8643,S,07701.4389,W,14.12,278.53,210526,,,A*5A,1
1779393227213,$GPGGA,195347.000,1205.8638,S,07701.4428,W,1,09,0.9,144.5,M,8.4,M,,0000*6E,1
1779393227343,$GPGSA,M,3,24,15,12,29,20,25,11,06,19,,,,2.0,0.9,1.7*32,1
1779393227504,$GPGSV,3,1,12,24,57,155,44,15,50,347,37,12,41,198,40,29,34,326,36*74,1
1779393227664,$GPGSV,3,2,12,20,31,017,27,25,29,243,33,11,25,076,35,06,09,112,24*7A,1
1779393227824,$GPGSV,3,3,12,19,05,143,21,05,04,016,04,13,22,029,41,44,42,284,45*75,1
1779393227992,$GPRMC,195347.000,A,1205.8638,S,07701.4428,W,13.62,278.82,210526,,,A*57,1
1779393228206,$GPGGA,195348.000,1205.8633,S,07701.4463,W,1,09,0.9,144.6,M,8.4,M,,0000*66,1
1779393228337,$GPGSA,M,3,24,15,12,29,20,25,11,06,19,,,,2.0,0.9,1.7*32,1
1779393228504,$GPRMC,195348.000,A,1205.8633,S,07701.4463,W,11.65,278.67,210526,,,A*52,1
1779393229213,$GPGGA,195349.000,1205.8629,S,07701.4493,W,1,09,0.9,144.7,M,8.4,M,,0000*62,1
1779393229343,$GPGSA,M,3,24,15,12,29,20,25,11,06,19,,,,2.0,0.9,1.7*32,1
1779393229508,$GPRMC,195349.000,A,1205.8629,S,07701.4493,W,9.97,277.10,210526,,,A*6C,1
1779393230212,$GPGGA,195350.000,1205.8627,S,07701.4517,W,1,09,0.9,144.2,M,8.4,M,,0000*6C,1
1779393230343,$GPGSA,M,3,24,15,12,29,20,25,11,06,19,,,,2.0,0.9,1.7*32,1
1779393230508,$GPRMC,195350.000,A,1205.8627,S,07701.4517,W,7.84,275.92,210526,,,A*63,1
1779393231213,$GPGGA,195351.000,1205.8627,S,07701.4537,W,1,09,0.9,144.2,M,8.4,M,,0000*6F,1
1779393231344,$GPGSA,M,3,24,15,12,29,20,25,11,06,19,,,,2.0,0.9,1.7*32,1
1779393231509,$GPRMC,195351.000,A,1205.8627,S,07701.4537,W,6.12,269.71,210526,,,A*6E,1
1779393232208,$GPGGA,195352.000,1205.8631,S,07701.4555,W,1,09,0.9,145.1,M,8.4,M,,0000*6D,1
1779393232338,$GPGSA,M,3,24,15,12,29,20,25,11,06,19,,,,2.0,0.9,1.7*32,1
1779393232499,$GPGSV,3,1,12,24,57,155,44,15,50,347,42,12,41,198,43,29,34,326,29*7B,1
1779393232659,$GPGSV,3,2,12,20,31,017,39,25,29,243,19,11,25,076,28,06,09,112,38*7C,1
1779393232819,$GPGSV,3,3,12,19,05,143,22,05,04,016,10,13,22,029,43,44,42,284,25*77,1
1779393232984,$GPRMC,195352.000,A,1205.8631,S,07701.4555,W,5.72,252.14,210526,,,A*60,1
1779393233209,$GPGGA,195353.000,1205.8642,S,07701.4570,W,1,09,0.9,145.4,M,8.4,M,,0000*6A,1
1779393233340,$GPGSA,M,3,24,15,12,29,20,25,11,06,19,,,,2.0,0.9,1.7*32,1
1779393233505,$GPRMC,195353.000,A,1205.8642,S,07701.4570,W,6.82,231.96,210526,,,A*61,1
1779393234208,$GPGGA,195354.000,1205.8659,S,07701.4584,W,1,09,0.9,145.8,M,8.4,M,,0000*60,1
1779393234338,$GPGSA,M,3,24,15,12,29,20,25,11,06,19,,,,2.0,0.9,1.7*32,1
1779393234503,$GPRMC,195354.000,A,1205.8659,S,07701.4584,W,8.31,214.49,210526,,,A*64,1
1779393235209,$GPGGA,195355.000,1205.8683,S,07701.4596,W,1,09,0.9,146.1,M,8.4,M,,0000*6F,1
1779393235340,$GPGSA,M,3,24,15,12,29,20,25,11,06,19,,,,2.0,0.9,1.7*32,1
1779393235505,$GPRMC,195355.000,A,1205.8683,S,07701.4596,W,9.70,204.64,210526,,,A*6B,1
1779393236207,$GPGGA,195356.000,1205.8710,S,07701.4609,W,1,09,0.9,146.4,M,8.4,M,,0000*67,1
1779393236337,$GPGSA,M,3,24,15,12,29,20,25,11,06,19,,,,2.0,0.9,1.7*32,1
1779393236505,$GPRMC,195356.000,A,1205.8710,S,07701.4609,W,10.49,202.97,210526,,,A*5E,1
1779393237207,$GPGGA,195357.000,1205.8739,S,07701.4621,W,1,09,0.9,146.4,M,8.4,M,,0000*67,1
1779393237338,$GPGSA,M,3,24,15,12,29,20,25,11,06,19,,,,2.0,0.9,1.7*32,1
1779393237498,$GPGSV,3,1,12,24,57,155,44,15,50,347,41,12,41,198,44,29,34,326,26*70,1
1779393237658,$GPGSV,3,2,12,20,31,017,40,25,29,243,21,11,25,076,29,06,09,112,28*79,1
1779393237814,$GPGSV,3,3,12,19,05,143,23,05,04,016,04,13,22,029,44,44,42,284,*73,1
1779393237982,$GPRMC,195357.000,A,1205.8739,S,07701.4621,W,10.98,204.08,210526,,,A*52,1
1779393238206,$GPGGA,195358.000,1205.8768,S,07701.4634,W,1,09,0.9,146.4,M,8.4,M,,0000*68,1
1779393238337,$GPGSA,M,3,24,15,12,29,20,25,11,06,19,,,,2.0,0.9,1.7*32,1
1779393238504,$GPRMC,195358.000,A,1205.8768,S,07701.4634,W,11.28,205.35,210526,,,A*58,1
1779393239206,$GPGGA,195359.000,1205.8798,S,07701.4647,W,1,09,0.9,146.5,M,8.4,M,,0000*63,1
1779393239337,$GPGSA,M,3,24,15,12,29,20,25,11,06,19,,,,2.0,0.9,1.7*32,1
1779393239504,$GPRMC,195359.000,A,1205.8798,S,07701.4647,W,11.63,206.29,210526,,,A*53,1
1779393240207,$GPGGA,195400.000,1205.8827,S,07701.4660,W,1,09,0.9,146.7,M,8.4,M,,0000*64,1
1779393240337,$GPGSA,M,3,24,15,12,29,20,25,11,06,19,,,,2.0,0.9,1.7*32,1
1779393240504,$GPRMC,195400.000,A,1205.8827,S,07701.4660,W,10.84,206.93,210526,,,A*5F,1
1779393241207,$GPGGA,195401.000,1205.8852,S,07701.4675,W,1,09,0.9,146.6,M,8.4,M,,0000*62,1
1779393241337,$GPGSA,M,3,24,15,12,29,20,25,11,06,19,,,,2.0,0.9,1.7*32,1
1779393241502,$GPRMC,195401.000,A,1205.8852,S,07701.4675,W,8.80,213.95,210526,,,A*67,1
1779393242207,$GPGGA,195402.000,1205.8873,S,07701.4690,W,1,09,0.9,146.4,M,8.4,M,,0000*6B,1
1779393242338,$GPGSA,M,3,24,15,12,29,20,25,11,06,19,,,,2.0,0.9,1.7*32,1
1779393242498,$GPGSV,3,1,12,24,57,155,43,15,50,347,42,12,41,198,44,29,34,326,28*7A,1
1779393242659,$GPGSV,3,2,12,20,31,017,40,25,29,243,34,11,25,076,31,06,09,112,23*7F,1
1779393242819,$GPGSV,3,3,12,19,05,143,22,05,04,016,27,13,22,029,43,44,42,284,36*71,1
1779393242984,$GPRMC,195402.000,A,1205.8873,S,07701.4690,W,9.52,213.86,210526,,,A*60,1
1779393243207,$GPGGA,195403.000,1205.8899,S,07701.4705,W,1,09,0.9,146.2,M,8.4,M,,0000*65,1
1779393243338,$GPGSA,M,3,24,15,12,29,20,25,11,06,19,,,,2.0,0.9,1.7*32,1
1779393243505,$GPRMC,195403.000,A,1205.8899,S,07701.4705,W,11.25,209.89,210526,,,A*55,1
1779393244206,$GPGGA,195404.000,1205.8928,S,07701.4720,W,1,09,0.9,146.5,M,8.4,M,,0000*69,1
1779393244336,$GPGSA,M,3,24,15,12,29,20,25,11,06,19,,,,2.0,0.9,1.7*32,1
1779393244504,$GPRMC,195404.000,A,1205.8928,S,07701.4720,W,12.00,208.94,210526,,,A*57,1
1779393245203,$GPGGA,195405.000,1205.8957,S,07701.4737,W,1,08,0.9,146.6,M,8.4,M,,0000*64,1
1779393245329,$GPGSA,M,3,24,15,12,29,20,25,11,19,,,,,2.0,0.9,1.8*3B,1
1779393245496,$GPRMC,195405.000,A,1205.8957,S,07701.4737,W,11.55,207.43,210526,,,A*5E,1
1779393246208,$GPGGA,195406.000,1205.8986,S,07701.4752,W,1,08,0.9,146.7,M,8.4,M,,0000*69,1
1779393246334,$GPGSA,M,3,24,15,12,29,20,25,11,19,,,,,2.0,0.9,1.8*3B,1
1779393246501,$GPRMC,195406.000,A,1205.8986,S,07701.4752,W,11.20,206.81,210526,,,A*5F,1
1779393247210,$GPGGA,195407.000,1205.9015,S,07701.4766,W,1,08,0.9,146.6,M,8.4,M,,0000*6C,1
1779393247336,$GPGSA,M,3,24,15,12,29,20,25,11,19,,,,,2.0,0.9,1.8*3B,1
1779393247496,$GPGSV,3,1,12,24,57,155,44,15,50,347,31,12,41,198,44,29,34,326,17*75,1
1779393247657,$GPGSV,3,2,12,20,31,017,41,25,29,243,35,11,25,076,30,19,05,143,22*79,1
1779393247817,$GPGSV,3,3,12,05,04,016,04,06,09,112,22,13,22,029,43,44,42,284,31*71,1
1779393247985,$GPRMC,195407.000,A,1205.9015,S,07701.4766,W,11.38,205.93,210526,,,A*52,1
1779393248206,$GPGGA,195408.000,1205.9045,S,07701.4776,W,1,09,0.9,146.9,M,8.4,M,,0000*69,1
1779393248337,$GPGSA,M,3,24,15,12,29,20,25,11,06,19,,,,2.0,0.9,1.7*32,1
1779393248504,$GPRMC,195408.000,A,1205.9045,S,07701.4776,W,11.63,204.44,210526,,,A*5C,1
1779393249203,$GPGGA,195409.000,1205.9076,S,07701.4790,W,1,08,0.9,146.8,M,8.4,M,,0000*60,1
1779393249329,$GPGSA,M,3,24,15,12,29,20,25,11,06,,,,,2.2,0.9,2.0*3C,1
1779393249497,$GPRMC,195409.000,A,1205.9076,S,07701.4790,W,12.02,204.64,210526,,,A*53,1
1779393250204,$GPGGA,195410.000,1205.9107,S,07701.4806,W,1,08,0.9,146.7,M,8.4,M,,0000*60,1
1779393250330,$GPGSA,M,3,24,15,12,29,20,25,11,06,,,,,2.2,0.9,2.0*3C,1
1779393250497,$GPRMC,195410.000,A,1205.9107,S,07701.4806,W,12.48,204.74,210526,,,A*53,1
1779393251203,$GPGGA,195411.000,1205.9140,S,07701.4822,W,1,08,0.9,146.5,M,8.4,M,,0000*66,1
1779393251329,$GPGSA,M,3,24,15,12,29,20,25,11,06,,,,,2.2,0.9,2.0*3C,1
1779393251496,$GPRMC,195411.000,A,1205.9140,S,07701.4822,W,13.07,204.27,210526,,,A*5B,1
1779393252203,$GPGGA,195412.000,1205.9173,S,07701.4846,W,1,08,0.9,148.0,M,8.4,M,,0000*6C,1
1779393252329,$GPGSA,M,3,24,15,12,29,20,25,11,06,,,,,2.2,0.9,2.0*3C,1
1779393252489,$GPGSV,3,1,12,24,57,155,43,15,50,347,33,12,41,198,44,29,34,326,32*77,1
1779393252649,$GPGSV,3,2,12,20,31,017,40,25,29,243,39,11,25,076,41,06,09,112,23*75,1
1779393252801,$GPGSV,3,3,12,13,22,029,44,44,42,284,40,14,39,225,,09,19,223,*77,1
1779393252968,$GPRMC,195412.000,A,1205.9173,S,07701.4846,W,13.70,205.44,210526,,,A*5E,1
1779393253202,$GPGGA,195413.000,1205.9211,S,07701.4860,W,1,08,0.9,146.8,M,8.4,M,,0000*68,1
1779393253328,$GPGSA,M,3,24,15,12,29,20,25,11,06,,,,,2.2,0.9,2.0*3C,1
1779393253495,$GPRMC,195413.000,A,1205.9211,S,07701.4860,W,14.18,205.08,210526,,,A*5D,1
1779393254201,$GPGGA,195414.000,1205.9249,S,07701.4875,W,1,07,1.0,146.0,M,8.4,M,,0000*69,1
1779393254322,$GPGSA,M,3,24,15,12,29,20,25,11,,,,,,3.0,1.0,2.8*39,1
1779393254490,$GPRMC,195414.000,A,1205.9249,S,07701.4875,W,13.98,205.96,210526,,,A*5B,1
1779393255199,$GPGGA,195415.000,1205.9284,S,07701.4891,W,1,07,1.0,145.7,M,8.4,M,,0000*67,1
1779393255320,$GPGSA,M,3,24,15,12,29,20,25,11,,,,,,3.0,1.0,2.8*39,1
1779393255488,$GPRMC,195415.000,A,1205.9284,S,07701.4891,W,13.73,206.33,210526,,,A*58,1
1779393256201,$GPGGA,195416.000,1205.9320,S,07701.4907,W,1,07,1.0,145.7,M,8.4,M,,0000*65,1
1779393256323,$GPGSA,M,3,24,15,12,29,20,25,11,,,,,,3.0,1.0,2.8*39,1
1779393256490,$GPRMC,195416.000,A,1205.9320,S,07701.4907,W,13.94,205.39,210526,,,A*5A,1
1779393257201,$GPGGA,195417.000,1205.9356,S,07701.4923,W,1,07,1.0,145.3,M,8.4,M,,0000*67,1
1779393257322,$GPGSA,M,3,24,15,12,29,20,25,11,,,,,,3.0,1.0,2.8*39,1
1779393257482,$GPGSV,3,1,12,24,57,155,43,15,50,347,38,12,41,198,43,29,34,326,38*71,1
1779393257643,$GPGSV,3,2,12,20,31,017,34,25,29,243,36,11,25,076,25,06,09,112,25*7D,1
1779393257794,$GPGSV,3,3,12,13,22,029,42,44,42,284,34,14,39,225,,09,19,223,*72,1
1779393257961,$GPRMC,195417.000,A,1205.9356,S,07701.4923,W,13.59,204.51,210526,,,A*52,1
1779393258205,$GPGGA,195418.000,1205.9390,S,07701.4938,W,1,07,1.0,144.7,M,8.4,M,,0000*6D,1
1779393258327,$GPGSA,M,3,24,15,12,29,20,25,11,,,,,,3.0,1.0,2.8*39,1
1779393258494,$GPRMC,195418.000,A,1205.9390,S,07701.4938,W,12.98,205.25,210526,,,A*53,1
1779393259202,$GPGGA,195419.000,1205.9423,S,07701.4952,W,1,07,1.0,144.4,M,8.4,M,,0000*6C,1
1779393259323,$GPGSA,M,3,24,15,12,29,20,25,11,,,,,,3.0,1.0,2.8*39,1
1779393259491,$GPRMC,195419.000,A,1205.9423,S,07701.4952,W,12.40,204.10,210526,,,A*53,1
1779393260203,$GPGGA,195420.000,1205.9454,S,07701.4965,W,1,07,1.0,144.0,M,8.4,M,,0000*66,1
1779393260324,$GPGSA,M,3,24,15,12,29,20,25,11,,,,,,3.0,1.0,2.8*39,1
1779393260492,$GPRMC,195420.000,A,1205.9454,S,07701.4965,W,11.90,202.73,210526,,,A*50,1
1779393261199,$GPGGA,195421.000,1205.9484,S,07701.4977,W,1,06,1.2,143.9,M,8.4,M,,0000*64,1
1779393261316,$GPGSA,M,3,24,15,12,20,25,11,,,,,,,3.0,1.2,2.8*30,1
1779393261483,$GPRMC,195421.000,A,1205.9484,S,07701.4977,W,11.33,202.08,210526,,,A*5A,1
1779393262201,$GPGGA,195422.000,1205.9513,S,07701.4988,W,1,07,1.0,143.8,M,8.4,M,,0000*6A,1
1779393262322,$GPGSA,M,3,24,15,12,29,20,25,11,,,,,,3.0,1.0,2.8*39,1
1779393262482,$GPGSV,3,1,12,24,57,155,36,15,50,347,33,12,41,198,37,29,34,326,29*7B,1
1779393262643,$GPGSV,3,2,12,20,31,017,30,25,29,243,32,11,25,076,36,06,09,112,21*7B,1
1779393262794,$GPGSV,3,3,12,13,22,029,35,48,33,280,32,14,39,225,,09,19,223,*7A,1
1779393262961,$GPRMC,195422.000,A,1205.9513,S,07701.4988,W,10.96,200.70,210526,,,A*55,1
1779393263202,$GPGGA,195423.000,1205.9541,S,07701.4999,W,1,07,1.0,143.8,M,8.4,M,,0000*6C,1
1779393263323,$GPGSA,M,3,24,15,12,29,20,25,11,,,,,,3.0,1.0,2.8*39,1
1779393263490,$GPRMC,195423.000,A,1205.9541,S,07701.4999,W,10.42,200.97,210526,,,A*53,1
1779393264201,$GPGGA,195424.000,1205.9566,S,07701.5009,W,1,07,1.0,143.9,M,8.4,M,,0000*6E,1
1779393264322,$GPGSA,M,3,24,15,12,29,20,25,11,,,,,,3.0,1.0,2.8*39,1
1779393264487,$GPRMC,195424.000,A,1205.9566,S,07701.5009,W,8.89,200.87,210526,,,A*6F,1
1779393265202,$GPGGA,195425.000,1205.9585,S,07701.5016,W,1,07,1.0,144.0,M,8.4,M,,0000*62,1
1779393265323,$GPGSA,M,3,24,15,12,29,20,25,11,,,,,,3.0,1.0,2.8*39,1
1779393265488,$GPRMC,195425.000,A,1205.9585,S,07701.5016,W,6.15,201.26,210526,,,A*6C,1
1779393266200,$GPGGA,195426.000,1205.9599,S,07701.5021,W,1,07,1.0,144.1,M,8.4,M,,0000*69,1
1779393266321,$GPGSA,M,3,24,15,12,29,20,25,11,,,,,,3.0,1.0,2.8*39,1
1779393266486,$GPRMC,195426.000,A,1205.9599,S,07701.5021,W,4.20,202.07,210526,,,A*62,1
1779393267201,$GPGGA,195427.000,1205.9610,S,07701.5026,W,1,07,1.0,144.2,M,8.4,M,,0000*6E,1
1779393267322,$GPGSA,M,3,24,15,12,29,20,25,11,,,,,,3.0,1.0,2.8*39,1
1779393267482,$GPGSV,3,1,12,24,57,155,38,15,50,347,38,12,41,198,39,29,34,326,32*7A,1
1779393267643,$GPGSV,3,2,12,20,31,017,34,25,29,243,32,11,25,076,18,13,22,029,38*7F,1
1779393267790,$GPGSV,3,3,12,48,33,280,35,14,39,225,,09,19,223,,06,09,112,*7F,1
1779393267955,$GPRMC,195427.000,A,1205.9610,S,07701.5026,W,4.44,201.74,210526,,,A*63,1
1779393268203,$GPGGA,195428.000,1205.9622,S,07701.5031,W,1,07,1.0,144.3,M,8.4,M,,0000*67,1
1779393268324,$GPGSA,M,3,24,15,12,29,20,25,11,,,,,,3.0,1.0,2.8*39,1
1779393268489,$GPRMC,195428.000,A,1205.9622,S,07701.5031,W,5.18,203.53,210526,,,A*64,1
1779393269203,$GPGGA,195429.000,1205.9637,S,07701.5038,W,1,07,1.0,144.4,M,8.4,M,,0000*6C,1
1779393269324,$GPGSA,M,3,24,15,12,29,20,25,11,,,,,,3.0,1.0,2.8*39,1
1779393269489,$GPRMC,195429.000,A,1205.9637,S,07701.5038,W,6.46,204.11,210526,,,A*61,1
1779393270203,$GPGGA,195430.000,1205.9654,S,07701.5046,W,1,08,0.9,144.5,M,8.4,M,,0000*6E,1
1779393270329,$GPGSA,M,3,24,15,12,29,20,25,11,06,,,,,2.2,0.9,2.0*3C,1
1779393270494,$GPRMC,195430.000,A,1205.9654,S,07701.5046,W,7.09,204.94,210526,,,A*62,1
1779393271204,$GPGGA,195431.000,1205.9673,S,07701.5055,W,1,08,0.9,144.6,M,8.4,M,,0000*6B,1
1779393271330,$GPGSA,M,3,24,15,12,29,20,25,11,06,,,,,2.2,0.9,2.0*3C,1
1779393271495,$GPRMC,195431.000,A,1205.9673,S,07701.5055,W,7.88,204.42,210526,,,A*66,1
1779393272203,$GPGGA,195432.000,1205.9694,S,07701.5060,W,1,08,0.9,143.1,M,8.4,M,,0000*67,1
1779393272329,$GPGSA,M,3,24,15,12,29,20,25,11,06,,,,,2.2,0.9,2.0*3C,1
1779393272490,$GPGSV,3,1,12,24,57,155,38,15,50,347,38,12,41,198,40,29,34,326,36*70,1
1779393272650,$GPGSV,3,2,12,20,31,017,36,25,29,243,36,11,25,076,19,06,09,112,35*71,1
1779393272806,$GPGSV,3,3,12,13,22,029,39,19,05,143,17,48,33,280,29,14,39,225,*73,1
1779393272971,$GPRMC,195432.000,A,1205.9694,S,07701.5060,W,7.77,202.74,210526,,,A*69,1
1779393273208,$GPGGA,195433.000,1205.9714,S,07701.5069,W,1,09,0.9,143.2,M,8.4,M,,0000*64,1
1779393273338,$GPGSA,M,3,24,15,12,29,20,25,11,06,19,,,,2.0,0.9,1.7*32,1
1779393273503,$GPRMC,195433.000,A,1205.9714,S,07701.5069,W,7.34,200.39,210526,,,A*64,1
1779393274203,$GPGGA,195434.000,1205.9733,S,07701.5073,W,1,08,0.9,143.3,M,8.4,M,,0000*6D,1
1779393274329,$GPGSA,M,3,24,15,12,29,20,25,11,06,,,,,2.2,0.9,2.0*3C,1
1779393274494,$GPRMC,195434.000,A,1205.9733,S,07701.5073,W,6.58,191.83,210526,,,A*6C,1
1779393275203,$GPGGA,195435.000,1205.9751,S,07701.5070,W,1,08,0.9,143.3,M,8.4,M,,0000*6B,1
1779393275329,$GPGSA,M,3,24,15,12,29,20,25,11,06,,,,,2.2,0.9,2.0*3C,1
1779393275494,$GPRMC,195435.000,A,1205.9751,S,07701.5070,W,7.08,174.61,210526,,,A*69,1
1779393276204,$GPGGA,195436.000,1205.9770,S,07701.5056,W,1,08,0.9,143.4,M,8.4,M,,0000*68,1
1779393276330,$GPGSA,M,3,24,15,12,29,20,25,11,06,,,,,2.2,0.9,2.0*3C,1
1779393276495,$GPRMC,195436.000,A,1205.9770,S,07701.5056,W,8.80,142.26,210526,,,A*64,1
1779393277205,$GPGGA,195437.000,1205.9789,S,07701.5035,W,1,08,0.9,143.5,M,8.4,M,,0000*6B,1
1779393277331,$GPGSA,M,3,24,15,12,29,20,25,11,06,,,,,2.2,0.9,2.0*3C,1
1779393277492,$GPGSV,3,1,12,24,57,155,43,15,50,347,40,12,41,198,40,29,34,326,41*73,1
1779393277652,$GPGSV,3,2,12,20,31,017,37,25,29,243,28,11,25,076,32,06,09,112,26*74,1
1779393277808,$GPGSV,3,3,12,13,22,029,39,19,05,143,20,48,33,280,39,14,39,225,*76,1
1779393277975,$GPRMC,195437.000,A,1205.9789,S,07701.5035,W,10.02,129.84,210526,,,A*50,1
1779393278206,$GPGGA,195438.000,1205.9806,S,07701.5008,W,1,08,0.9,143.0,M,8.4,M,,0000*67,1
1779393278332,$GPGSA,M,3,24,15,12,29,20,25,11,06,,,,,2.2,0.9,2.0*3C,1
1779393278499,$GPRMC,195438.000,A,1205.9806,S,07701.5008,W,11.07,119.31,210526,,,A*50,1
1779393279211,$GPGGA,195439.000,1205.9821,S,07701.4979,W,2,06,1.1,143.0,M,8.4,M,2.0,0000*45,1
1779393279328,$GPGSA,M,3,24,15,29,20,25,11,,,,,,,3.0,1.1,2.8*3B,1
1779393279496,$GPRMC,195439.000,A,1205.9821,S,07701.4979,W,11.91,115.50,210526,,,D*5B,1
1779393280213,$GPGGA,195440.000,1205.9835,S,07701.4947,W,2,06,1.1,142.8,M,8.4,M,3.0,0000*4B,1
1779393280330,$GPGSA,M,3,24,15,29,20,25,11,,,,,,,3.0,1.1,2.8*3B,1
1779393280497,$GPRMC,195440.000,A,1205.9835,S,07701.4947,W,12.51,113.83,210526,,,D*5A,1
1779393281213,$GPGGA,195441.000,1205.9850,S,07701.4914,W,2,06,1.1,142.4,M,8.4,M,4.0,0000*44,1
1779393281329,$GPGSA,M,3,24,15,29,20,25,11,,,,,,,3.0,1.1,2.8*3B,1
1779393281497,$GPRMC,195441.000,A,1205.9850,S,07701.4914,W,12.89,113.62,210526,,,D*54,1
1779393282205,$GPGGA,195442.000,1205.9865,S,07701.4879,W,2,06,1.1,142.1,M,8.4,M,5.0,0000*4F,1
1779393282322,$GPGSA,M,3,24,15,29,20,25,11,,,,,,,3.0,1.1,2.8*3B,1
1779393282483,$GPGSV,3,1,12,24,57,155,43,15,50,347,40,29,34,326,40,20,31,017,36*73,1
1779393282643,$GPGSV,3,2,12,25,29,243,38,11,25,076,29,06,09,112,34,12,41,198,41*7D,1
1779393282799,$GPGSV,3,3,12,13,22,029,40,19,05,143,19,48,33,280,40,14,39,225,*7C,1
1779393282966,$GPRMC,195442.000,A,1205.9865,S,07701.4879,W,13.06,114.23,210526,,,D*5F,1
1779393283207,$GPGGA,195443.000,1205.9878,S,07701.4845,W,2,06,1.1,141.7,M,8.4,M,6.0,0000*4B,1
1779393283324,$GPGSA,M,3,24,15,29,20,25,11,,,,,,,3.0,1.1,2.8*3B,1
1779393283492,$GPRMC,195443.000,A,1205.9878,S,07701.4845,W,12.83,111.41,210526,,,D*50,1
1779393284207,$GPGGA,195444.000,1205.9890,S,07701.4812,W,2,06,1.1,141.6,M,8.4,M,7.0,0000*48,1
1779393284324,$GPGSA,M,3,24,15,29,20,25,11,,,,,,,3.0,1.1,2.8*3B,1
1779393284491,$GPRMC,195444.000,A,1205.9890,S,07701.4812,W,11.73,109.97,210526,,,D*5D,1
1779393285212,$GPGGA,195445.000,1205.9900,S,07701.4783,W,2,06,1.1,141.4,M,8.4,M,2.0,0000*41,1
1779393285329,$GPGSA,M,3,24,15,29,20,25,11,,,,,,,3.0,1.1,2.8*3B,1
1779393285494,$GPRMC,195445.000,A,1205.9900,S,07701.4783,W,9.90,109.12,210526,,,D*6A,1
1779393286207,$GPGGA,195446.000,1205.9907,S,07701.4759,W,2,06,1.1,141.2,M,8.4,M,3.0,0000*45,1
1779393286323,$GPGSA,M,3,24,15,29,20,25,11,,,,,,,3.0,1.1,2.8*3B,1
1779393286488,$GPRMC,195446.000,A,1205.9907,S,07701.4759,W,8.43,105.21,210526,,,D*6A,1
1779393287206,$GPGGA,195447.000,1205.9909,S,07701.4737,W,2,06,1.1,140.8,M,8.4,M,4.0,0000*4E,1
1779393287323,$GPGSA,M,3,24,15,29,20,25,11,,,,,,,3.0,1.1,2.8*3B,1
1779393287483,$GPGSV,3,1,12,24,57,155,42,15,50,347,37,29,34,326,34,20,31,017,36*71,1
1779393287643,$GPGSV,3,2,12,25,29,243,38,11,25,076,39,06,09,112,26,12,41,198,41*7F,1
1779393287799,$GPGSV,3,3,12,13,22,029,40,19,05,143,18,48,33,280,41,14,39,225,*7C,1
1779393287962,$GPRMC,195447.000,A,1205.9909,S,07701.4737,W,7.41,91.39,210526,,,D*55,1
1779393288213,$GPGGA,195448.000,1205.9905,S,07701.4716,W,2,06,1.1,140.5,M,8.4,M,5.0,0000*42,1
1779393288330,$GPGSA,M,3,24,15,29,20,25,11,,,,,,,3.0,1.1,2.8*3B,1
1779393288493,$GPRMC,195448.000,A,1205.9905,S,07701.4716,W,7.61,71.69,210526,,,D*5C,1
1779393289212,$GPGGA,195449.000,1205.9894,S,07701.4697,W,2,06,1.1,140.2,M,8.4,M,2.0,0000*42,1
1779393289329,$GPGSA,M,3,24,15,29,20,25,11,,,,,,,3.0,1.1,2.8*3B,1
1779393289492,$GPRMC,195449.000,A,1205.9894,S,07701.4697,W,8.30,50.39,210526,,,D*51,1
1779393290205,$GPGGA,195450.000,1205.9874,S,07701.4681,W,2,06,1.1,140.0,M,8.4,M,3.0,0000*40,1
1779393290322,$GPGSA,M,3,24,15,29,20,25,11,,,,,,,3.0,1.1,2.8*3B,1
1779393290485,$GPRMC,195450.000,A,1205.9874,S,07701.4681,W,9.44,34.83,210526,,,D*51,1
1779393291211,$GPGGA,195451.000,1205.9848,S,07701.4667,W,2,06,1.1,139.8,M,8.4,M,4.0,0000*47,1
1779393291328,$GPGSA,M,3,24,15,29,20,25,11,,,,,,,3.0,1.1,2.8*3B,1
1779393291493,$GPRMC,195451.000,A,1205.9848,S,07701.4667,W,10.66,28.03,210526,,,D*6A,1
1779393292206,$GPGGA,195452.000,1205.9819,S,07701.4654,W,2,06,1.1,139.6,M,8.4,M,5.0,0000*4F,1
1779393292323,$GPGSA,M,3,24,15,29,20,25,11,,,,,,,3.0,1.1,2.8*3B,1
1779393292483,$GPGSV,3,1,12,24,57,155,42,15,50,347,40,29,34,326,41,20,31,017,38*7D,1
1779393292644,$GPGSV,3,2,12,25,29,243,34,11,25,076,39,05,04,016,18,06,09,112,26*7F,1
1779393292804,$GPGSV,3,3,12,12,41,198,41,13,22,029,41,19,05,143,17,48,33,280,41*7B,1
1779393292969,$GPRMC,195452.000,A,1205.9819,S,07701.4654,W,11.55,26.36,210526,,,D*64,1
1779393293208,$GPGGA,195453.000,1205.9787,S,07701.4640,W,2,06,1.1,139.9,M,8.4,M,6.0,0000*4F,1
1779393293325,$GPGSA,M,3,24,15,29,20,25,11,,,,,,,3.0,1.1,2.8*3B,1
1779393293490,$GPRMC,195453.000,A,1205.9787,S,07701.4640,W,12.25,25.48,210526,,,D*66,1
1779393294205,$GPGGA,195454.000,1205.9754,S,07701.4625,W,2,06,1.1,140.1,M,8.4,M,7.0,0000*42,1
1779393294322,$GPGSA,M,3,24,15,29,20,25,11,,,,,,,3.0,1.1,2.8*3B,1
1779393294487,$GPRMC,195454.000,A,1205.9754,S,07701.4625,W,12.81,25.15,210526,,,D*6A,1
1779393295205,$GPGGA,195455.000,1205.9720,S,07701.4609,W,2,06,1.1,140.2,M,8.4,M,8.0,0000*42,1
1779393295322,$GPGSA,M,3,24,15,29,20,25,11,,,,,,,3.0,1.1,2.8*3B,1
1779393295487,$GPRMC,195455.000,A,1205.9720,S,07701.4609,W,13.22,25.39,210526,,,D*60,1
1779393296210,$GPGGA,195456.000,1205.9685,S,07701.4593,W,2,06,1.1,140.4,M,8.4,M,9.0,0000*48,1
1779393296327,$GPGSA,M,3,24,15,29,20,25,11,,,,,,,3.0,1.1,2.8*3B,1
1779393296492,$GPRMC,195456.000,A,1205.9685,S,07701.4593,W,13.58,25.22,210526,,,D*6A,1
1779393297207,$GPGGA,195457.000,1205.9649,S,07701.4576,W,2,06,1.1,140.4,M,8.4,M,10.0,0000*7A,1
1779393297324,$GPGSA,M,3,24,15,29,20,25,11,,,,,,,3.0,1.1,2.8*3B,1
1779393297484,$GPGSV,3,1,12,24,57,155,42,15,50,347,43,29,34,326,42,20,31,017,41*73,1
1779393297644,$GPGSV,3,2,12,25,29,243,38,11,25,076,39,06,09,112,18,12,41,198,43*70,1
1779393297791,$GPGSV,3,3,12,13,22,029,42,46,29,279,,14,39,225,,09,19,223,*78,1
1779393297956,$GPRMC,195457.000,A,1205.9649,S,07701.4576,W,13.57,25.50,210526,,,D*6A,1
1779393298206,$GPGGA,195458.000,1205.9613,S,07701.4560,W,2,06,1.1,140.5,M,8.4,M,11.0,0000*7D,1
1779393298323,$GPGSA,M,3,24,15,29,20,25,11,,,,,,,3.0,1.1,2.8*3B,1
1779393298488,$GPRMC,195458.000,A,1205.9613,S,07701.4560,W,13.67,25.20,210526,,,D*69,1
1779393299208,$GPGGA,195459.000,1205.9577,S,07701.4543,W,2,06,1.1,140.6,M,8.4,M,12.0,0000*7C,1
1779393299325,$GPGSA,M,3,24,15,29,20,25,11,,,,,,,3.0,1.1,2.8*3B,1
1779393299490,$GPRMC,195459.000,A,1205.9577,S,07701.4543,W,13.95,24.80,210526,,,D*6E,1
1779393300208,$GPGGA,195500.000,1205.9540,S,07701.4527,W,2,06,1.1,140.7,M,8.4,M,13.0,0000*77,1
1779393300324,$GPGSA,M,3,24,15,29,20,25,11,,,,,,,3.0,1.1,2.8*3B,1
1779393300489,$GPRMC,195500.000,A,1205.9540,S,07701.4527,W,14.34,24.75,210526,,,D*63,1
1779393301214,$GPGGA,195501.000,1205.9503,S,07701.4510,W,2,06,1.1,140.9,M,8.4,M,14.0,0000*7C,1
1779393301331,$GPGSA,M,3,24,15,29,20,25,11,,,,,,,3.0,1.1,2.8*3B,1
1779393301496,$GPRMC,195501.000,A,1205.9503,S,07701.4510,W,14.64,24.77,210526,,,D*66,1
1779393302206,$GPGGA,195502.000,1205.9464,S,07701.4495,W,2,06,1.1,142.2,M,8.4,M,15.0,0000*7B,1
1779393302323,$GPGSA,M,3,24,15,29,20,25,11,,,,,,,3.0,1.1,2.8*3B,1
1779393302483,$GPGSV,3,1,12,24,57,155,42,15,50,347,43,29,34,326,42,20,31,017,41*73,1
1779393302644,$GPGSV,3,2,12,25,29,243,40,11,25,076,41,06,09,112,18,12,41,198,43*70,1
1779393302795,$GPGSV,3,3,12,13,22,029,43,46,29,279,40,14,39,225,,09,19,223,*7D,1
1779393302960,$GPRMC,195502.000,A,1205.9464,S,07701.4495,W,14.77,24.30,210526,,,D*68,1
1779393303211,$GPGGA,195503.000,1205.9425,S,07701.4477,W,2,06,1.1,142.5,M,8.4,M,16.0,0000*77,1
1779393303328,$GPGSA,M,3,24,15,29,20,25,11,,,,,,,3.0,1.1,2.8*3B,1
1779393303493,$GPRMC,195503.000,A,1205.9425,S,07701.4477,W,14.78,24.47,210526,,,D*6F,1
1779393304217,$GPGGA,195504.000,1205.9387,S,07701.4462,W,2,06,1.1,143.4,M,8.4,M,17.0,0000*7A,1
1779393304334,$GPGSA,M,3,24,15,29,20,25,11,,,,,,,3.0,1.1,2.8*3B,1
1779393304499,$GPRMC,195504.000,A,1205.9387,S,07701.4462,W,14.91,24.89,210526,,,D*66,1
1779393305209,$GPGGA,195505.000,1205.9348,S,07701.4445,W,2,06,1.1,143.4,M,8.4,M,18.0,0000*72,1
1779393305326,$GPGSA,M,3,24,15,29,20,25,11,,,,,,,3.0,1.1,2.8*3B,1
1779393305491,$GPRMC,195505.000,A,1205.9348,S,07701.4445,W,14.91,24.29,210526,,,D*6B,1
1779393306200,$GPGGA,195506.000,1205.9310,S,07701.4426,W,1,08,0.9,143.5,M,8.4,M,,0000*6B,1
1779393306327,$GPGSA,M,3,24,15,12,29,20,25,11,06,,,,,2.2,0.9,2.0*3C,1
1779393306492,$GPRMC,195506.000,A,1205.9310,S,07701.4426,W,15.14,25.62,210526,,,A*67,1
1779393307205,$GPGGA,195507.000,1205.9272,S,07701.4407,W,1,08,0.9,143.6,M,8.4,M,,0000*6F,1
1779393307331,$GPGSA,M,3,24,15,12,29,20,25,11,06,,,,,2.2,0.9,2.0*3C,1
1779393307491,$GPGSV,3,1,12,24,57,155,42,15,50,347,43,12,41,198,43,29,34,326,40*73,1
1779393307652,$GPGSV,3,2,12,20,31,017,41,25,29,243,39,11,25,076,23,06,09,112,18*78,1
1779393307808,$GPGSV,3,3,12,13,22,029,43,19,05,143,04,46,29,279,42,14,39,225,*72,1
1779393307973,$GPRMC,195507.000,A,1205.9272,S,07701.4407,W,15.25,26.02,210526,,,A*67,1
1779393308206,$GPGGA,195508.000,1205.9233,S,07701.4388,W,1,07,1.0,143.9,M,8.4,M,,0000*6D,1
1779393308327,$GPGSA,M,3,24,15,12,29,20,25,11,,,,,,3.0,1.0,2.8*39,1
1779393308492,$GPRMC,195508.000,A,1205.9233,S,07701.4388,W,15.30,25.75,210526,,,A*6A,1
1779393309204,$GPGGA,195509.000,1205.9194,S,07701.4369,W,1,08,0.9,144.2,M,8.4,M,,0000*66,1
1779393309330,$GPGSA,M,3,24,15,12,29,20,25,11,06,,,,,2.2,0.9,2.0*3C,1
1779393309495,$GPRMC,195509.000,A,1205.9194,S,07701.4369,W,15.47,25.63,210526,,,A*6D,1
1779393310202,$GPGGA,195510.000,1205.9155,S,07701.4350,W,1,08,0.9,144.3,M,8.4,M,,0000*68,1
1779393310328,$GPGSA,M,3,24,15,12,29,20,25,11,06,,,,,2.2,0.9,2.0*3C,1
1779393310493,$GPRMC,195510.000,A,1205.9155,S,07701.4350,W,15.49,24.28,210526,,,A*62,1
1779393311202,$GPGGA,195511.000,1205.9116,S,07701.4331,W,1,08,0.9,144.4,M,8.4,M,,0000*6E,1
1779393311328,$GPGSA,M,3,24,15,12,29,20,25,11,06,,,,,2.2,0.9,2.0*3C,1
1779393311493,$GPRMC,195511.000,A,1205.9116,S,07701.4331,W,15.47,24.00,210526,,,A*67,1
1779393312203,$GPGGA,195512.000,1205.9076,S,07701.4313,W,1,08,0.9,144.3,M,8.4,M,,0000*6D,1
1779393312329,$GPGSA,M,3,24,15,12,29,20,25,11,06,,,,,2.2,0.9,2.0*3C,1
1779393312490,$GPGSV,3,1,12,24,57,155,42,15,50,347,43,12,41,198,43,29,34,326,33*77,1
1779393312650,$GPGSV,3,2,12,20,31,017,41,25,29,243,39,11,25,076,41,06,09,112,19*7D,1
1779393312806,$GPGSV,3,3,12,05,04,016,13,13,22,029,43,46,29,279,32,14,39,225,*7E,1
1779393312971,$GPRMC,195512.000,A,1205.9076,S,07701.4313,W,15.38,23.57,210526,,,A*6E,1
1779393313203,$GPGGA,195513.000,1205.9037,S,07701.4295,W,1,08,0.9,144.4,M,8.4,M,,0000*61,1
1779393313328,$GPGSA,M,3,24,15,12,29,20,25,11,06,,,,,2.2,0.9,2.0*3C,1
1779393313493,$GPRMC,195513.000,A,1205.9037,S,07701.4295,W,15.15,23.85,210526,,,A*65,1
1779393314202,$GPGGA,195514.000,1205.8999,S,07701.4277,W,1,08,0.9,144.5,M,8.4,M,,0000*67,1
1779393314328,$GPGSA,M,3,24,15,12,29,20,25,11,06,,,,,2.2,0.9,2.0*3C,1
1779393314493,$GPRMC,195514.000,A,1205.8999,S,07701.4277,W,14.95,24.44,210526,,,A*61,1
1779393315205,$GPGGA,195515.000,1205.8962,S,07701.4260,W,1,08,0.9,144.5,M,8.4,M,,0000*64,1
1779393315331,$GPGSA,M,3,24,15,12,29,20,25,11,06,,,,,2.2,0.9,2.0*3C,1
1779393315496,$GPRMC,195515.000,A,1205.8962,S,07701.4260,W,14.48,24.97,210526,,,A*6C,1
1779393316205,$GPGGA,195516.000,1205.8926,S,07701.4242,W,1,08,0.9,144.6,M,8.4,M,,0000*64,1
1779393316331,$GPGSA,M,3,24,15,12,29,20,25,11,06,,,,,2.2,0.9,2.0*3C,1
1779393316496,$GPRMC,195516.000,A,1205.8926,S,07701.4242,W,13.85,25.53,210526,,,A*60,1
1779393317202,$GPGGA,195517.000,1205.8892,S,07701.4225,W,1,08,0.9,144.7,M,8.4,M,,0000*6B,1
1779393317328,$GPGSA,M,3,24,15,12,29,20,25,11,06,,,,,2.2,0.9,2.0*3C,1
1779393317488,$GPGSV,3,1,12,24,57,155,42,15,50,347,43,12,41,198,43,29,34,326,35*71,1
1779393317649,$GPGSV,3,2,12,20,31,017,42,25,29,243,40,11,25,076,36,06,09,112,18*71,1
1779393317800,$GPGSV,3,3,12,05,04,016,17,13,22,029,43,46,29,279,,14,39,225,*7B,1
1779393317965,$GPRMC,195517.000,A,1205.8892,S,07701.4225,W,13.43,26.30,210526,,,A*62,1
1779393318201,$GPGGA,195518.000,1205.8860,S,07701.4209,W,1,08,0.9,144.9,M,8.4,M,,0000*69,1
1779393318327,$GPGSA,M,3,24,15,12,29,20,25,11,06,,,,,2.2,0.9,2.0*3C,1
1779393318492,$GPRMC,195518.000,A,1205.8860,S,07701.4209,W,12.90,25.55,210526,,,A*61,1
1779393319202,$GPGGA,195519.000,1205.8827,S,07701.4194,W,1,08,0.9,145.5,M,8.4,M,,0000*61,1
1779393319328,$GPGSA,M,3,24,15,12,29,20,25,11,06,,,,,2.2,0.9,2.0*3C,1
1779393319493,$GPRMC,195519.000,A,1205.8827,S,07701.4194,W,12.95,24.81,210526,,,A*69,1
1779393320197,$GPGGA,195520.000,1205.8795,S,07701.4179,W,1,07,1.0,145.5,M,8.4,M,,0000*69,1
1779393320319,$GPGSA,M,3,24,15,12,29,20,25,06,,,,,,2.3,1.0,2.0*35,1
1779393320484,$GPRMC,195520.000,A,1205.8795,S,07701.4179,W,12.54,23.60,210526,,,A*63,1
1779393321198,$GPGGA,195521.000,1205.8765,S,07701.4165,W,1,07,1.0,145.5,M,8.4,M,,0000*6A,1
1779393321319,$GPGSA,M,3,24,15,12,29,20,25,06,,,,,,2.3,1.0,2.0*35,1
1779393321484,$GPRMC,195521.000,A,1205.8765,S,07701.4165,W,11.18,23.18,210526,,,A*64,1
1779393322197,$GPGGA,195522.000,1205.8740,S,07701.4153,W,1,07,1.0,145.5,M,8.4,M,,0000*6B,1
1779393322318,$GPGSA,M,3,24,15,12,29,20,25,06,,,,,,2.3,1.0,2.0*35,1
1779393322479,$GPGSV,3,1,12,24,57,155,40,15,50,347,44,12,41,198,43,29,34,326,42*74,1
1779393322639,$GPGSV,3,2,12,20,31,017,42,25,29,243,41,06,09,112,14,13,22,029,43*71,1
1779393322786,$GPGSV,3,3,12,46,29,279,33,14,39,225,,11,25,076,,09,19,223,*71,1
1779393322948,$GPRMC,195522.000,A,1205.8740,S,07701.4153,W,9.02,21.99,210526,,,A*5C,1
1779393323199,$GPGGA,195523.000,1205.8721,S,07701.4145,W,1,07,1.0,145.5,M,8.4,M,,0000*6A,1
1779393323320,$GPGSA,M,3,24,15,12,29,20,25,06,,,,,,2.3,1.0,2.0*35,1
1779393323483,$GPRMC,195523.000,A,1205.8721,S,07701.4145,W,6.58,17.13,210526,,,A*5A,1
1779393324199,$GPGGA,195524.000,1205.8706,S,07701.4142,W,1,07,1.0,145.5,M,8.4,M,,0000*6F,1
1779393324321,$GPGSA,M,3,24,15,12,29,20,25,06,,,,,,2.3,1.0,2.0*35,1
1779393324481,$GPRMC,195524.000,A,1205.8706,S,07701.4142,W,5.33,5.63,210526,,,A*65,1
1779393325204,$GPGGA,195525.000,1205.8692,S,07701.4144,W,1,07,1.0,145.5,M,8.4,M,,0000*64,1
1779393325325,$GPGSA,M,3,24,15,12,29,20,25,06,,,,,,2.3,1.0,2.0*35,1
1779393325490,$GPRMC,195525.000,A,1205.8692,S,07701.4144,W,5.70,345.62,210526,,,A*6F,1
1779393326202,$GPGGA,195526.000,1205.8678,S,07701.4154,W,1,07,1.0,145.6,M,8.4,M,,0000*61,1
1779393326323,$GPGSA,M,3,24,15,12,29,20,25,06,,,,,,2.3,1.0,2.0*35,1
1779393326488,$GPRMC,195526.000,A,1205.8678,S,07701.4154,W,6.78,318.98,210526,,,A*6F,1
1779393327202,$GPGGA,195527.000,1205.8669,S,07701.4173,W,1,07,1.0,145.5,M,8.4,M,,0000*66,1
1779393327323,$GPGSA,M,3,24,15,12,29,20,25,06,,,,,,2.3,1.0,2.0*35,1
1779393327484,$GPGSV,3,1,12,24,57,155,42,15,50,347,44,12,41,198,44,29,34,326,43*70,1
1779393327644,$GPGSV,3,2,12,20,31,017,42,25,29,243,41,06,09,112,25,05,04,016,14*7E,1
1779393327805,$GPGSV,3,3,12,11,25,076,13,13,22,029,43,19,05,143,19,46,29,279,41*73,1
1779393327970,$GPRMC,195527.000,A,1205.8669,S,07701.4173,W,8.56,290.97,210526,,,A*67,1
1779393328205,$GPGGA,195528.000,1205.8663,S,07701.4201,W,1,08,0.9,146.4,M,8.4,M,,0000*60,1
1779393328331,$GPGSA,M,3,24,15,12,29,20,25,11,06,,,,,2.2,0.9,2.0*3C,1
1779393328498,$GPRMC,195528.000,A,1205.8663,S,07701.4201,W,10.53,279.11,210526,,,A*51,1
1779393329205,$GPGGA,195529.000,1205.8659,S,07701.4233,W,2,04,1.9,146.2,M,8.4,M,2.0,0000*4D,1
1779393329313,$GPGSA,M,3,24,15,20,25,,,,,,,,,4.7,1.9,4.2*34,1
1779393329480,$GPRMC,195529.000,A,1205.8659,S,07701.4233,W,11.97,276.22,210526,,,D*5B,1
1779393330207,$GPGGA,195530.000,1205.8656,S,07701.4269,W,2,05,1.3,146.0,M,8.4,M,2.0,0000*4C,1
1779393330320,$GPGSA,M,3,24,15,20,25,11,,,,,,,,3.1,1.3,2.8*33,1
1779393330487,$GPRMC,195530.000,A,1205.8656,S,07701.4269,W,13.02,276.13,210526,,,D*5F,1
1779393331211,$GPGGA,195531.000,1205.8651,S,07701.4306,W,2,06,1.1,146.0,M,8.4,M,2.0,0000*43,1
1779393331328,$GPGSA,M,3,24,15,29,20,25,11,,,,,,,3.0,1.1,2.8*3B,1
1779393331495,$GPRMC,195531.000,A,1205.8651,S,07701.4306,W,13.23,278.34,210526,,,D*59,1
1779393332205,$GPGGA,195532.000,1205.8646,S,07701.4343,W,2,06,1.1,145.9,M,8.4,M,3.0,0000*4C,1
1779393332322,$GPGSA,M,3,24,15,29,20,25,11,,,,,,,3.0,1.1,2.8*3B,1
1779393332482,$GPGSV,3,1,12,24,57,155,43,15,50,347,44,29,34,326,29,20,31,017,38*76,1
1779393332642,$GPGSV,3,2,12,25,29,243,31,11,25,076,40,06,09,112,29,12,41,198,38*79,1
1779393332798,$GPGSV,3,3,12,13,22,029,40,19,05,143,20,46,29,279,36,14,39,225,*74,1
1779393332965,$GPRMC,195532.000,A,1205.8646,S,07701.4343,W,13.44,279.64,210526,,,D*58,1
1779393333211,$GPGGA,195533.000,1205.8640,S,07701.4381,W,2,06,1.1,145.7,M,8.4,M,4.0,0000*4C,1
1779393333328,$GPGSA,M,3,24,15,29,20,25,11,,,,,,,3.0,1.1,2.8*3B,1
1779393333495,$GPRMC,195533.000,A,1205.8640,S,07701.4381,W,13.26,279.45,210526,,,D*56,1
1779393334210,$GPGGA,195534.000,1205.8634,S,07701.4418,W,2,06,1.1,145.7,M,8.4,M,2.0,0000*49,1
1779393334326,$GPGSA,M,3,24,15,29,20,25,11,,,,,,,3.0,1.1,2.8*3B,1
1779393334494,$GPRMC,195534.000,A,1205.8634,S,07701.4418,W,12.24,279.27,210526,,,D*52,1
1779393335203,$GPGGA,195535.000,1205.8629,S,07701.4450,W,2,05,2.3,145.8,M,8.4,M,3.0,0000*44,1
1779393335315,$GPGSA,M,3,24,15,29,20,11,,,,,,,,5.5,2.3,5.0*31,1
1779393335483,$GPRMC,195535.000,A,1205.8629,S,07701.4450,W,10.39,280.34,210526,,,D*59,1
1779393336205,$GPGGA,195536.000,1205.8625,S,07701.4477,W,2,06,1.1,146.0,M,8.4,M,4.0,0000*40,1
1779393336322,$GPGSA,M,3,24,15,29,20,25,11,,,,,,,3.0,1.1,2.8*3B,1
1779393336487,$GPRMC,195536.000,A,1205.8625,S,07701.4477,W,8.75,280.69,210526,,,D*6A,1
1779393337205,$GPGGA,195537.000,1205.8622,S,07701.4501,W,2,06,1.1,146.3,M,8.4,M,5.0,0000*44,1
1779393337322,$GPGSA,M,3,24,15,29,20,25,11,,,,,,,3.0,1.1,2.8*3B,1
1779393337482,$GPGSV,3,1,12,24,57,155,44,15,50,347,43,29,34,326,41,20,31,017,39*79,1
1779393337643,$GPGSV,3,2,12,25,29,243,20,11,25,076,30,06,09,112,36,12,41,198,43*7C,1
1779393337798,$GPGSV,3,3,12,13,22,029,42,19,05,143,20,46,29,279,26,14,39,225,*77,1
1779393337963,$GPRMC,195537.000,A,1205.8622,S,07701.4501,W,7.63,277.17,210526,,,D*65,1
1779393338209,$GPGGA,195538.000,1205.8621,S,07701.4520,W,2,06,1.1,146.6,M,8.4,M,6.0,0000*4D,1
1779393338326,$GPGSA,M,3,24,15,29,20,25,11,,,,,,,3.0,1.1,2.8*3B,1
1779393338491,$GPRMC,195538.000,A,1205.8621,S,07701.4520,W,5.35,275.05,210526,,,D*6A,1
1779393339204,$GPGGA,195539.000,1205.8623,S,07701.4538,W,2,06,1.1,147.1,M,8.4,M,7.0,0000*40,1
1779393339321,$GPGSA,M,3,24,15,29,20,25,11,,,,,,,3.0,1.1,2.8*3B,1
1779393339486,$GPRMC,195539.000,A,1205.8623,S,07701.4538,W,5.78,260.74,210526,,,D*6B,1
1779393340206,$GPGGA,195540.000,1205.8631,S,07701.4554,W,2,06,1.1,147.5,M,8.4,M,8.0,0000*4C,1
1779393340323,$GPGSA,M,3,24,15,29,20,25,11,,,,,,,3.0,1.1,2.8*3B,1
1779393340488,$GPRMC,195540.000,A,1205.8631,S,07701.4554,W,6.91,244.02,210526,,,D*6F,1
1779393340534,$PSRF156,23,1,0*09,1
1779393341206,$GPGGA,195541.000,1205.8648,S,07701.4566,W,2,06,1.1,148.0,M,8.4,M,9.0,0000*49,1
1779393341323,$GPGSA,M,3,24,15,29,20,25,11,,,,,,,3.0,1.1,2.8*3B,1
1779393341488,$GPRMC,195541.000,A,1205.8648,S,07701.4566,W,8.58,221.67,210526,,,D*6A,1
1779393342206,$GPGGA,195542.000,1205.8674,S,07701.4578,W,2,06,1.1,148.0,M,8.4,M,10.0,0000*72,1
1779393342323,$GPGSA,M,3,24,15,29,20,25,11,,,,,,,3.0,1.1,2.8*3B,1
1779393342483,$GPGSV,3,1,12,24,57,155,44,15,50,347,43,29,34,326,23,20,31,017,39*7D,1
1779393342644,$GPGSV,3,2,12,25,29,243,20,11,25,076,33,06,09,112,29,12,41,198,44*76,1
1779393342799,$GPGSV,3,3,12,13,22,029,43,19,05,143,20,46,29,279,22,14,39,225,*72,1
1779393342967,$GPRMC,195542.000,A,1205.8674,S,07701.4578,W,11.08,207.35,210526,,,D*57,1
1779393343207,$GPGGA,195543.000,1205.8706,S,07701.4595,W,2,06,1.1,148.5,M,8.4,M,11.0,0000*70,1
1779393343324,$GPGSA,M,3,24,15,29,20,25,11,,,,,,,3.0,1.1,2.8*3B,1
1779393343491,$GPRMC,195543.000,A,1205.8706,S,07701.4595,W,12.85,205.07,210526,,,D*54,1
1779393344212,$GPGGA,195544.000,1205.8741,S,07701.4611,W,2,06,1.1,148.3,M,8.4,M,12.0,0000*7E,1
1779393344329,$GPGSA,M,3,24,15,29,20,25,11,,,,,,,3.0,1.1,2.8*3B,1
1779393344496,$GPRMC,195544.000,A,1205.8741,S,07701.4611,W,13.77,204.03,210526,,,D*56,1
1779393345207,$GPGGA,195545.000,1205.8778,S,07701.4626,W,2,06,1.1,148.4,M,8.4,M,13.0,0000*77,1
1779393345324,$GPGSA,M,3,24,15,29,20,25,11,,,,,,,3.0,1.1,2.8*3B,1
1779393345491,$GPRMC,195545.000,A,1205.8778,S,07701.4626,W,14.36,204.00,210526,,,D*58,1
1779393346206,$GPGGA,195546.000,1205.8816,S,07701.4641,W,2,06,1.1,149.2,M,8.4,M,14.0,0000*72,1
1779393346322,$GPGSA,M,3,24,15,29,20,25,11,,,,,,,3.0,1.1,2.8*3B,1
1779393346490,$GPRMC,195546.000,A,1205.8816,S,07701.4641,W,14.66,204.68,210526,,,D*56,1
1779393347206,$GPGGA,195547.000,1205.8852,S,07701.4657,W,2,06,1.1,150.0,M,8.4,M,15.0,0000*7F,1
1779393347323,$GPGSA,M,3,24,15,29,20,25,11,,,,,,,3.0,1.1,2.8*3B,1
1779393347484,$GPGSV,3,1,12,24,57,155,43,15,50,347,43,29,34,326,29,20,31,017,40*7E,1
1779393347644,$GPGSV,3,2,12,25,29,243,33,11,25,076,30,05,04,016,23,06,09,112,25*7A,1
1779393347800,$GPGSV,3,3,12,12,41,198,44,13,22,029,44,19,05,143,20,46,29,279,*79,1
1779393347967,$GPRMC,195547.000,A,1205.8852,S,07701.4657,W,14.31,203.66,210526,,,D*5B,1
1779393348204,$GPGGA,195548.000,1205.8884,S,07701.4663,W,2,05,1.7,152.2,M,8.4,M,16.0,0000*7A,1
1779393348316,$GPGSA,M,3,24,15,29,20,25,,,,,,,,4.5,1.7,4.2*33,1
1779393348483,$GPRMC,195548.000,A,1205.8884,S,07701.4663,W,13.74,203.41,210526,,,D*5B,1
1779393349206,$GPGGA,195549.000,1205.8916,S,07701.4669,W,2,06,1.1,154.3,M,8.4,M,17.0,0000*78,1
1779393349323,$GPGSA,M,3,24,15,29,20,25,11,,,,,,,3.0,1.1,2.8*3B,1
1779393349490,$GPRMC,195549.000,A,1205.8916,S,07701.4669,W,13.58,201.57,210526,,,D*51,1
1779393350205,$GPGGA,195550.000,1205.8950,S,07701.4674,W,2,06,1.1,156.4,M,8.4,M,18.0,0000*74,1
1779393350321,$GPGSA,M,3,24,15,29,20,25,11,,,,,,,3.0,1.1,2.8*3B,1
1779393350489,$GPRMC,195550.000,A,1205.8950,S,07701.4674,W,13.85,200.13,210526,,,D*56,1
1779393351200,$GPGGA,195551.000,1205.8993,S,07701.4695,W,1,08,0.9,156.1,M,8.4,M,,0000*63,1
1779393351326,$GPGSA,M,3,24,15,12,29,20,25,11,06,,,,,2.2,0.9,2.0*3C,1
1779393351493,$GPRMC,195551.000,A,1205.8993,S,07701.4695,W,14.78,204.49,210526,,,A*5C,1
1779393352198,$GPGGA,195552.000,1205.9037,S,07701.4724,W,1,07,1.1,154.8,M,8.4,M,,0000*60,1
1779393352319,$GPGSA,M,3,24,15,12,20,25,11,06,,,,,,2.3,1.1,2.1*3E,1
1779393352479,$GPGSV,3,1,12,24,57,155,41,15,50,347,32,12,41,198,44,20,31,017,41*7D,1
1779393352640,$GPGSV,3,2,12,25,29,243,37,11,25,076,29,06,09,112,27,13,22,029,44*7A,1
1779393352791,$GPGSV,3,3,12,19,05,143,13,29,34,326,04,46,29,279,,14,39,225,*73,1
1779393352958,$GPRMC,195552.000,A,1205.9037,S,07701.4724,W,15.11,206.78,210526,,,A*5C,1
1779393353198,$GPGGA,195553.000,1205.9080,S,07701.4751,W,1,07,1.1,153.6,M,8.4,M,,0000*66,1
1779393353319,$GPGSA,M,3,24,15,12,20,25,11,06,,,,,,2.3,1.1,2.1*3E,1
1779393353486,$GPRMC,195553.000,A,1205.9080,S,07701.4751,W,15.24,205.85,210526,,,A*54,1
1779393354199,$GPGGA,195554.000,1205.9122,S,07701.4775,W,1,08,0.9,152.7,M,8.4,M,,0000*68,1
1779393354325,$GPGSA,M,3,24,15,12,29,20,25,11,06,,,,,2.2,0.9,2.0*3C,1
1779393354492,$GPRMC,195554.000,A,1205.9122,S,07701.4775,W,15.21,205.81,210526,,,A*5D,1
1779393355201,$GPGGA,195555.000,1205.9162,S,07701.4798,W,1,08,0.9,152.2,M,8.4,M,,0000*6B,1
1779393355327,$GPGSA,M,3,24,15,12,29,20,25,11,06,,,,,2.2,0.9,2.0*3C,1
1779393355494,$GPRMC,195555.000,A,1205.9162,S,07701.4798,W,14.99,206.32,210526,,,A*52,1
1779393356201,$GPGGA,195556.000,1205.9203,S,07701.4817,W,1,08,0.9,151.4,M,8.4,M,,0000*61,1
1779393356327,$GPGSA,M,3,24,15,12,29,20,25,11,06,,,,,2.2,0.9,2.0*3C,1
1779393356494,$GPRMC,195556.000,A,1205.9203,S,07701.4817,W,15.29,205.58,210526,,,A*58,1
1779393357201,$GPGGA,195557.000,1205.9246,S,07701.4836,W,1,08,0.9,149.8,M,8.4,M,,0000*67,1
1779393357327,$GPGSA,M,3,24,15,12,29,20,25,11,06,,,,,2.2,0.9,2.0*3C,1
1779393357488,$GPGSV,3,1,12,24,57,155,42,15,50,347,42,12,41,198,44,29,34,326,39*7B,1
1779393357648,$GPGSV,3,2,12,20,31,017,42,25,29,243,38,11,25,076,39,06,09,112,17*7E,1
1779393357799,$GPGSV,3,3,12,13,22,029,43,46,29,279,36,14,39,225,,09,19,223,*7C,1
1779393357967,$GPRMC,195557.000,A,1205.9246,S,07701.4836,W,15.70,206.29,210526,,,A*52,1
1779393358200,$GPGGA,195558.000,1205.9289,S,07701.4856,W,1,08,0.9,148.4,M,8.4,M,,0000*60,1
1779393358326,$GPGSA,M,3,24,15,12,29,20,25,11,06,,,,,2.2,0.9,2.0*3C,1
1779393358493,$GPRMC,195558.000,A,1205.9289,S,07701.4856,W,15.75,206.73,210526,,,A*52,1
1779393359201,$GPGGA,195559.000,1205.9331,S,07701.4875,W,1,08,0.9,147.2,M,8.4,M,,0000*6B,1
1779393359327,$GPGSA,M,3,24,15,12,29,20,25,11,06,,,,,2.2,0.9,2.0*3C,1
1779393359495,$GPRMC,195559.000,A,1205.9331,S,07701.4875,W,15.66,204.83,210526,,,A*5F,1
