Unix_time,GPS_data,motion_flag
1779391854447,$GPGGA,193019.000,1205.9943,S,07701.4552,W,2,06,1.5,136.1,M,8.4,M,2.0,0000*42,0
1779391854448,$GPGSA,M,3,15,20,25,29,11,05,,,,,,,2.3,1.5,1.8*3D,0
1779391854448,$GPRMC,193019.000,A,1205.9943,S,07701.4552,W,0.00,0.00,210526,,,D*63,0
1779391854448,$GPGGA,193020.000,1205.9943,S,07701.4552,W,2,06,1.5,136.1,M,8.4,M,3.0,0000*49,0
1779391854448,$GPGSA,M,3,15,20,25,29,11,05,,,,,,,2.3,1.5,1.8*3D,0
1779391854448,$GPRMC,193020.000,A,1205.9943,S,07701.4552,W,0.00,0.00,210526,,,D*69,0
1779391854448,$GPGGA,193021.000,1205.9943,S,07701.4552,W,2,06,1.5,136.1,M,8.4,M,2.0,0000*49,0
1779391854448,$GPGSA,M,3,15,20,25,29,11,05,,,,,,,2.3,1.5,1.8*3D,0
1779391854448,$GPRMC,193021.000,A,1205.9943,S,07701.4552,W,0.00,0.00,210526,,,D*68,0
1779391854449,$GPGGA,193022.000,1205.9943,S,07701.4552,W,2,06,1.5,136.1,M,8.4,M,3.0,0000*4B,0
1779391854449,$GPGSA,M,3,15,20,25,29,11,05,,,,,,,2.3,1.5,1.8*3D,0
1779391854449,$GPGSV,3,1,12,15,62,337,44,20,43,018,41,25,27,256,36,29,23,331,43*7C,0
1779391854449,$GPGSV,3,2,12,11,22,063,41,05,07,007,22,06,10,101,38,12,45,213,44*70,0
1779391854449,$GPGSV,3,3,12,19,14,141,44,24,49,170,37,48,33,280,37,13,33,033,*7A,0
1779391854449,$GPRMC,193022.000,A,1205.9943,S,07701.4552,W,0.00,0.00,210526,,,D*6B,0
1779391854449,$GPGGA,193023.000,1205.9943,S,07701.4552,W,2,06,1.5,136.1,M,8.4,M,2.0,0000*4B,0
1779391854450,$GPGSA,M,3,15,20,25,29,11,05,,,,,,,2.3,1.5,1.8*3D,0
1779391854450,$GPRMC,193023.000,A,1205.9943,S,07701.4552,W,0.00,0.00,210526,,,D*6A,0
1779391854450,$GPGGA,193024.000,1205.9943,S,07701.4552,W,2,06,1.5,136.1,M,8.4,M,3.0,0000*4D,0
1779391854450,$GPGSA,M,3,15,20,25,29,11,05,,,,,,,2.3,1.5,1.8*3D,0
1779391854450,$GPRMC,193024.000,A,1205.9943,S,07701.4552,W,0.00,0.00,210526,,,D*6D,0
1779391854450,$GPGGA,193025.000,1205.9943,S,07701.4552,W,2,06,1.5,136.1,M,8.4,M,2.0,0000*4D,0
1779391854450,$GPGSA,M,3,15,20,25,29,11,05,,,,,,,2.3,1.5,1.8*3D,0
1779391854450,$GPRMC,193025.000,A,1205.9943,S,07701.4552,W,0.00,0.00,210526,,,D*6C,0
1779391854450,$GPGGA,193026.000,1205.9943,S,07701.4552,W,2,06,1.5,136.1,M,8.4,M,2.0,0000*4E,0
1779391854451,$GPGSA,M,3,15,20,25,29,11,05,,,,,,,2.3,1.5,1.8*3D,0
1779391854451,$GPRMC,193026.000,A,1205.9943,S,07701.4552,W,0.00,0.00,210526,,,D*6F,0
1779391854451,$GPGGA,193027.000,1205.9943,S,07701.4552,W,2,06,1.5,136.1,M,8.4,M,3.0,0000*4E,0
1779391854451,$GPGSA,M,3,15,20,25,29,11,05,,,,,,,2.3,1.5,1.8*3D,0
1779391854451,$GPGSV,3,1,12,15,62,337,43,20,43,018,41,25,27,256,36,29,23,331,43*7B,0
1779391854451,$GPGSV,3,2,12,11,22,063,41,05,07,007,23,06,10,101,38,12,45,213,44*71,0
1779391854451,$GPGSV,3,3,12,19,14,141,43,24,49,170,36,48,33,280,36,13,33,033,*7D,0
1779391854451,$GPRMC,193027.000,A,1205.9943,S,07701.4552,W,0.00,0.00,210526,,,D*6E,0
1779391854452,$GPGGA,193028.000,1205.9943,S,07701.4552,W,2,06,1.5,136.1,M,8.4,M,4.0,0000*46,0
1779391854452,$GPGSA,M,3,15,20,25,29,11,05,,,,,,,2.3,1.5,1.8*3D,0
1779391854452,$GPRMC,193028.000,A,1205.9943,S,07701.4552,W,0.00,0.00,210526,,,D*61,0
1779391854453,$GPGGA,193029.000,1205.9943,S,07701.4552,W,2,06,1.5,136.1,M,8.4,M,5.0,0000*46,0
1779391854454,$GPGSA,M,3,15,20,25,29,11,05,,,,,,,2.3,1.5,1.8*3D,0
1779391854455,$GPRMC,193029.000,A,1205.9943,S,07701.4552,W,0.00,0.00,210526,,,D*60,0
1779391854455,$GPGGA,193030.000,1205.9943,S,07701.4552,W,2,06,1.5,136.1,M,8.4,M,2.0,0000*49,0
1779391854456,$GPGSA,M,3,15,20,25,29,11,05,,,,,,,2.3,1.5,1.8*3D,0
1779391854456,$GPRMC,193030.000,A,1205.9943,S,07701.4552,W,0.00,0.00,210526,,,D*68,0
1779391854457,$GPGGA,193031.000,1205.9943,S,07701.4552,W,2,06,1.5,136.1,M,8.4,M,3.0,0000*49,0
1779391854458,$GPGSA,M,3,15,20,25,29,11,05,,,,,,,2.3,1.5,1.8*3D,0
1779391854458,$GPRMC,193031.000,A,1205.9943,S,07701.4552,W,0.00,0.00,210526,,,D*69,0
1779391854459,$GPGGA,193032.000,1205.9943,S,07701.4552,W,2,06,1.5,136.2,M,8.4,M,2.0,0000*48,0
1779391854459,$GPGSA,M,3,15,20,25,29,11,05,,,,,,,2.3,1.5,1.8*3D,0
1779391854459,$GPGSV,3,1,12,15,62,337,44,20,43,018,41,25,27,256,37,29,23,331,43*7D,0
1779391854459,$GPGSV,3,2,12,11,22,063,42,05,07,007,24,06,10,101,37,12,45,213,44*7A,0
1779391854459,$GPGSV,3,3,12,19,14,141,43,24,49,170,36,48,33,280,36,13,33,033,*7D,0
1779391854460,$GPRMC,193032.000,A,1205.9943,S,07701.4552,W,0.00,0.00,210526,,,D*6A,0
1779391854460,$GPGGA,193033.000,1205.9943,S,07701.4552,W,2,06,1.5,136.2,M,8.4,M,2.0,0000*49,0
1779391854460,$GPGSA,M,3,15,20,25,29,11,05,,,,,,,2.3,1.5,1.8*3D,0
1779391854460,$GPRMC,193033.000,A,1205.9943,S,07701.4552,W,0.00,0.00,210526,,,D*6B,0
1779391854460,$GPGGA,193034.000,1205.9943,S,07701.4552,W,2,06,1.5,136.2,M,8.4,M,3.0,0000*4F,0
1779391854461,$GPGSA,M,3,15,20,25,29,11,05,,,,,,,2.3,1.5,1.8*3D,0
1779391854461,$GPRMC,193034.000,A,1205.9943,S,07701.4552,W,0.00,0.00,210526,,,D*6C,0
1779391854462,$GPGGA,193035.000,1205.9943,S,07701.4552,W,2,06,1.5,136.2,M,8.4,M,4.0,0000*49,0
1779391854463,$GPGSA,M,3,15,20,25,29,11,05,,,,,,,2.3,1.5,1.8*3D,0
1779391854463,$GPRMC,193035.000,A,1205.9943,S,07701.4552,W,0.00,0.00,210526,,,D*6D,0
1779391854464,$GPGGA,193036.000,1205.9943,S,07701.4552,W,2,06,1.5,136.2,M,8.4,M,5.0,0000*4B,0
1779391854465,$GPGSA,M,3,15,20,25,29,11,05,,,,,,,2.3,1.5,1.8*3D,0
1779391854465,$GPRMC,193036.000,A,1205.9943,S,07701.4552,W,0.00,0.00,210526,,,D*6E,0
1779391854466,$GPGGA,193037.000,1205.9943,S,07701.4552,W,2,06,1.5,136.2,M,8.4,M,6.0,0000*49,0
1779391854466,$GPGSA,M,3,15,20,25,29,11,05,,,,,,,2.3,1.5,1.8*3D,0
1779391854466,$GPGSV,3,1,12,15,62,337,44,20,43,018,40,25,27,256,37,29,23,331,43*7C,0
1779391854466,$GPGSV,3,2,12,11,22,063,41,05,07,007,24,06,10,101,36,12,45,213,44*78,0
1779391854466,$GPGSV,3,3,12,19,14,141,42,24,49,170,36,48,33,280,37,13,33,033,*7D,0
1779391854467,$GPRMC,193037.000,A,1205.9943,S,07701.4552,W,0.00,0.00,210526,,,D*6F,0
1779391854467,$GPGGA,193038.000,1205.9943,S,07701.4552,W,2,06,1.5,136.2,M,8.4,M,2.0,0000*42,0
1779391854467,$GPGSA,M,3,15,20,25,29,11,05,,,,,,,2.3,1.5,1.8*3D,0
1779391854467,$GPRMC,193038.000,A,1205.9943,S,07701.4552,W,0.00,0.00,210526,,,D*60,0
1779391854467,$GPGGA,193039.000,1205.9943,S,07701.4552,W,2,06,1.5,136.2,M,8.4,M,2.0,0000*43,0
1779391854467,$GPGSA,M,3,15,20,25,29,11,05,,,,,,,2.3,1.5,1.8*3D,0
1779391854467,$GPRMC,193039.000,A,1205.9943,S,07701.4552,W,0.00,0.00,210526,,,D*61,0
1779391854467,$GPGGA,193040.000,1205.9943,S,07701.4552,W,2,06,1.5,136.2,M,8.4,M,3.0,0000*4C,0
1779391854468,$GPGSA,M,3,15,20,25,29,11,05,,,,,,,2.3,1.5,1.8*3D,0
1779391854468,$GPRMC,193040.000,A,1205.9943,S,07701.4552,W,0.00,0.00,210526,,,D*6F,0
1779391854468,$GPGGA,193041.000,1205.9943,S,07701.4552,W,2,06,1.5,136.2,M,8.4,M,4.0,0000*4A,0
1779391854468,$GPGSA,M,3,15,20,25,29,11,05,,,,,,,2.3,1.5,1.8*3D,0
1779391854468,$GPRMC,193041.000,A,1205.9943,S,07701.4552,W,0.00,0.00,210526,,,D*6E,0
1779391854468,$GPGGA,193042.000,1205.9943,S,07701.4552,W,2,06,1.5,136.2,M,8.4,M,5.0,0000*48,0
1779391854468,$GPGSA,M,3,15,20,25,29,11,05,,,,,,,2.3,1.5,1.8*3D,0
1779391854469,$GPGSV,3,1,12,15,62,337,44,20,43,018,40,25,27,256,37,29,23,331,43*7C,0
1779391854469,$GPGSV,3,2,12,11,22,063,41,05,07,007,23,06,10,101,36,12,45,213,44*7F,0
1779391854469,$GPGSV,3,3,12,19,14,141,42,24,49,170,37,48,33,280,37,13,33,033,*7C,0
1779391854469,$GPRMC,193042.000,A,1205.9943,S,07701.4552,W,0.00,0.00,210526,,,D*6D,0
1779391854469,$GPGGA,193043.000,1205.9943,S,07701.4552,W,2,06,1.5,136.2,M,8.4,M,2.0,0000*4E,0
1779391854469,$GPGSA,M,3,15,20,25,29,11,05,,,,,,,2.3,1.5,1.8*3D,0
1779391854469,$GPRMC,193043.000,A,1205.9943,S,07701.4552,W,0.00,0.00,210526,,,D*6C,0
1779391854469,$GPGGA,193044.000,1205.9943,S,07701.4552,W,2,06,1.5,136.2,M,8.4,M,3.0,0000*48,0
1779391854470,$GPGSA,M,3,15,20,25,29,11,05,,,,,,,2.3,1.5,1.8*3D,0
1779391854470,$GPRMC,193044.000,A,1205.9943,S,07701.4552,W,0.00,0.00,210526,,,D*6B,0
1779391854470,$GPGGA,193045.000,1205.9943,S,07701.4552,W,2,06,1.5,136.2,M,8.4,M,2.0,0000*48,0
1779391854470,$GPGSA,M,3,15,20,25,29,11,05,,,,,,,2.3,1.5,1.8*3D,0
1779391854470,$GPRMC,193045.000,A,1205.9943,S,07701.4552,W,0.00,0.00,210526,,,D*6A,0
1779391854470,$GPGGA,193046.000,1205.9943,S,07701.4552,W,2,06,1.5,136.2,M,8.4,M,3.0,0000*4A,0
1779391854470,$GPGSA,M,3,15,20,25,29,11,05,,,,,,,2.3,1.5,1.8*3D,0
1779391854470,$GPRMC,193046.000,A,1205.9943,S,07701.4552,W,0.00,0.00,210526,,,D*69,0
1779391854471,$GPGGA,193047.000,1205.9943,S,07701.4552,W,2,06,1.5,136.2,M,8.4,M,4.0,0000*4C,0
1779391854471,$GPGSA,M,3,15,20,25,29,11,05,,,,,,,2.3,1.5,1.8*3D,0
1779391854471,$GPGSV,3,1,12,15,62,337,44,20,43,018,39,25,27,256,38,29,23,331,42*7C,0
1779391854471,$GPGSV,3,2,12,11,22,063,40,05,07,007,22,06,10,101,35,12,45,213,44*7C,0
1779391854471,$GPGSV,3,3,12,19,14,141,41,24,49,170,38,48,33,280,35,13,33,033,*72,0
1779391854471,$GPRMC,193047.000,A,1205.9943,S,07701.4552,W,0.00,0.00,210526,,,D*68,0
1779391854471,$GPGGA,193048.000,1205.9943,S,07701.4552,W,2,06,1.5,136.2,M,8.4,M,5.0,0000*42,0
1779391854471,$GPGSA,M,3,15,20,25,29,11,05,,,,,,,2.3,1.5,1.8*3D,0
1779391854472,$GPRMC,193048.000,A,1205.9943,S,07701.4552,W,0.00,0.00,210526,,,D*67,0
1779391854472,$GPGGA,193049.000,1205.9943,S,07701.4552,W,2,06,1.5,136.2,M,8.4,M,2.0,0000*44,0
1779391854472,$GPGSA,M,3,15,20,25,29,11,05,,,,,,,2.3,1.5,1.8*3D,0
1779391854472,$GPRMC,193049.000,A,1205.9943,S,07701.4552,W,0.00,0.00,210526,,,D*66,0
1779391854472,$GPGGA,193050.000,1205.9943,S,07701.4552,W,2,06,1.5,136.3,M,8.4,M,2.0,0000*4D,0
1779391854472,$GPGSA,M,3,15,20,25,29,11,05,,,,,,,2.3,1.5,1.8*3D,0
1779391854472,$GPRMC,193050.000,A,1205.9943,S,07701.4552,W,0.00,0.00,210526,,,D*6E,0
1779391854472,$GPGGA,193051.000,1205.9943,S,07701.4552,W,2,06,1.5,136.3,M,8.4,M,2.0,0000*4C,0
1779391854473,$GPGSA,M,3,15,20,25,29,11,05,,,,,,,2.3,1.5,1.8*3D,0
1779391854473,$GPRMC,193051.000,A,1205.9943,S,07701.4552,W,0.00,0.00,210526,,,D*6F,0
1779391854473,$GPGGA,193052.000,1205.9943,S,07701.4552,W,2,06,1.5,136.4,M,8.4,M,3.0,0000*49,0
1779391854473,$GPGSA,M,3,15,20,25,29,11,05,,,,,,,2.3,1.5,1.8*3D,0
1779391854473,$GPGSV,3,1,12,15,62,337,43,20,43,018,39,25,27,256,37,29,23,331,43*75,0
1779391854473,$GPGSV,3,2,12,11,22,063,40,05,07,007,29,06,10,101,35,12,45,213,44*77,0
1779391854473,$GPGSV,3,3,12,19,14,141,41,24,49,170,38,48,33,280,36,13,33,033,*71,0
1779391854473,$GPRMC,193052.000,A,1205.9943,S,07701.4552,W,0.00,0.00,210526,,,D*6C,0
1779391854474,$GPGGA,193053.000,1205.9943,S,07701.4552,W,2,06,1.5,136.4,M,8.4,M,4.0,0000*4F,0
1779391854474,$GPGSA,M,3,15,20,25,29,11,05,,,,,,,2.3,1.5,1.8*3D,0
1779391854474,$GPRMC,193053.000,A,1205.9943,S,07701.4552,W,0.00,0.00,210526,,,D*6D,0
1779391854474,$GPGGA,193054.000,1205.9943,S,07701.4552,W,2,06,1.5,136.5,M,8.4,M,5.0,0000*48,0
1779391854474,$GPGSA,M,3,15,20,25,29,11,05,,,,,,,2.3,1.5,1.8*3D,0
1779391854512,$GPRMC,193054.000,A,1205.9943,S,07701.4552,W,0.00,0.00,210526,,,D*6A,0
1779391855247,$GPGGA,193055.000,1205.9943,S,07701.4552,W,2,06,1.5,136.5,M,8.4,M,6.0,0000*4A,0
1779391855364,$GPGSA,M,3,15,20,25,29,11,05,,,,,,,2.3,1.5,1.8*3D,0
1779391855525,$GPRMC,193055.000,A,1205.9943,S,07701.4552,W,0.00,0.00,210526,,,D*6B,0
1779391856236,$GPGGA,193056.000,1205.9944,S,07701.4552,W,2,06,1.5,136.5,M,8.4,M,1.0,0000*49,0
1779391856352,$GPGSA,M,3,15,20,25,29,11,05,,,,,,,2.3,1.5,1.8*3D,0
1779391856513,$GPRMC,193056.000,A,1205.9944,S,07701.4552,W,0.00,0.00,210526,,,D*6F,0
1779391857236,$GPGGA,193057.000,1205.9944,S,07701.4552,W,2,06,1.5,136.6,M,8.4,M,2.0,0000*48,0
1779391857352,$GPGSA,M,3,15,20,25,29,11,05,,,,,,,2.3,1.5,1.8*3D,0
1779391857513,$GPGSV,3,1,12,15,61,338,43,20,42,018,40,25,27,255,37,29,24,330,43*73,0
1779391857673,$GPGSV,3,2,12,11,22,065,40,05,07,008,29,06,10,102,35,12,45,212,44*7C,0
1779391857829,$GPGSV,3,3,12,19,13,141,40,24,50,169,39,48,33,280,36,13,32,032,*76,0
1779391857990,$GPRMC,193057.000,A,1205.9944,S,07701.4552,W,0.00,0.00,210526,,,D*6E,0
1779391858230,$GPGGA,193058.000,1205.9944,S,07701.4552,W,2,06,1.5,136.6,M,8.4,M,3.0,0000*46,0
1779391858347,$GPGSA,M,3,15,20,25,29,11,05,,,,,,,2.3,1.5,1.8*3D,0
1779391858507,$GPRMC,193058.000,A,1205.9944,S,07701.4552,W,0.00,0.00,210526,,,D*61,0
1779391859231,$GPGGA,193059.000,1205.9944,S,07701.4552,W,2,06,1.5,136.6,M,8.4,M,4.0,0000*40,0
1779391859348,$GPGSA,M,3,15,20,25,29,11,05,,,,,,,2.3,1.5,1.8*3D,0
1779391859508,$GPRMC,193059.000,A,1205.9944,S,07701.4552,W,0.00,0.00,210526,,,D*60,0
1779391860230,$GPGGA,193100.000,1205.9944,S,07701.4552,W,2,06,1.5,136.6,M,8.4,M,5.0,0000*4C,0
1779391860347,$GPGSA,M,3,15,20,25,29,11,05,,,,,,,2.3,1.5,1.8*3D,0
1779391860507,$GPRMC,193100.000,A,1205.9944,S,07701.4552,W,0.00,0.00,210526,,,D*6D,0
1779391861236,$GPGGA,193101.000,1205.9944,S,07701.4552,W,2,06,1.5,136.7,M,8.4,M,2.0,0000*4B,0
1779391861353,$GPGSA,M,3,15,20,25,29,11,05,,,,,,,2.3,1.5,1.8*3D,0
1779391861513,$GPRMC,193101.000,A,1205.9944,S,07701.4552,W,0.00,0.00,210526,,,D*6C,0
1779391862234,$GPGGA,193102.000,1205.9944,S,07701.4552,W,2,06,1.5,136.7,M,8.4,M,2.0,0000*48,0
1779391862351,$GPGSA,M,3,15,20,25,29,11,05,,,,,,,2.3,1.5,1.8*3D,0
1779391862511,$GPGSV,3,1,12,15,61,338,43,20,42,018,40,25,27,255,37,29,24,330,43*73,0
1779391862672,$GPGSV,3,2,12,11,22,065,40,05,07,008,22,06,10,102,34,12,45,212,44*76,0
1779391862828,$GPGSV,3,3,12,19,13,141,40,24,50,169,40,48,33,280,37,13,32,032,*79,0
1779391862988,$GPRMC,193102.000,A,1205.9944,S,07701.4552,W,0.00,0.00,210526,,,D*6F,0
1779391863230,$GPGGA,193103.000,1205.9944,S,07701.4552,W,2,06,1.5,136.7,M,8.4,M,3.0,0000*48,0
1779391863347,$GPGSA,M,3,15,20,25,29,11,05,,,,,,,2.3,1.5,1.8*3D,0
1779391863507,$GPRMC,193103.000,A,1205.9944,S,07701.4552,W,0.00,0.00,210526,,,D*6E,0
1779391864235,$GPGGA,193104.000,1205.9944,S,07701.4552,W,2,06,1.5,136.7,M,8.4,M,2.0,0000*4E,0
1779391864352,$GPGSA,M,3,15,20,25,29,11,05,,,,,,,2.3,1.5,1.8*3D,1
1779391864512,$GPRMC,193104.000,A,1205.9944,S,07701.4552,W,0.00,0.00,210526,,,D*69,1
1779391865235,$GPGGA,193105.000,1205.9944,S,07701.4552,W,2,06,1.5,136.7,M,8.4,M,3.0,0000*4E,1
1779391865352,$GPGSA,M,3,15,20,25,29,11,05,,,,,,,2.3,1.5,1.8*3D,1
1779391865512,$GPRMC,193105.000,A,1205.9944,S,07701.4552,W,0.00,0.00,210526,,,D*68,1
1779391866234,$GPGGA,193106.000,1205.9944,S,07701.4552,W,2,06,1.5,136.7,M,8.4,M,4.0,0000*4A,1
1779391866351,$GPGSA,M,3,15,20,25,29,11,05,,,,,,,2.3,1.5,1.8*3D,1
1779391866511,$GPRMC,193106.000,A,1205.9944,S,07701.4552,W,0.00,0.00,210526,,,D*6B,1
1779391867231,$GPGGA,193107.000,1205.9944,S,07701.4552,W,2,06,1.5,136.7,M,8.4,M,5.0,0000*4A,1
1779391867348,$GPGSA,M,3,15,20,25,29,11,05,,,,,,,2.3,1.5,1.8*3D,1
1779391867508,$GPGSV,3,1,12,15,61,338,42,20,42,018,40,25,27,255,39,29,24,330,43*7C,1
1779391867669,$GPGSV,3,2,12,11,22,065,40,05,07,008,23,06,10,102,34,12,45,212,44*77,1
1779391867825,$GPGSV,3,3,12,19,13,141,40,24,50,169,40,48,33,280,37,13,32,032,*79,1
1779391867985,$GPRMC,193107.000,A,1205.9944,S,07701.4552,W,0.00,0.00,210526,,,D*6A,1
1779391868235,$GPGGA,193108.000,1205.9944,S,07701.4552,W,2,06,1.5,137.0,M,8.4,M,2.0,0000*44,1
1779391868352,$GPGSA,M,3,15,20,25,29,11,05,,,,,,,2.3,1.5,1.8*3D,1
1779391868513,$GPRMC,193108.000,A,1205.9944,S,07701.4552,W,0.72,0.00,210526,,,D*60,1
1779391869236,$GPGGA,193109.000,1205.9943,S,07701.4555,W,2,06,1.5,137.3,M,8.4,M,2.0,0000*46,1
1779391869353,$GPGSA,M,3,15,20,25,29,11,05,,,,,,,2.3,1.5,1.8*3D,1
1779391869518,$GPRMC,193109.000,A,1205.9943,S,07701.4555,W,1.65,297.08,210526,,,D*62,1
1779391870230,$GPGGA,193110.000,1205.9940,S,07701.4560,W,2,06,1.5,137.5,M,8.4,M,3.0,0000*4C,1
1779391870347,$GPGSA,M,3,15,20,25,29,11,05,,,,,,,2.3,1.5,1.8*3D,1
1779391870512,$GPRMC,193110.000,A,1205.9940,S,07701.4560,W,2.33,299.66,210526,,,D*69,1
1779391871235,$GPGGA,193111.000,1205.9936,S,07701.4567,W,2,06,1.5,137.8,M,8.4,M,2.0,0000*47,1
1779391871352,$GPGSA,M,3,15,20,25,29,11,05,,,,,,,2.3,1.5,1.8*3D,1
1779391871517,$GPRMC,193111.000,A,1205.9936,S,07701.4567,W,3.38,299.12,210526,,,D*67,1
1779391872235,$GPGGA,193112.000,1205.9931,S,07701.4577,W,2,06,1.5,138.1,M,8.4,M,2.0,0000*44,1
1779391872352,$GPGSA,M,3,15,20,25,29,11,05,,,,,,,2.3,1.5,1.8*3D,1
1779391872512,$GPGSV,3,1,12,15,61,338,42,20,42,018,39,25,27,255,37,29,24,330,38*70,1
1779391872673,$GPGSV,3,2,12,11,22,065,39,05,07,008,23,06,10,102,34,12,45,212,43*7E,1
1779391872829,$GPGSV,3,3,12,19,13,141,37,24,50,169,40,48,33,280,37,13,32,032,*79,1
1779391872994,$GPRMC,193112.000,A,1205.9931,S,07701.4577,W,3.96,298.23,210526,,,D*65,1
1779391873232,$GPGGA,193113.000,1205.9925,S,07701.4588,W,2,06,1.5,138.3,M,8.4,M,3.0,0000*43,1
1779391873348,$GPGSA,M,3,15,20,25,29,11,05,,,,,,,2.3,1.5,1.8*3D,1
1779391873513,$GPRMC,193113.000,A,1205.9925,S,07701.4588,W,4.57,298.85,210526,,,D*67,1
1779391874229,$GPGGA,193114.000,1205.9917,S,07701.4599,W,2,06,1.5,138.5,M,8.4,M,4.0,0000*44,1
1779391874346,$GPGSA,M,3,15,20,25,29,11,05,,,,,,,2.3,1.5,1.8*3D,1
1779391874511,$GPRMC,193114.000,A,1205.9917,S,07701.4599,W,4.28,303.30,210526,,,D*64,1
1779391875230,$GPGGA,193115.000,1205.9911,S,07701.4608,W,2,06,1.5,138.6,M,8.4,M,5.0,0000*4A,1
1779391875346,$GPGSA,M,3,15,20,25,29,11,05,,,,,,,2.3,1.5,1.8*3D,1
1779391875511,$GPRMC,193115.000,A,1205.9911,S,07701.4608,W,3.71,304.83,210526,,,D*6C,1
1779391876230,$GPGGA,193116.000,1205.9902,S,07701.4619,W,2,06,1.5,138.7,M,8.4,M,6.0,0000*49,1
1779391876347,$GPGSA,M,3,15,20,25,29,11,05,,,,,,,2.3,1.5,1.8*3D,1
1779391876512,$GPRMC,193116.000,A,1205.9902,S,07701.4619,W,4.78,305.00,210526,,,D*69,1
1779391877231,$GPGGA,193117.000,1205.9892,S,07701.4632,W,2,06,1.5,138.7,M,8.4,M,7.0,0000*48,1
1779391877348,$GPGSA,M,3,15,20,25,29,11,05,,,,,,,2.3,1.5,1.8*3D,1
1779391877509,$GPGSV,3,1,12,15,61,338,42,20,42,018,32,25,27,255,36,29,24,330,39*7B,1
1779391877669,$GPGSV,3,2,12,11,22,065,35,05,07,008,21,06,10,102,26,12,45,212,43*73,1
1779391877825,$GPGSV,3,3,12,19,13,141,37,24,50,169,39,48,33,280,38,13,32,032,*78,1
1779391877990,$GPRMC,193117.000,A,1205.9892,S,07701.4632,W,5.79,309.07,210526,,,D*62,1
1779391878231,$GPGGA,193118.000,1205.9879,S,07701.4644,W,2,06,1.5,138.7,M,8.4,M,8.0,0000*4C,1
1779391878348,$GPGSA,M,3,15,20,25,29,11,05,,,,,,,2.3,1.5,1.8*3D,1
1779391878513,$GPRMC,193118.000,A,1205.9879,S,07701.4644,W,6.24,320.33,210526,,,D*6E,1
1779391879231,$GPGGA,193119.000,1205.9863,S,07701.4652,W,2,06,1.5,138.7,M,8.4,M,9.0,0000*40,1
1779391879348,$GPGSA,M,3,15,20,25,29,11,05,,,,,,,2.3,1.5,1.8*3D,1
1779391879513,$GPRMC,193119.000,A,1205.9863,S,07701.4652,W,6.22,330.40,210526,,,D*60,1
1779391880237,$GPGGA,193120.000,1205.9846,S,07701.4656,W,2,06,1.5,138.7,M,8.4,M,2.0,0000*42,1
1779391880354,$GPGSA,M,3,15,20,25,29,11,05,,,,,,,2.3,1.5,1.8*3D,1
1779391880519,$GPRMC,193120.000,A,1205.9846,S,07701.4656,W,6.35,339.71,210526,,,D*64,1
1779391881232,$GPGGA,193121.000,1205.9824,S,07701.4653,W,2,06,1.5,138.9,M,8.4,M,3.0,0000*4D,1
1779391881348,$GPGSA,M,3,15,20,25,29,11,05,,,,,,,2.3,1.5,1.8*3D,1
1779391881513,$GPRMC,193121.000,A,1205.9824,S,07701.4653,W,7.33,357.95,210526,,,D*61,1
1779391882231,$GPGGA,193122.000,1205.9796,S,07701.4642,W,2,06,1.5,139.3,M,8.4,M,4.0,0000*44,1
1779391882348,$GPGSA,M,3,15,20,25,29,11,05,,,,,,,2.3,1.5,1.8*3D,1
1779391882508,$GPGSV,3,1,12,15,61,338,43,20,42,018,43,25,27,255,35,29,24,330,27*70,1
1779391882668,$GPGSV,3,2,12,11,22,065,41,05,07,008,27,06,10,102,23,12,45,212,44*74,1
1779391882824,$GPGSV,3,3,12,19,13,141,24,24,50,169,41,48,33,280,36,13,32,032,*7B,1
1779391882987,$GPRMC,193122.000,A,1205.9796,S,07701.4642,W,9.54,16.67,210526,,,D*50,1
1779391883232,$GPGGA,193123.000,1205.9761,S,07701.4628,W,2,06,1.5,139.8,M,8.4,M,5.0,0000*4B,1
1779391883349,$GPGSA,M,3,15,20,25,29,11,05,,,,,,,2.3,1.5,1.8*3D,1
1779391883514,$GPRMC,193123.000,A,1205.9761,S,07701.4628,W,13.51,24.08,210526,,,D*63,1
1779391884232,$GPGGA,193124.000,1205.9724,S,07701.4611,W,2,06,1.5,139.9,M,8.4,M,6.0,0000*45,1
1779391884349,$GPGSA,M,3,15,20,25,29,11,05,,,,,,,2.3,1.5,1.8*3D,1
1779391884514,$GPRMC,193124.000,A,1205.9724,S,07701.4611,W,14.21,25.01,210526,,,D*67,1
1779391885232,$GPGGA,193125.000,1205.9684,S,07701.4594,W,2,06,1.5,139.9,M,8.4,M,7.0,0000*40,1
1779391885349,$GPGSA,M,3,15,20,25,29,11,05,,,,,,,2.3,1.5,1.8*3D,1
1779391885514,$GPRMC,193125.000,A,1205.9684,S,07701.4594,W,15.13,25.92,210526,,,D*69,1
1779391886231,$GPGGA,193126.000,1205.9641,S,07701.4575,W,2,06,1.5,140.0,M,8.4,M,8.0,0000*4D,1
1779391886348,$GPGSA,M,3,15,20,25,29,11,05,,,,,,,2.3,1.5,1.8*3D,1
1779391886513,$GPRMC,193126.000,A,1205.9641,S,07701.4575,W,16.09,26.38,210526,,,D*67,1
1779391887235,$GPGGA,193127.000,1205.9591,S,07701.4553,W,2,06,1.5,140.9,M,8.4,M,2.0,0000*45,1
1779391887352,$GPGSA,M,3,15,20,25,29,11,05,,,,,,,2.3,1.5,1.8*3D,1
1779391887512,$GPGSV,3,1,12,15,61,338,45,20,42,018,44,25,27,255,42,29,24,330,36*71,1
1779391887673,$GPGSV,3,2,12,11,22,065,28,05,07,008,27,06,10,102,17,12,45,212,46*7E,1
1779391887829,$GPGSV,3,3,12,19,13,141,28,24,50,169,42,48,33,280,44,13,32,032,*71,1
1779391887994,$GPRMC,193127.000,A,1205.9591,S,07701.4553,W,15.86,25.84,210526,,,D*6C,1
1779391888240,$GPGGA,193128.000,1205.9541,S,07701.4534,W,1,10,0.8,141.1,M,8.4,M,,0000*6B,1
1779391888375,$GPGSA,M,3,15,24,12,20,25,29,11,19,06,05,,,1.7,0.8,1.4*31,1
1779391888540,$GPRMC,193128.000,A,1205.9541,S,07701.4534,W,15.65,25.01,210526,,,A*6A,1
1779391889234,$GPGGA,193129.000,1205.9500,S,07701.4518,W,2,05,1.7,141.9,M,8.4,M,2.0,0000*4C,1
1779391889346,$GPGSA,M,3,15,20,25,11,05,,,,,,,,2.5,1.7,1.8*32,1
1779391889511,$GPRMC,193129.000,A,1205.9500,S,07701.4518,W,15.24,24.22,210526,,,D*60,1
1779391890230,$GPGGA,193130.000,1205.9460,S,07701.4501,W,2,05,1.7,142.4,M,8.4,M,3.0,0000*44,1
1779391890342,$GPGSA,M,3,15,20,25,11,05,,,,,,,,2.5,1.7,1.8*32,1
1779391890507,$GPRMC,193130.000,A,1205.9460,S,07701.4501,W,14.97,24.33,210526,,,D*6E,1
1779391891236,$GPGGA,193131.000,1205.9421,S,07701.4483,W,2,05,1.7,142.8,M,8.4,M,2.0,0000*46,1
1779391891348,$GPGSA,M,3,15,20,25,11,05,,,,,,,,2.5,1.7,1.8*32,1
1779391891513,$GPRMC,193131.000,A,1205.9421,S,07701.4483,W,14.69,24.87,210526,,,D*6F,1
1779391892234,$GPGGA,193132.000,1205.9385,S,07701.4466,W,2,05,1.7,143.3,M,8.4,M,2.0,0000*4D,1
1779391892347,$GPGSA,M,3,15,20,25,11,05,,,,,,,,2.5,1.7,1.8*32,1
1779391892507,$GPGSV,3,1,12,15,60,338,43,20,42,018,42,25,27,255,43,11,22,065,28*70,1
1779391892667,$GPGSV,3,2,12,05,07,008,33,06,10,102,18,12,45,211,46,19,13,141,22*70,1
1779391892819,$GPGSV,3,3,12,24,50,168,43,48,33,280,38,13,32,032,,14,31,219,*73,1
1779391892984,$GPRMC,193132.000,A,1205.9385,S,07701.4466,W,14.60,24.35,210526,,,D*6E,1
1779391893235,$GPGGA,193133.000,1205.9348,S,07701.4450,W,2,05,1.7,143.9,M,8.4,M,3.0,0000*43,1
1779391893348,$GPGSA,M,3,15,20,25,11,05,,,,,,,,2.5,1.7,1.8*32,1
1779391893513,$GPRMC,193133.000,A,1205.9348,S,07701.4450,W,14.53,23.65,210526,,,D*69,1
1779391894231,$GPGGA,193134.000,1205.9310,S,07701.4433,W,2,06,1.5,144.1,M,8.4,M,4.0,0000*45,1
1779391894348,$GPGSA,M,3,15,20,25,29,11,05,,,,,,,2.3,1.5,1.8*3D,1
1779391894513,$GPRMC,193134.000,A,1205.9310,S,07701.4433,W,14.57,23.86,210526,,,D*6F,1
1779391895231,$GPGGA,193135.000,1205.9271,S,07701.4417,W,2,06,1.5,144.1,M,8.4,M,5.0,0000*45,1
1779391895348,$GPGSA,M,3,15,20,25,29,11,05,,,,,,,2.3,1.5,1.8*3D,1
1779391895513,$GPRMC,193135.000,A,1205.9271,S,07701.4417,W,15.00,24.30,210526,,,D*67,1
1779391896235,$GPGGA,193136.000,1205.9235,S,07701.4398,W,2,06,1.5,144.1,M,8.4,M,6.0,0000*45,1
1779391896352,$GPGSA,M,3,15,20,25,29,11,05,,,,,,,2.3,1.5,1.8*3D,1
1779391896517,$GPRMC,193136.000,A,1205.9235,S,07701.4398,W,14.86,25.97,210526,,,D*67,1
1779391897231,$GPGGA,193137.000,1205.9201,S,07701.4376,W,2,06,1.5,144.4,M,8.4,M,7.0,0000*47,1
1779391897348,$GPGSA,M,3,15,20,25,29,11,05,,,,,,,2.3,1.5,1.8*3D,1
1779391897508,$GPGSV,3,1,12,15,60,338,45,20,42,018,44,25,27,255,40,29,24,330,36*72,1
1779391897669,$GPGSV,3,2,12,11,22,065,39,05,07,008,28,12,45,211,46,19,13,141,18*77,1
1779391897820,$GPGSV,3,3,12,24,50,168,43,48,33,280,36,13,32,032,,14,31,219,*7D,1
1779391897985,$GPRMC,193137.000,A,1205.9201,S,07701.4376,W,14.44,27.03,210526,,,D*60,1
1779391898230,$GPGGA,193138.000,1205.9168,S,07701.4352,W,2,06,1.5,144.6,M,8.4,M,8.0,0000*4F,1
1779391898347,$GPGSA,M,3,15,20,25,29,11,05,,,,,,,2.3,1.5,1.8*3D,1
1779391898512,$GPRMC,193138.000,A,1205.9168,S,07701.4352,W,14.65,26.29,210526,,,D*6F,1
1779391899235,$GPGGA,193139.000,1205.9135,S,07701.4331,W,2,06,1.5,144.9,M,8.4,M,2.0,0000*46,1
1779391899352,$GPGSA,M,3,15,20,25,29,11,05,,,,,,,2.3,1.5,1.8*3D,1
1779391899517,$GPRMC,193139.000,A,1205.9135,S,07701.4331,W,14.66,25.69,210526,,,D*67,1
1779391900231,$GPGGA,193140.000,1205.9100,S,07701.4310,W,2,06,1.5,145.4,M,8.4,M,3.0,0000*40,1
1779391900348,$GPGSA,M,3,15,20,25,29,11,05,,,,,,,2.3,1.5,1.8*3D,1
1779391900513,$GPRMC,193140.000,A,1205.9100,S,07701.4310,W,14.59,25.23,210526,,,D*6E,1
1779391901233,$GPGGA,193141.000,1205.9064,S,07701.4293,W,2,06,1.5,145.8,M,8.4,M,4.0,0000*43,1
1779391901350,$GPGSA,M,3,15,20,25,29,11,05,,,,,,,2.3,1.5,1.8*3D,1
1779391901515,$GPRMC,193141.000,A,1205.9064,S,07701.4293,W,14.29,24.78,210526,,,D*6E,1
1779391902231,$GPGGA,193142.000,1205.9028,S,07701.4275,W,2,06,1.5,146.0,M,8.4,M,5.0,0000*4A,1
1779391902348,$GPGSA,M,3,15,20,25,29,11,05,,,,,,,2.3,1.5,1.8*3D,1
1779391902509,$GPGSV,3,1,12,15,60,338,45,20,42,018,45,25,27,255,30,29,24,330,39*7B,1
1779391902669,$GPGSV,3,2,12,11,22,065,25,05,07,008,31,06,10,102,28,12,45,211,46*7B,1
1779391902825,$GPGSV,3,3,12,19,13,141,26,24,50,168,43,48,33,280,40,13,32,032,*7B,1
1779391902990,$GPRMC,193142.000,A,1205.9028,S,07701.4275,W,14.24,25.38,210526,,,D*65,1
1779391903239,$GPGGA,193143.000,1205.8995,S,07701.4257,W,2,06,1.5,146.5,M,8.4,M,2.0,0000*47,1
1779391903356,$GPGSA,M,3,15,20,25,29,11,05,,,,,,,2.3,1.5,1.8*3D,1
1779391903521,$GPRMC,193143.000,A,1205.8995,S,07701.4257,W,13.95,25.25,210526,,,D*6B,1
1779391904237,$GPGGA,193144.000,1205.8959,S,07701.4240,W,2,06,1.5,147.0,M,8.4,M,2.0,0000*42,1
1779391904354,$GPGSA,M,3,15,20,25,29,11,05,,,,,,,2.3,1.5,1.8*3D,1
1779391904519,$GPRMC,193144.000,A,1205.8959,S,07701.4240,W,14.13,23.14,210526,,,D*67,1
1779391905233,$GPGGA,193145.000,1205.8928,S,07701.4220,W,2,06,1.5,147.8,M,8.4,M,3.0,0000*4A,1
1779391905349,$GPGSA,M,3,15,20,25,29,11,05,,,,,,,2.3,1.5,1.8*3D,1
1779391905514,$GPRMC,193145.000,A,1205.8928,S,07701.4220,W,13.42,24.70,210526,,,D*60,1
1779391906233,$GPGGA,193146.000,1205.8895,S,07701.4205,W,2,06,1.5,148.0,M,8.4,M,4.0,0000*49,1
1779391906350,$GPGSA,M,3,15,20,25,29,11,05,,,,,,,2.3,1.5,1.8*3D,1
1779391906515,$GPRMC,193146.000,A,1205.8895,S,07701.4205,W,12.96,24.22,210526,,,D*6C,1
1779391907232,$GPGGA,193147.000,1205.8857,S,07701.4193,W,2,06,1.5,147.8,M,8.4,M,5.0,0000*4C,1
1779391907349,$GPGSA,M,3,15,20,25,29,11,05,,,,,,,2.3,1.5,1.8*3D,1
1779391907509,$GPGSV,3,1,12,15,60,338,46,20,42,018,45,25,27,255,37,29,24,330,36*70,1
1779391907670,$GPGSV,3,2,12,11,22,065,26,05,07,008,28,06,10,102,13,12,45,211,46*78,1
1779391907825,$GPGSV,3,3,12,19,13,141,21,24,50,168,43,48,33,280,36,13,32,032,*7D,1
1779391907990,$GPRMC,193147.000,A,1205.8857,S,07701.4193,W,12.94,23.19,210526,,,D*62,1
1779391908233,$GPGGA,193148.000,1205.8823,S,07701.4180,W,2,06,1.5,147.6,M,8.4,M,6.0,0000*4F,1
1779391908350,$GPGSA,M,3,15,20,25,29,11,05,,,,,,,2.3,1.5,1.8*3D,1
1779391908515,$GPRMC,193148.000,A,1205.8823,S,07701.4180,W,12.16,24.98,210526,,,D*68,1
1779391909239,$GPGGA,193149.000,1205.8790,S,07701.4168,W,2,06,1.5,147.5,M,8.4,M,2.0,0000*48,1
1779391909355,$GPGSA,M,3,15,20,25,29,11,05,,,,,,,2.3,1.5,1.8*3D,1
1779391909520,$GPRMC,193149.000,A,1205.8790,S,07701.4168,W,11.36,25.88,210526,,,D*69,1
1779391910237,$GPGGA,193150.000,1205.8761,S,07701.4157,W,2,06,1.5,147.4,M,8.4,M,2.0,0000*43,1
1779391910354,$GPGSA,M,3,15,20,25,29,11,05,,,,,,,2.3,1.5,1.8*3D,1
1779391910519,$GPRMC,193150.000,A,1205.8761,S,07701.4157,W,10.21,25.11,210526,,,D*64,1
1779391911238,$GPGGA,193151.000,1205.8737,S,07701.4149,W,2,06,1.5,147.1,M,8.4,M,2.0,0000*4B,1
1779391911355,$GPGSA,M,3,15,20,25,29,11,05,,,,,,,2.3,1.5,1.8*3D,1
1779391911518,$GPRMC,193151.000,A,1205.8737,S,07701.4149,W,7.78,22.34,210526,,,D*53,1
1779391912239,$GPGGA,193152.000,1205.8718,S,07701.4145,W,2,06,1.5,146.9,M,8.4,M,2.0,0000*40,1
1779391912355,$GPGSA,M,3,15,20,25,29,11,05,,,,,,,2.3,1.5,1.8*3D,1
1779391912516,$GPGSV,3,1,12,15,60,338,46,20,42,018,46,25,27,255,42,29,24,330,38*7F,1
1779391912676,$GPGSV,3,2,12,11,22,065,24,05,07,008,23,06,10,102,19,12,45,211,47*7A,1
1779391912832,$GPGSV,3,3,12,19,13,141,33,24,50,168,43,48,33,280,43,13,32,032,*7C,1
1779391912995,$GPRMC,193152.000,A,1205.8718,S,07701.4145,W,6.08,13.56,210526,,,D*51,1
1779391913238,$GPGGA,193153.000,1205.8702,S,07701.4146,W,2,06,1.5,146.6,M,8.4,M,2.0,0000*46,1
1779391913355,$GPGSA,M,3,15,20,25,29,11,05,,,,,,,2.3,1.5,1.8*3D,1
1779391913520,$GPRMC,193153.000,A,1205.8702,S,07701.4146,W,5.45,355.82,210526,,,D*6A,1
1779391914237,$GPGGA,193154.000,1205.8688,S,07701.4155,W,2,06,1.5,146.3,M,8.4,M,3.0,0000*44,1
1779391914354,$GPGSA,M,3,15,20,25,29,11,05,,,,,,,2.3,1.5,1.8*3D,1
1779391914519,$GPRMC,193154.000,A,1205.8688,S,07701.4155,W,5.78,332.26,210526,,,D*6D,1
1779391915237,$GPGGA,193155.000,1205.8677,S,07701.4170,W,2,05,1.6,146.1,M,8.4,M,2.0,0000*41,1
1779391915349,$GPGSA,M,3,15,20,25,29,11,,,,,,,,2.9,1.6,2.4*3E,1
1779391915514,$GPRMC,193155.000,A,1205.8677,S,07701.4170,W,6.93,305.59,210526,,,D*61,1
1779391916235,$GPGGA,193156.000,1205.8670,S,07701.4193,W,2,05,1.6,145.8,M,8.4,M,2.0,0000*42,1
1779391916347,$GPGSA,M,3,15,20,25,29,11,,,,,,,,2.9,1.6,2.4*3E,1
1779391916512,$GPRMC,193156.000,A,1205.8670,S,07701.4193,W,8.94,288.31,210526,,,D*6B,1
1779391917235,$GPGGA,193157.000,1205.8666,S,07701.4219,W,2,05,1.6,145.4,M,8.4,M,2.0,0000*49,1
1779391917348,$GPGSA,M,3,15,20,25,29,11,,,,,,,,2.9,1.6,2.4*3E,1
1779391917508,$GPGSV,3,1,12,15,60,338,46,20,42,018,43,25,27,255,41,29,24,330,40*76,1
1779391917668,$GPGSV,3,2,12,11,22,065,25,06,10,102,37,12,45,211,46,19,13,141,28*79,1
1779391917820,$GPGSV,3,3,12,24,50,168,44,48,33,280,44,13,32,032,,14,31,219,*7F,1
1779391917985,$GPRMC,193157.000,A,1205.8666,S,07701.4219,W,9.31,277.07,210526,,,D*67,1
1779391918234,$GPGGA,193158.000,1205.8665,S,07701.4248,W,2,05,1.6,145.0,M,8.4,M,3.0,0000*44,1
1779391918346,$GPGSA,M,3,15,20,25,29,11,,,,,,,,2.9,1.6,2.5*3F,1
1779391918514,$GPRMC,193158.000,A,1205.8665,S,07701.4248,W,10.57,274.19,210526,,,D*5B,1
1779391919235,$GPGGA,193159.000,1205.8662,S,07701.4279,W,2,05,1.6,144.9,M,8.4,M,2.0,0000*49,1
1779391919347,$GPGSA,M,3,15,20,25,29,11,,,,,,,,3.0,1.6,2.5*37,1
1779391919515,$GPRMC,193159.000,A,1205.8662,S,07701.4279,W,10.84,274.35,210526,,,D*5F,1
1779391920235,$GPGGA,193200.000,1205.8658,S,07701.4313,W,2,05,1.6,145.4,M,8.4,M,3.0,0000*4F,1
1779391920347,$GPGSA,M,3,15,20,25,29,11,,,,,,,,3.0,1.6,2.5*37,1
1779391920515,$GPRMC,193200.000,A,1205.8658,S,07701.4313,W,10.83,274.17,210526,,,D*53,1
1779391921236,$GPGGA,193201.000,1205.8655,S,07701.4346,W,2,05,1.6,145.8,M,8.4,M,2.0,0000*4E,1
1779391921349,$GPGSA,M,3,15,20,25,29,11,,,,,,,,3.0,1.6,2.5*37,1
1779391921516,$GPRMC,193201.000,A,1205.8655,S,07701.4346,W,10.73,273.00,210526,,,D*51,1
1779391922234,$GPGGA,193202.000,1205.8651,S,07701.4378,W,2,05,1.6,146.0,M,8.4,M,2.0,0000*4F,1
1779391922347,$GPGSA,M,3,15,20,25,29,11,,,,,,,,3.0,1.6,2.5*37,1
1779391922507,$GPGSV,3,1,12,15,60,338,44,20,42,018,42,25,27,255,18,29,24,330,26*79,1
1779391922668,$GPGSV,3,2,12,11,22,065,26,06,10,102,40,12,45,211,42,19,13,141,31*76,1
1779391922819,$GPGSV,3,3,12,24,50,168,44,48,33,280,44,13,32,032,,14,31,219,*7F,1
1779391922986,$GPRMC,193202.000,A,1205.8651,S,07701.4378,W,11.01,273.71,210526,,,D*59,1
1779391923234,$GPGGA,193203.000,1205.8650,S,07701.4409,W,2,05,1.6,146.2,M,8.4,M,2.0,0000*4C,1
1779391923347,$GPGSA,M,3,15,20,25,29,11,,,,,,,,3.0,1.6,2.5*37,1
1779391923514,$GPRMC,193203.000,A,1205.8650,S,07701.4409,W,10.91,272.45,210526,,,D*56,1
1779391924229,$GPGGA,193204.000,1205.8643,S,07701.4447,W,2,05,1.6,146.2,M,8.4,M,3.0,0000*42,1
1779391924341,$GPGSA,M,3,15,20,25,29,11,,,,,,,,3.0,1.6,2.5*37,1
1779391924509,$GPRMC,193204.000,A,1205.8643,S,07701.4447,W,11.87,273.67,210526,,,D*5E,1
1779391925234,$GPGGA,193205.000,1205.8639,S,07701.4481,W,2,05,1.6,146.0,M,8.4,M,4.0,0000*41,1
1779391925346,$GPGSA,M,3,15,20,25,29,11,,,,,,,,3.0,1.6,2.5*37,1
1779391925514,$GPRMC,193205.000,A,1205.8639,S,07701.4481,W,11.17,273.97,210526,,,D*5E,1
1779391926229,$GPGGA,193206.000,1205.8637,S,07701.4510,W,2,05,1.6,146.0,M,8.4,M,5.0,0000*44,1
1779391926341,$GPGSA,M,3,15,20,25,29,11,,,,,,,,3.0,1.6,2.5*37,1
1779391926508,$GPRMC,193206.000,A,1205.8637,S,07701.4510,W,10.19,273.88,210526,,,D*5B,1
1779391927237,$GPGGA,193207.000,1205.8632,S,07701.4540,W,2,05,1.6,146.4,M,8.4,M,6.0,0000*42,1
1779391927349,$GPGSA,M,3,15,20,25,29,11,,,,,,,,3.0,1.6,2.5*37,1
1779391927510,$GPGSV,3,1,12,15,60,338,44,20,42,018,42,25,27,255,17,29,24,330,32*73,1
1779391927670,$GPGSV,3,2,12,11,22,065,29,05,07,008,04,06,10,102,40,12,45,211,45*7C,1
1779391927826,$GPGSV,3,3,12,19,13,141,31,24,50,168,46,48,33,280,27,13,32,032,*79,1
1779391927991,$GPRMC,193207.000,A,1205.8632,S,07701.4540,W,9.80,274.38,210526,,,D*6E,1
1779391928232,$GPGGA,193208.000,1205.8627,S,07701.4563,W,2,05,1.6,146.7,M,8.4,M,7.0,0000*4A,1
1779391928344,$GPGSA,M,3,15,20,25,29,11,,,,,,,,3.0,1.6,2.5*37,1
1779391928509,$GPRMC,193208.000,A,1205.8627,S,07701.4563,W,8.60,276.65,210526,,,D*61,1
1779391929232,$GPGGA,193209.000,1205.8627,S,07701.4582,W,2,05,1.6,147.0,M,8.4,M,8.0,0000*4D,1
1779391929344,$GPGSA,M,3,15,20,25,29,11,,,,,,,,3.0,1.6,2.5*37,1
1779391929509,$GPRMC,193209.000,A,1205.8627,S,07701.4582,W,8.07,275.36,210526,,,D*6B,1
1779391930231,$GPGGA,193210.000,1205.8639,S,07701.4596,W,2,05,1.6,147.2,M,8.4,M,9.0,0000*4C,1
1779391930344,$GPGSA,M,3,15,20,25,29,11,,,,,,,,3.0,1.6,2.5*37,1
1779391930509,$GPRMC,193210.000,A,1205.8639,S,07701.4596,W,7.48,268.41,210526,,,D*61,1
1779391931233,$GPGGA,193211.000,1205.8654,S,07701.4611,W,2,05,1.6,147.0,M,8.4,M,10.0,0000*70,1
1779391931345,$GPGSA,M,3,15,20,25,29,11,,,,,,,,3.0,1.6,2.5*37,1
1779391931510,$GPRMC,193211.000,A,1205.8654,S,07701.4611,W,7.81,258.01,210526,,,D*65,1
1779391932233,$GPGGA,193212.000,1205.8673,S,07701.4624,W,2,05,1.6,146.9,M,8.4,M,11.0,0000*79,1
1779391932345,$GPGSA,M,3,15,20,25,29,11,,,,,,,,3.0,1.6,2.5*37,1
1779391932505,$GPGSV,3,1,12,15,60,338,43,20,42,018,43,25,27,255,23,29,24,330,25*74,1
1779391932666,$GPGSV,3,2,12,11,22,065,39,05,07,008,18,06,10,102,29,12,45,211,46*7C,1
1779391932822,$GPGSV,3,3,12,19,13,141,31,24,50,168,46,48,33,280,22,13,32,032,*7C,1
1779391932987,$GPRMC,193212.000,A,1205.8673,S,07701.4624,W,7.99,247.69,210526,,,D*6C,1
1779391933236,$GPGGA,193213.000,1205.8694,S,07701.4637,W,2,05,1.6,147.0,M,8.4,M,12.0,0000*78,1
1779391933349,$GPGSA,M,3,15,20,25,29,11,,,,,,,,3.0,1.6,2.5*37,1
1779391933514,$GPRMC,193213.000,A,1205.8694,S,07701.4637,W,8.20,238.09,210526,,,D*65,1
1779391934232,$GPGGA,193214.000,1205.8711,S,07701.4652,W,2,05,1.6,147.3,M,8.4,M,13.0,0000*72,1
1779391934344,$GPGSA,M,3,15,20,25,29,11,,,,,,,,3.0,1.6,2.5*37,1
1779391934509,$GPRMC,193214.000,A,1205.8711,S,07701.4652,W,7.64,232.80,210526,,,D*69,1
1779391935233,$GPGGA,193215.000,1205.8725,S,07701.4664,W,2,05,1.6,147.8,M,8.4,M,14.0,0000*7D,1
1779391935345,$GPGSA,M,3,15,20,25,29,11,,,,,,,,3.0,1.6,2.5*37,1
1779391935510,$GPRMC,193215.000,A,1205.8725,S,07701.4664,W,6.52,228.53,210526,,,D*6B,1
1779391936233,$GPGGA,193216.000,1205.8738,S,07701.4671,W,2,05,1.6,148.6,M,8.4,M,15.0,0000*76,1
1779391936346,$GPGSA,M,3,15,20,25,29,11,,,,,,,,3.0,1.6,2.5*37,1
1779391936511,$GPRMC,193216.000,A,1205.8738,S,07701.4671,W,5.53,224.01,210526,,,D*69,1
1779391937235,$GPGGA,193217.000,1205.8750,S,07701.4675,W,2,05,1.6,149.3,M,8.4,M,16.0,0000*7A,1
1779391937347,$GPGSA,M,3,15,20,25,29,11,,,,,,,,3.0,1.6,2.5*37,1
1779391937508,$GPGSV,3,1,12,15,60,338,44,20,42,018,44,25,27,255,29,29,24,330,28*73,1
1779391937668,$GPGSV,3,2,12,11,22,065,29,05,07,008,19,06,10,102,31,12,45,211,47*74,1
1779391937824,$GPGSV,3,3,12,19,13,141,25,24,50,168,45,48,33,280,25,13,32,032,*7D,1
1779391937989,$GPRMC,193217.000,A,1205.8750,S,07701.4675,W,4.25,219.77,210526,,,D*6D,1
1779391938232,$GPGGA,193218.000,1205.8754,S,07701.4676,W,2,05,1.6,150.1,M,8.4,M,17.0,0000*79,1
1779391938344,$GPGSA,M,3,15,20,25,29,11,,,,,,,,3.0,1.6,2.5*37,1
1779391938509,$GPRMC,193218.000,A,1205.8754,S,07701.4676,W,2.05,217.62,210526,,,D*6B,1
1779391939236,$GPGGA,193219.000,1205.8760,S,07701.4674,W,2,06,1.5,150.5,M,8.4,M,18.0,0000*76,1
1779391939353,$GPGSA,M,3,15,20,25,29,11,05,,,,,,,2.3,1.5,1.8*3D,1
1779391939518,$GPRMC,193219.000,A,1205.8760,S,07701.4674,W,1.21,210.47,210526,,,D*6A,1
1779391940237,$GPGGA,193220.000,1205.8758,S,07701.4674,W,1,10,0.8,150.3,M,8.4,M,,0000*6E,0
1779391940372,$GPGSA,M,3,15,24,12,20,25,29,11,19,06,05,,,1.7,0.8,1.4*31,0
1779391940537,$GPRMC,193220.000,A,1205.8758,S,07701.4674,W,0.01,210.47,210526,,,A*6D,0
1779391941237,$GPGGA,193221.000,1205.8760,S,07701.4674,W,1,10,0.8,150.3,M,8.4,M,,0000*64,0
1779391941372,$GPGSA,M,3,15,24,12,20,25,29,11,19,06,05,,,1.7,0.8,1.4*31,0
1779391941537,$GPRMC,193221.000,A,1205.8760,S,07701.4674,W,0.00,210.47,210526,,,A*66,0
1779391942235,$GPGGA,193222.000,1205.8761,S,07701.4673,W,1,09,0.9,150.3,M,8.4,M,,0000*68,0
1779391942366,$GPGSA,M,3,15,24,12,20,25,29,11,19,06,,,,1.9,0.9,1.7*38,0
1779391942526,$GPGSV,3,1,12,15,60,338,45,24,50,168,44,12,45,211,46,20,42,018,46*72,0
1779391942687,$GPGSV,3,2,12,25,27,255,15,29,24,330,29,11,22,065,30,19,13,141,24*71,0
1779391942843,$GPGSV,3,3,12,06,10,102,38,05,07,008,24,48,33,280,21,13,32,032,*7E,0
1779391943007,$GPRMC,193222.000,A,1205.8761,S,07701.4673,W,0.00,210.47,210526,,,A*63,0
1779391943236,$GPGGA,193223.000,1205.8762,S,07701.4673,W,1,10,0.8,150.4,M,8.4,M,,0000*64,0
1779391943371,$GPGSA,M,3,15,24,12,20,25,29,11,19,06,05,,,1.7,0.8,1.4*31,0
1779391943536,$GPRMC,193223.000,A,1205.8762,S,07701.4673,W,0.00,210.47,210526,,,A*61,0
1779391944235,$GPGGA,193224.000,1205.8763,S,07701.4673,W,1,10,0.8,150.4,M,8.4,M,,0000*62,0
1779391944371,$GPGSA,M,3,15,24,12,20,25,29,11,19,06,05,,,1.7,0.8,1.4*31,0
1779391944536,$GPRMC,193224.000,A,1205.8763,S,07701.4673,W,0.00,210.47,210526,,,A*67,0
1779391945236,$GPGGA,193225.000,1205.8764,S,07701.4672,W,1,10,0.8,150.4,M,8.4,M,,0000*65,0
1779391945371,$GPGSA,M,3,15,24,12,20,25,29,11,19,06,05,,,1.7,0.8,1.4*31,0
1779391945536,$GPRMC,193225.000,A,1205.8764,S,07701.4672,W,0.00,210.47,210526,,,A*60,0
1779391946233,$GPGGA,193226.000,1205.8765,S,07701.4672,W,1,09,0.9,150.4,M,8.4,M,,0000*6E,0
1779391946363,$GPGSA,M,3,15,24,12,20,25,29,11,19,06,,,,1.9,0.9,1.7*38,0
1779391946528,$GPRMC,193226.000,A,1205.8765,S,07701.4672,W,0.00,210.47,210526,,,A*62,0
1779391947232,$GPGGA,193227.000,1205.8766,S,07701.4672,W,1,09,1.1,150.5,M,8.4,M,,0000*64,0
1779391947363,$GPGSA,M,3,15,24,12,20,29,11,19,06,05,,,,1.9,1.1,1.6*32,0
1779391947523,$GPGSV,3,1,12,15,60,338,44,24,50,168,44,12,45,211,45,20,42,018,46*70,0
1779391947684,$GPGSV,3,2,12,29,24,330,30,11,22,065,31,19,13,141,25,06,10,102,38*72,0
1779391947835,$GPGSV,3,3,12,05,07,008,24,25,27,255,05,48,33,280,,13,32,032,*77,0
1779391948000,$GPRMC,193227.000,A,1205.8766,S,07701.4672,W,0.00,210.47,210526,,,A*60,0
1779391948233,$GPGGA,193228.000,1205.8767,S,07701.4672,W,1,09,1.1,150.5,M,8.4,M,,0000*6A,0
1779391948363,$GPGSA,M,3,15,24,12,20,29,11,19,06,05,,,,1.9,1.1,1.6*32,0
1779391948528,$GPRMC,193228.000,A,1205.8767,S,07701.4672,W,0.00,210.47,210526,,,A*6E,0
1779391949233,$GPGGA,193229.000,1205.8768,S,07701.4672,W,1,09,1.1,150.5,M,8.4,M,,0000*64,0
1779391949364,$GPGSA,M,3,15,24,12,20,29,11,19,06,05,,,,1.9,1.1,1.6*32,0
1779391949529,$GPRMC,193229.000,A,1205.8768,S,07701.4672,W,0.00,210.47,210526,,,A*60,0
1779391950231,$GPGGA,193230.000,1205.8768,S,07701.4671,W,1,09,1.1,150.5,M,8.4,M,,0000*6F,1
1779391950362,$GPGSA,M,3,15,24,12,20,29,11,19,06,05,,,,1.9,1.1,1.6*32,1
1779391950526,$GPRMC,193230.000,A,1205.8768,S,07701.4671,W,0.00,210.47,210526,,,A*6B,1
1779391951232,$GPGGA,193231.000,1205.8769,S,07701.4671,W,1,09,1.1,150.6,M,8.4,M,,0000*6C,1
1779391951362,$GPGSA,M,3,15,24,12,20,29,11,19,06,05,,,,1.9,1.1,1.6*32,1
1779391951527,$GPRMC,193231.000,A,1205.8769,S,07701.4671,W,0.00,210.47,210526,,,A*6B,1
1779391952232,$GPGGA,193232.000,1205.8770,S,07701.4671,W,1,09,1.1,150.6,M,8.4,M,,0000*67,1
1779391952363,$GPGSA,M,3,15,24,12,20,29,11,19,06,05,,,,1.9,1.1,1.6*32,1
1779391952524,$GPGSV,3,1,12,15,60,338,44,24,50,168,44,12,45,211,44,20,42,018,46*71,1
1779391952684,$GPGSV,3,2,12,29,24,330,30,11,22,065,30,19,13,141,25,06,10,102,38*73,1
1779391952831,$GPGSV,3,3,12,05,07,008,24,48,33,280,,13,32,032,,14,31,219,*7F,1
1779391952996,$GPRMC,193232.000,A,1205.8770,S,07701.4671,W,0.00,210.47,210526,,,A*60,1
1779391953232,$GPGGA,193233.000,1205.8797,S,07701.4663,W,1,09,1.1,150.3,M,8.4,M,,0000*69,1
1779391953362,$GPGSA,M,3,15,24,12,20,29,11,19,06,05,,,,1.9,1.1,1.6*32,1
1779391953527,$GPRMC,193233.000,A,1205.8797,S,07701.4663,W,1.87,206.53,210526,,,A*67,1
1779391954235,$GPGGA,193234.000,1205.8812,S,07701.4667,W,1,09,1.1,150.3,M,8.4,M,,0000*68,1
1779391954365,$GPGSA,M,3,15,24,12,20,29,11,19,06,05,,,,1.9,1.1,1.6*32,1
1779391954530,$GPRMC,193234.000,A,1205.8812,S,07701.4667,W,5.04,200.34,210526,,,A*6E,1
1779391955233,$GPGGA,193235.000,1205.8835,S,07701.4674,W,1,10,0.8,150.8,M,8.4,M,,0000*65,1
1779391955369,$GPGSA,M,3,15,24,12,20,25,29,11,19,06,05,,,1.7,0.8,1.4*31,1
1779391955534,$GPRMC,193235.000,A,1205.8835,S,07701.4674,W,8.64,202.22,210526,,,A*66,1
1779391956231,$GPGGA,193236.000,1205.8863,S,07701.4685,W,1,09,0.9,150.7,M,8.4,M,,0000*6D,1
1779391956362,$GPGSA,M,3,15,24,12,20,25,29,11,19,06,,,,1.9,0.9,1.7*38,1
1779391956529,$GPRMC,193236.000,A,1205.8863,S,07701.4685,W,11.09,202.99,210526,,,A*5B,1
1779391957232,$GPGGA,193237.000,1205.8894,S,07701.4697,W,1,09,0.9,151.0,M,8.4,M,,0000*61,1
1779391957362,$GPGSA,M,3,15,24,12,20,25,29,11,19,06,,,,1.9,0.9,1.7*38,1
1779391957523,$GPGSV,3,1,12,15,60,338,45,24,50,168,44,12,45,211,46,20,42,018,45*71,1
1779391957683,$GPGSV,3,2,12,25,27,255,32,29,24,330,28,11,22,065,26,19,13,141,25*73,1
1779391957834,$GPGSV,3,3,12,06,10,102,24,05,07,008,04,48,33,280,,13,32,032,*72,1
1779391958002,$GPRMC,193237.000,A,1205.8894,S,07701.4697,W,11.32,204.09,210526,,,A*56,1
1779391958233,$GPGGA,193238.000,1205.8925,S,07701.4711,W,1,09,0.9,151.7,M,8.4,M,,0000*6D,1
1779391958363,$GPGSA,M,3,15,24,12,20,25,29,11,19,06,,,,1.9,0.9,1.7*38,1
1779391958530,$GPRMC,193238.000,A,1205.8925,S,07701.4711,W,12.23,204.12,210526,,,A*54,1
1779391959233,$GPGGA,193239.000,1205.8961,S,07701.4727,W,1,09,0.9,152.0,M,8.4,M,,0000*6D,1
1779391959364,$GPGSA,M,3,15,24,12,20,25,29,11,19,06,,,,1.9,0.9,1.7*38,1
1779391959531,$GPRMC,193239.000,A,1205.8961,S,07701.4727,W,14.31,204.73,210526,,,A*52,1
1779391960233,$GPGGA,193240.000,1205.9000,S,07701.4745,W,1,09,0.9,151.9,M,8.4,M,,0000*62,1
1779391960364,$GPGSA,M,3,15,24,12,20,25,29,11,19,06,,,,1.9,0.9,1.7*38,1
1779391960531,$GPRMC,193240.000,A,1205.9000,S,07701.4745,W,15.55,204.43,210526,,,A*57,1
1779391961232,$GPGGA,193241.000,1205.9042,S,07701.4765,W,1,09,0.9,151.8,M,8.4,M,,0000*66,1
1779391961363,$GPGSA,M,3,15,24,12,20,25,29,11,19,06,,,,1.9,0.9,1.7*38,1
1779391961530,$GPRMC,193241.000,A,1205.9042,S,07701.4765,W,16.40,205.40,210526,,,A*57,1
1779391962232,$GPGGA,193242.000,1205.9085,S,07701.4785,W,1,09,0.9,151.9,M,8.4,M,,0000*61,1
1779391962362,$GPGSA,M,3,15,24,12,20,25,29,11,19,06,,,,1.9,0.9,1.7*38,1
1779391962523,$GPGSV,3,1,12,15,60,338,43,24,50,168,45,12,45,211,46,20,42,018,45*76,1
1779391962683,$GPGSV,3,2,12,25,27,255,39,29,24,330,17,11,22,065,33,19,13,141,27*72,1
1779391962839,$GPGSV,3,3,12,06,10,102,19,05,07,008,23,48,33,280,34,13,32,032,*7E,1
1779391963006,$GPRMC,193242.000,A,1205.9085,S,07701.4785,W,16.94,205.86,210526,,,A*52,1
1779391963234,$GPGGA,193243.000,1205.9128,S,07701.4805,W,1,09,0.9,152.0,M,8.4,M,,0000*6B,1
1779391963364,$GPGSA,M,3,15,24,12,20,25,29,11,19,06,,,,1.9,0.9,1.7*38,1
1779391963532,$GPRMC,193243.000,A,1205.9128,S,07701.4805,W,16.86,205.28,210526,,,A*55,1
1779391964233,$GPGGA,193244.000,1205.9171,S,07701.4827,W,1,09,0.9,152.0,M,8.4,M,,0000*60,1
1779391964363,$GPGSA,M,3,15,24,12,20,25,29,11,19,06,,,,1.9,0.9,1.7*38,1
1779391964531,$GPRMC,193244.000,A,1205.9171,S,07701.4827,W,16.24,205.12,210526,,,A*5F,1
1779391965228,$GPGGA,193245.000,1205.9212,S,07701.4847,W,1,08,0.9,152.2,M,8.4,M,,0000*62,1
1779391965354,$GPGSA,M,3,15,24,12,20,25,29,11,06,,,,,2.0,0.9,1.8*35,1
1779391965522,$GPRMC,193245.000,A,1205.9212,S,07701.4847,W,15.80,204.99,210526,,,A*51,1
1779391966228,$GPGGA,193246.000,1205.9253,S,07701.4865,W,1,08,0.9,151.7,M,8.4,M,,0000*62,1
1779391966354,$GPGSA,M,3,15,24,12,20,25,29,11,06,,,,,2.0,0.9,1.8*35,1
1779391966521,$GPRMC,193246.000,A,1205.9253,S,07701.4865,W,16.20,205.59,210526,,,A*53,1
1779391967233,$GPGGA,193247.000,1205.9295,S,07701.4884,W,1,09,0.9,151.1,M,8.4,M,,0000*61,1
1779391967363,$GPGSA,M,3,15,24,12,20,25,29,11,19,06,,,,1.9,0.9,1.7*38,1
1779391967524,$GPGSV,3,1,12,15,60,338,42,24,50,168,44,12,45,211,44,20,42,018,44*75,1
1779391967684,$GPGSV,3,2,12,25,27,255,35,29,24,330,38,11,22,065,39,19,13,141,23*7D,1
1779391967840,$GPGSV,3,3,12,06,10,102,19,05,07,008,19,48,33,280,36,13,32,032,*75,1
1779391968007,$GPRMC,193247.000,A,1205.9295,S,07701.4884,W,16.45,205.05,210526,,,A*5D,1
1779391968232,$GPGGA,193248.000,1205.9336,S,07701.4905,W,1,09,0.9,151.0,M,8.4,M,,0000*6F,1
1779391968362,$GPGSA,M,3,15,24,12,20,25,29,11,19,06,,,,1.9,0.9,1.7*38,1
1779391968530,$GPRMC,193248.000,A,1205.9336,S,07701.4905,W,16.62,205.75,210526,,,A*50,1
1779391969229,$GPGGA,193249.000,1205.9377,S,07701.4926,W,1,08,0.9,150.8,M,8.4,M,,0000*62,1
1779391969355,$GPGSA,M,3,15,24,12,20,25,29,11,19,,,,,2.0,0.9,1.8*3B,1
1779391969522,$GPRMC,193249.000,A,1205.9377,S,07701.4926,W,15.96,205.78,210526,,,A*50,1
1779391970230,$GPGGA,193250.000,1205.9416,S,07701.4946,W,1,08,0.9,150.3,M,8.4,M,,0000*67,1
1779391970357,$GPGSA,M,3,15,24,12,20,25,29,11,19,,,,,2.0,0.9,1.8*3B,1
1779391970524,$GPRMC,193250.000,A,1205.9416,S,07701.4946,W,15.50,205.97,210526,,,A*55,1
1779391971226,$GPGGA,193251.000,1205.9455,S,07701.4966,W,1,07,1.1,149.8,M,8.4,M,,0000*66,1
1779391971348,$GPGSA,M,3,15,24,12,20,25,29,11,,,,,,2.5,1.1,2.3*37,1
1779391971515,$GPRMC,193251.000,A,1205.9455,S,07701.4966,W,15.20,204.47,210526,,,A*5A,1
1779391972229,$GPGGA,193252.000,1205.9492,S,07701.4983,W,1,08,1.1,149.1,M,8.4,M,,0000*63,1
1779391972355,$GPGSA,M,3,15,24,12,20,25,29,11,05,,,,,2.1,1.1,1.8*3E,1
1779391972515,$GPGSV,3,1,12,15,60,338,40,24,50,168,39,12,45,211,43,20,42,018,39*70,1
1779391972676,$GPGSV,3,2,12,25,27,255,32,29,24,330,37,11,22,065,37,05,07,008,18*77,1
1779391972831,$GPGSV,3,3,12,06,10,102,25,19,13,141,06,48,33,280,31,13,32,032,*77,1
1779391972999,$GPRMC,193252.000,A,1205.9492,S,07701.4983,W,14.51,204.45,210526,,,A*5C,1
1779391973236,$GPGGA,193253.000,1205.9527,S,07701.4999,W,1,08,1.1,148.4,M,8.4,M,,0000*62,1
1779391973362,$GPGSA,M,3,15,24,12,20,25,29,11,05,,,,,2.1,1.1,1.8*3E,1
1779391973529,$GPRMC,193253.000,A,1205.9527,S,07701.4999,W,12.99,203.14,210526,,,A*58,1
1779391974232,$GPGGA,193254.000,1205.9558,S,07701.5011,W,1,09,0.9,148.2,M,8.4,M,,0000*6B,1
1779391974362,$GPGSA,M,3,15,24,12,20,25,29,11,19,05,,,,1.7,0.9,1.5*37,1
1779391974530,$GPRMC,193254.000,A,1205.9558,S,07701.5011,W,10.93,200.26,210526,,,A*55,1
1779391975233,$GPGGA,193255.000,1205.9582,S,07701.5021,W,1,09,0.9,148.0,M,8.4,M,,0000*6C,1
1779391975363,$GPGSA,M,3,15,24,12,20,25,29,11,19,05,,,,1.7,0.9,1.5*37,1
1779391975528,$GPRMC,193255.000,A,1205.9582,S,07701.5021,W,7.79,201.78,210526,,,A*68,1
1779391976230,$GPGGA,193256.000,1205.9599,S,07701.5027,W,1,08,1.1,148.2,M,8.4,M,,0000*69,1
1779391976356,$GPGSA,M,3,15,24,12,20,25,29,11,05,,,,,2.1,1.1,1.8*3E,1
1779391976521,$GPRMC,193256.000,A,1205.9599,S,07701.5027,W,5.32,203.86,210526,,,A*69,1
1779391977229,$GPGGA,193257.000,1205.9611,S,07701.5031,W,1,08,1.1,148.6,M,8.4,M,,0000*68,1
1779391977355,$GPGSA,M,3,15,24,12,20,25,29,11,05,,,,,2.1,1.1,1.8*3E,1
1779391977516,$GPGSV,3,1,12,15,60,338,36,24,50,168,37,12,45,211,38,20,42,018,36*7C,1
1779391977676,$GPGSV,3,2,12,25,27,255,31,29,24,330,31,11,22,065,18,05,07,008,16*71,1
1779391977828,$GPGSV,3,3,12,06,10,102,24,19,13,141,06,51,52,289,,13,32,032,*72,1
1779391977993,$GPRMC,193257.000,A,1205.9611,S,07701.5031,W,3.76,204.62,210526,,,A*67,1
1779391978232,$GPGGA,193258.000,1205.9621,S,07701.5035,W,1,09,0.9,149.0,M,8.4,M,,0000*6F,1
1779391978363,$GPGSA,M,3,15,24,12,20,25,29,11,19,05,,,,1.7,0.9,1.5*37,1
1779391978528,$GPRMC,193258.000,A,1205.9621,S,07701.5035,W,3.90,204.43,210526,,,A*64,1
1779391979231,$GPGGA,193259.000,1205.9632,S,07701.5041,W,1,09,0.9,149.2,M,8.4,M,,0000*6D,1
1779391979362,$GPGSA,M,3,15,24,12,20,25,29,11,19,05,,,,1.7,0.9,1.5*37,1
1779391979527,$GPRMC,193259.000,A,1205.9632,S,07701.5041,W,5.40,205.03,210526,,,A*6A,1
1779391980232,$GPGGA,193300.000,1205.9648,S,07701.5047,W,1,09,0.9,149.4,M,8.4,M,,0000*6D,1
1779391980362,$GPGSA,M,3,15,24,12,20,25,29,11,19,05,,,,1.7,0.9,1.5*37,1
1779391980527,$GPRMC,193300.000,A,1205.9648,S,07701.5047,W,7.21,203.93,210526,,,A*66,1
1779391981232,$GPGGA,193301.000,1205.9667,S,07701.5055,W,1,09,0.9,149.2,M,8.4,M,,0000*64,1
1779391981363,$GPGSA,M,3,15,24,12,20,25,29,11,19,05,,,,1.7,0.9,1.5*37,1
1779391981528,$GPRMC,193301.000,A,1205.9667,S,07701.5055,W,7.66,203.86,210526,,,A*6E,1
1779391982231,$GPGGA,193302.000,1205.9688,S,07701.5063,W,1,09,0.9,149.1,M,8.4,M,,0000*60,1
1779391982362,$GPGSA,M,3,15,24,12,20,25,29,11,19,05,,,,1.7,0.9,1.5*37,1
1779391982522,$GPGSV,3,1,12,15,60,338,41,24,50,168,39,12,45,211,43,20,42,018,40*7F,1
1779391982683,$GPGSV,3,2,12,25,27,255,24,29,24,330,34,11,22,065,19,19,13,141,25*75,1
1779391982834,$GPGSV,3,3,12,05,07,008,26,06,10,102,16,51,52,289,,13,32,032,*75,1
1779391982999,$GPRMC,193302.000,A,1205.9688,S,07701.5063,W,8.27,200.65,210526,,,A*6D,1
1779391983228,$GPGGA,193303.000,1205.9709,S,07701.5072,W,1,08,0.9,148.7,M,8.4,M,,0000*6F,1
1779391983354,$GPGSA,M,3,15,24,12,20,25,29,11,19,,,,,2.0,0.9,1.8*3B,1
1779391983519,$GPRMC,193303.000,A,1205.9709,S,07701.5072,W,7.46,203.23,210526,,,A*6D,1
1779391984230,$GPGGA,193304.000,1205.9727,S,07701.5078,W,1,09,0.9,148.3,M,8.4,M,,0000*6B,1
1779391984361,$GPGSA,M,3,15,24,12,20,25,29,11,19,05,,,,1.7,0.9,1.5*37,1
1779391984526,$GPRMC,193304.000,A,1205.9727,S,07701.5078,W,6.72,199.46,210526,,,A*69,1
1779391985230,$GPGGA,193305.000,1205.9746,S,07701.5081,W,1,09,0.9,147.8,M,8.4,M,,0000*6F,1
1779391985360,$GPGSA,M,3,15,24,12,20,25,29,11,19,05,,,,1.7,0.9,1.5*37,1
1779391985525,$GPRMC,193305.000,A,1205.9746,S,07701.5081,W,6.45,185.61,210526,,,A*65,1
1779391986229,$GPGGA,193306.000,1205.9765,S,07701.5074,W,1,09,0.9,147.3,M,8.4,M,,0000*6C,1
1779391986360,$GPGSA,M,3,15,24,12,20,25,29,11,19,05,,,,1.7,0.9,1.5*37,1
1779391986525,$GPRMC,193306.000,A,1205.9765,S,07701.5074,W,7.50,155.14,210526,,,A*67,1
1779391987227,$GPGGA,193307.000,1205.9782,S,07701.5056,W,1,08,0.9,145.2,M,8.4,M,,0000*66,1
1779391987353,$GPGSA,M,3,15,24,12,20,25,29,11,19,,,,,2.0,0.9,1.8*3B,1
1779391987514,$GPGSV,3,1,12,15,60,338,41,24,50,168,44,12,45,211,43,20,42,018,36*74,1
1779391987674,$GPGSV,3,2,12,25,27,255,36,29,24,330,41,11,22,065,41,19,13,141,35*78,1
1779391987821,$GPGSV,3,3,12,06,10,102,15,51,52,289,,13,32,032,,14,31,219,*75,1
1779391987986,$GPRMC,193307.000,A,1205.9782,S,07701.5056,W,9.34,133.76,210526,,,A*67,1
1779391988228,$GPGGA,193308.000,1205.9799,S,07701.5034,W,1,08,0.9,143.9,M,8.4,M,,0000*6A,1
1779391988354,$GPGSA,M,3,15,24,12,20,25,29,11,19,,,,,2.0,0.9,1.8*3B,1
1779391988521,$GPRMC,193308.000,A,1205.9799,S,07701.5034,W,10.78,124.26,210526,,,A*55,1
1779391989228,$GPGGA,193309.000,1205.9815,S,07701.5005,W,1,08,0.9,143.2,M,8.4,M,,0000*69,1
1779391989354,$GPGSA,M,3,15,24,12,20,25,29,11,19,,,,,2.0,0.9,1.8*3B,1
1779391989522,$GPRMC,193309.000,A,1205.9815,S,07701.5005,W,11.73,117.23,210526,,,A*52,1
1779391990227,$GPGGA,193310.000,1205.9829,S,07701.4972,W,1,08,0.9,142.8,M,8.4,M,,0000*6D,1
1779391990353,$GPGSA,M,3,15,24,12,20,25,29,11,19,,,,,2.0,0.9,1.8*3B,1
1779391990521,$GPRMC,193310.000,A,1205.9829,S,07701.4972,W,12.35,112.79,210526,,,A*56,1
1779391991227,$GPGGA,193311.000,1205.9842,S,07701.4938,W,1,08,0.9,142.4,M,8.4,M,,0000*63,1
1779391991353,$GPGSA,M,3,15,24,12,20,25,29,11,19,,,,,2.0,0.9,1.8*3B,1
1779391991521,$GPRMC,193311.000,A,1205.9842,S,07701.4938,W,12.50,112.53,210526,,,A*5F,1
1779391992228,$GPGGA,193312.000,1205.9856,S,07701.4905,W,1,08,0.9,142.0,M,8.4,M,,0000*6F,1
1779391992354,$GPGSA,M,3,15,24,12,20,25,29,11,19,,,,,2.0,0.9,1.8*3B,1
1779391992515,$GPGSV,3,1,12,15,60,338,43,24,50,168,44,12,45,211,43,20,42,018,38*78,1
1779391992675,$GPGSV,3,2,12,25,27,255,37,29,24,330,34,11,22,065,32,19,13,141,38*72,1
1779391992826,$GPGSV,3,3,12,05,07,008,16,06,10,102,10,51,52,289,,13,32,032,*70,1
1779391992994,$GPRMC,193312.000,A,1205.9856,S,07701.4905,W,12.41,113.60,210526,,,A*56,1
1779391993229,$GPGGA,193313.000,1205.9869,S,07701.4872,W,1,08,0.9,141.7,M,8.4,M,,0000*67,1
1779391993355,$GPGSA,M,3,15,24,12,20,25,29,11,19,,,,,2.0,0.9,1.8*3B,1
1779391993522,$GPRMC,193313.000,A,1205.9869,S,07701.4872,W,12.08,112.97,210526,,,A*5E,1
1779391994229,$GPGGA,193314.000,1205.9882,S,07701.4841,W,1,08,0.9,141.4,M,8.4,M,,0000*66,1
1779391994355,$GPGSA,M,3,15,24,12,20,25,29,11,19,,,,,2.0,0.9,1.8*3B,1
1779391994522,$GPRMC,193314.000,A,1205.9882,S,07701.4841,W,11.23,112.61,210526,,,A*5F,1
1779391995228,$GPGGA,193315.000,1205.9893,S,07701.4813,W,1,08,0.9,141.1,M,8.4,M,,0000*65,1
1779391995354,$GPGSA,M,3,15,24,12,20,25,29,11,19,,,,,2.0,0.9,1.8*3B,1
1779391995519,$GPRMC,193315.000,A,1205.9893,S,07701.4813,W,9.99,112.30,210526,,,A*65,1
1779391996228,$GPGGA,193316.000,1205.9903,S,07701.4788,W,1,08,0.9,141.0,M,8.4,M,,0000*62,1
1779391996354,$GPGSA,M,3,15,24,12,20,25,29,11,19,,,,,2.0,0.9,1.8*3B,1
1779391996519,$GPRMC,193316.000,A,1205.9903,S,07701.4788,W,9.36,112.27,210526,,,A*60,1
1779391997228,$GPGGA,193317.000,1205.9911,S,07701.4765,W,1,08,0.9,140.9,M,8.4,M,,0000*6B,1
1779391997354,$GPGSA,M,3,15,24,12,20,25,29,11,19,,,,,2.0,0.9,1.8*3B,1
1779391997515,$GPGSV,3,1,12,15,60,338,40,24,50,168,43,12,45,211,43,20,42,018,38*7C,1
1779391997675,$GPGSV,3,2,12,25,27,255,38,29,24,330,34,11,22,065,34,19,13,141,30*73,1
1779391997822,$GPGSV,3,3,12,06,10,102,14,51,52,289,,13,32,032,,14,31,219,*74,1
1779391997987,$GPRMC,193317.000,A,1205.9911,S,07701.4765,W,7.98,107.55,210526,,,A*6A,1
1779391998230,$GPGGA,193318.000,1205.9915,S,07701.4744,W,1,09,0.9,140.8,M,8.4,M,,0000*63,1
1779391998361,$GPGSA,M,3,15,24,12,20,25,29,11,19,06,,,,1.9,0.9,1.7*38,1
1779391998523,$GPRMC,193318.000,A,1205.9915,S,07701.4744,W,6.86,95.92,210526,,,A*5D,1
1779391999235,$GPGGA,193319.000,1205.9913,S,07701.4724,W,1,10,0.8,140.6,M,8.4,M,,0000*65,1
1779391999370,$GPGSA,M,3,15,24,12,20,25,29,11,19,06,05,,,1.7,0.8,1.4*31,1
1779391999533,$GPRMC,193319.000,A,1205.9913,S,07701.4724,W,7.17,77.37,210526,,,A*56,1
1779392000232,$GPGGA,193320.000,1205.9902,S,07701.4704,W,1,09,0.9,140.2,M,8.4,M,,0000*60,1
1779392000362,$GPGSA,M,3,15,24,12,20,25,29,11,19,05,,,,1.7,0.9,1.5*37,1
1779392000525,$GPRMC,193320.000,A,1205.9902,S,07701.4704,W,8.67,54.65,210526,,,A*50,1
1779392001232,$GPGGA,193321.000,1205.9881,S,07701.4685,W,1,09,0.9,139.6,M,8.4,M,,0000*69,1
1779392001362,$GPGSA,M,3,15,24,12,20,25,29,11,19,05,,,,1.7,0.9,1.5*37,1
1779392001527,$GPRMC,193321.000,A,1205.9881,S,07701.4685,W,10.61,38.27,210526,,,A*60,1
1779392002231,$GPGGA,193322.000,1205.9854,S,07701.4667,W,1,09,0.9,139.1,M,8.4,M,,0000*69,1
1779392002362,$GPGSA,M,3,15,24,12,20,25,29,11,19,05,,,,1.7,0.9,1.5*37,1
1779392002522,$GPGSV,3,1,12,15,60,338,41,24,50,168,43,12,45,211,43,20,42,018,43*71,1
1779392002682,$GPGSV,3,2,12,25,27,255,35,29,24,330,41,11,22,065,42,19,13,141,33*7E,1
1779392002834,$GPGSV,3,3,12,05,07,008,26,06,10,102,19,51,52,289,,13,32,032,*7A,1
1779392002999,$GPRMC,193322.000,A,1205.9854,S,07701.4667,W,11.66,32.11,210526,,,A*6E,1
1779392003232,$GPGGA,193323.000,1205.9825,S,07701.4651,W,1,09,0.9,139.2,M,8.4,M,,0000*68,1
1779392003362,$GPGSA,M,3,15,24,12,20,25,29,11,19,05,,,,1.7,0.9,1.5*37,1
1779392003527,$GPRMC,193323.000,A,1205.9825,S,07701.4651,W,11.39,28.17,210526,,,A*6B,1
1779392004233,$GPGGA,193324.000,1205.9796,S,07701.4636,W,1,09,0.9,139.2,M,8.4,M,,0000*69,1
1779392004364,$GPGSA,M,3,15,24,12,20,25,29,11,19,05,,,,1.7,0.9,1.5*37,1
1779392004529,$GPRMC,193324.000,A,1205.9796,S,07701.4636,W,10.99,26.05,210526,,,A*6C,1
1779392005234,$GPGGA,193325.000,1205.9768,S,07701.4623,W,1,09,0.9,139.3,M,8.4,M,,0000*6C,1
1779392005365,$GPGSA,M,3,15,24,12,20,25,29,11,19,05,,,,1.7,0.9,1.5*37,1
1779392005530,$GPRMC,193325.000,A,1205.9768,S,07701.4623,W,10.51,24.92,210526,,,A*60,1
1779392006237,$GPGGA,193326.000,1205.9742,S,07701.4610,W,1,10,0.8,139.6,M,8.4,M,,0000*6B,1
1779392006372,$GPGSA,M,3,15,24,12,20,25,29,11,19,06,05,,,1.7,0.8,1.4*31,1
1779392006537,$GPRMC,193326.000,A,1205.9742,S,07701.4610,W,10.02,25.09,210526,,,A*6E,1
1779392007235,$GPGGA,193327.000,1205.9717,S,07701.4599,W,1,10,0.8,139.8,M,8.4,M,,0000*66,1
1779392007370,$GPGSA,M,3,15,24,12,20,25,29,11,19,06,05,,,1.7,0.8,1.4*31,1
1779392007530,$GPGSV,3,1,12,15,60,338,44,24,50,168,42,12,45,211,45,20,42,018,44*74,1
1779392007691,$GPGSV,3,2,12,25,27,255,38,29,24,330,36,11,22,065,42,19,13,141,24*75,1
1779392007846,$GPGSV,3,3,12,06,10,102,25,05,07,008,32,48,33,280,31,13,32,032,*74,1
1779392008009,$GPRMC,193327.000,A,1205.9717,S,07701.4599,W,9.23,24.98,210526,,,A*5F,1
1779392008235,$GPGGA,193328.000,1205.9694,S,07701.4589,W,1,10,0.8,139.9,M,8.4,M,,0000*63,1
1779392008370,$GPGSA,M,3,15,24,12,20,25,29,11,19,06,05,,,1.7,0.8,1.4*31,1
1779392008533,$GPRMC,193328.000,A,1205.9694,S,07701.4589,W,8.62,25.60,210526,,,A*59,1
1779392009236,$GPGGA,193329.000,1205.9673,S,07701.4579,W,1,10,0.8,140.0,M,8.4,M,,0000*63,1
1779392009371,$GPGSA,M,3,15,24,12,20,25,29,11,19,06,05,,,1.7,0.8,1.4*31,1
1779392009534,$GPRMC,193329.000,A,1205.9673,S,07701.4579,W,7.53,27.48,210526,,,A*5B,1
1779392010232,$GPGGA,193330.000,1205.9658,S,07701.4571,W,1,09,0.9,140.1,M,8.4,M,,0000*62,1
1779392010362,$GPGSA,M,3,15,24,12,20,25,29,11,19,05,,,,1.7,0.9,1.5*37,1
1779392010525,$GPRMC,193330.000,A,1205.9658,S,07701.4571,W,5.19,29.79,210526,,,A*52,1
1779392011239,$GPGGA,193331.000,1205.9649,S,07701.4566,W,1,09,0.9,140.2,M,8.4,M,,0000*66,1
1779392011370,$GPGSA,M,3,15,24,12,20,25,29,11,19,05,,,,1.7,0.9,1.5*37,1
1779392011532,$GPRMC,193331.000,A,1205.9649,S,07701.4566,W,2.22,29.70,210526,,,A*53,1
1779392012232,$GPGGA,193332.000,1205.9647,S,07701.4565,W,1,09,0.9,140.2,M,8.4,M,,0000*68,1
1779392012363,$GPGSA,M,3,15,24,12,20,25,29,11,19,05,,,,1.7,0.9,1.5*37,1
1779392012523,$GPGSV,3,1,12,15,60,338,45,24,50,168,42,12,45,211,46,20,42,018,44*76,0
1779392012684,$GPGSV,3,2,12,25,27,255,39,29,24,330,40,11,22,065,31,19,13,141,25*70,0
1779392012839,$GPGSV,3,3,12,05,07,008,20,06,10,102,18,48,33,280,43,13,32,032,*7C,0
1779392013002,$GPRMC,193332.000,A,1205.9647,S,07701.4565,W,0.24,29.70,210526,,,A*59,0
1779392013239,$GPGGA,193333.000,1205.9647,S,07701.4565,W,1,10,0.8,140.2,M,8.4,M,,0000*60,0
1779392013375,$GPGSA,M,3,15,24,12,20,25,29,11,19,06,05,,,1.7,0.8,1.4*31,0
1779392013537,$GPRMC,193333.000,A,1205.9647,S,07701.4565,W,0.01,29.70,210526,,,A*5F,0
1779392014233,$GPGGA,193334.000,1205.9647,S,07701.4565,W,1,09,0.9,140.2,M,8.4,M,,0000*6E,0
1779392014363,$GPGSA,M,3,15,24,12,20,25,29,11,19,05,,,,1.7,0.9,1.5*37,0
1779392014526,$GPRMC,193334.000,A,1205.9647,S,07701.4565,W,0.00,29.70,210526,,,A*59,0
1779392015235,$GPGGA,193335.000,1205.9647,S,07701.4565,W,1,09,0.9,140.2,M,8.4,M,,0000*6F,0
1779392015366,$GPGSA,M,3,15,24,12,20,25,29,11,19,05,,,,1.7,0.9,1.5*37,0
1779392015529,$GPRMC,193335.000,A,1205.9647,S,07701.4565,W,0.00,29.70,210526,,,A*58,0
1779392016236,$GPGGA,193336.000,1205.9647,S,07701.4565,W,1,09,0.9,140.2,M,8.4,M,,0000*6C,0
1779392016367,$GPGSA,M,3,15,24,12,20,25,29,11,19,05,,,,1.7,0.9,1.5*37,0
1779392016529,$GPRMC,193336.000,A,1205.9647,S,07701.4565,W,0.00,29.70,210526,,,A*5B,0
1779392017238,$GPGGA,193337.000,1205.9647,S,07701.4565,W,1,09,0.9,140.2,M,8.4,M,,0000*6D,0
1779392017369,$GPGSA,M,3,15,24,12,20,25,29,11,19,05,,,,1.7,0.9,1.5*37,0
1779392017529,$GPGSV,3,1,12,15,60,338,45,24,50,168,41,12,45,211,46,20,42,018,45*74,0
1779392017690,$GPGSV,3,2,12,25,27,255,39,29,24,330,38,11,22,065,39,19,13,141,30*73,0
1779392017841,$GPGSV,3,3,12,05,07,008,21,48,33,280,43,13,32,032,,14,31,219,*7D,0
1779392018004,$GPRMC,193337.000,A,1205.9647,S,07701.4565,W,0.00,29.70,210526,,,A*5A,0
1779392018237,$GPGGA,193338.000,1205.9647,S,07701.4565,W,2,06,1.4,140.2,M,8.4,M,2.0,0000*4E,1
1779392018354,$GPGSA,M,3,15,20,25,29,11,05,,,,,,,2.3,1.4,1.8*3C,1
1779392018517,$GPRMC,193338.000,A,1205.9647,S,07701.4565,W,0.00,29.70,210526,,,D*50,1
1779392019236,$GPGGA,193339.000,1205.9647,S,07701.4565,W,2,06,1.4,140.2,M,8.4,M,2.0,0000*4F,1
1779392019353,$GPGSA,M,3,15,20,25,29,11,05,,,,,,,2.3,1.4,1.8*3C,1
1779392019516,$GPRMC,193339.000,A,1205.9647,S,07701.4565,W,0.00,29.70,210526,,,D*51,1
1779392020233,$GPGGA,193340.000,1205.9647,S,07701.4565,W,2,06,1.4,140.2,M,8.4,M,3.0,0000*40,1
