Unix_time,GPS_data,motion_flag
1779393617197,$GPGGA,200017.000,1205.9653,S,07701.4569,W,1,08,0.9,140.7,M,8.4,M,,0000*68,0
1779393655065,$GPGSA,M,3,24,15,12,29,25,20,11,06,,,,,2.2,0.9,2.0*3C,0
1779393655065,$GPGSV,3,1,12,24,58,150,43,15,47,349,45,12,41,195,45,29,36,325,43*7F,0
1779393655066,$GPGSV,3,2,12,25,29,240,44,20,29,017,39,11,25,079,37,06,09,115,15*77,0
1779393655066,$GPGSV,3,3,12,05,03,018,23,13,20,028,44,44,42,284,44,14,42,228,*7D,0
1779393655067,$GPRMC,200017.000,A,1205.9653,S,07701.4569,W,0.00,26.54,210526,,,A*52,0
1779393655068,$GPGGA,200018.000,1205.9653,S,07701.4569,W,1,08,0.9,140.7,M,8.4,M,,0000*67,0
1779393655069,$GPGSA,M,3,24,15,12,29,25,20,11,06,,,,,2.2,0.9,2.0*3C,0
1779393655069,$GPRMC,200018.000,A,1205.9653,S,07701.4569,W,0.00,26.54,210526,,,A*5D,0
1779393655070,$GPGGA,200019.000,1205.9653,S,07701.4569,W,1,08,0.9,140.7,M,8.4,M,,0000*66,0
1779393655070,$GPGSA,M,3,24,15,12,29,25,20,11,06,,,,,2.2,0.9,2.0*3C,0
1779393655071,$GPRMC,200019.000,A,1205.9653,S,07701.4569,W,0.00,26.54,210526,,,A*5C,0
1779393655072,$GPGGA,200020.000,1205.9653,S,07701.4569,W,1,08,0.9,140.7,M,8.4,M,,0000*6C,0
1779393655072,$GPGSA,M,3,24,15,12,29,25,20,11,06,,,,,2.2,0.9,2.0*3C,0
1779393655073,$GPRMC,200020.000,A,1205.9653,S,07701.4569,W,0.00,26.54,210526,,,A*56,0
1779393655073,$GPGGA,200021.000,1205.9653,S,07701.4569,W,1,08,0.9,140.7,M,8.4,M,,0000*6D,0
1779393655074,$GPGSA,M,3,24,15,12,29,25,20,11,06,,,,,2.2,0.9,2.0*3C,0
1779393655075,$GPRMC,200021.000,A,1205.9653,S,07701.4569,W,0.00,26.54,210526,,,A*57,0
1779393655075,$GPGGA,200022.000,1205.9653,S,07701.4569,W,1,08,0.9,140.7,M,8.4,M,,0000*6E,0
1779393655076,$GPGSA,M,3,24,15,12,29,25,20,11,06,,,,,2.2,0.9,2.0*3C,0
1779393655077,$GPGSV,3,1,12,24,58,150,43,15,47,349,46,12,41,195,45,29,36,325,44*7B,0
1779393655077,$GPGSV,3,2,12,25,29,240,45,20,29,017,39,11,25,079,37,06,09,115,09*7B,0
1779393655078,$GPGSV,3,3,12,05,03,018,24,13,20,028,44,44,42,284,44,14,42,228,*7A,0
1779393655079,$GPRMC,200022.000,A,1205.9653,S,07701.4569,W,0.00,26.54,210526,,,A*54,0
1779393655079,$GPGGA,200023.000,1205.9653,S,07701.4569,W,1,07,1.0,140.7,M,8.4,M,,0000*68,0
1779393655080,$GPGSA,M,3,24,15,12,29,25,20,11,,,,,,3.0,1.0,2.8*39,0
1779393655080,$GPRMC,200023.000,A,1205.9653,S,07701.4569,W,0.00,26.54,210526,,,A*55,0
1779393655080,$GPGGA,200024.000,1205.9653,S,07701.4569,W,1,07,1.0,140.7,M,8.4,M,,0000*6F,0
1779393655080,$GPGSA,M,3,24,15,12,29,25,20,11,,,,,,3.0,1.0,2.8*39,0
1779393655080,$GPRMC,200024.000,A,1205.9653,S,07701.4569,W,0.00,26.54,210526,,,A*52,0
1779393655081,$GPGGA,200025.000,1205.9653,S,07701.4569,W,1,07,1.0,140.7,M,8.4,M,,0000*6E,0
1779393655082,$GPGSA,M,3,24,15,12,29,25,20,11,,,,,,3.0,1.0,2.8*39,0
1779393655082,$GPRMC,200025.000,A,1205.9653,S,07701.4569,W,0.00,26.54,210526,,,A*53,0
1779393655083,$GPGGA,200026.000,1205.9653,S,07701.4569,W,1,07,1.0,140.7,M,8.4,M,,0000*6D,0
1779393655084,$GPGSA,M,3,24,15,12,29,25,20,11,,,,,,3.0,1.0,2.8*39,0
1779393655084,$GPRMC,200026.000,A,1205.9653,S,07701.4569,W,0.00,26.54,210526,,,A*50,0
1779393655084,$GPGGA,200027.000,1205.9653,S,07701.4569,W,1,07,1.0,140.7,M,8.4,M,,0000*6C,0
1779393655084,$GPGSA,M,3,24,15,12,29,25,20,11,,,,,,3.0,1.0,2.8*39,0
1779393655085,$GPGSV,3,1,12,24,58,150,43,15,47,349,46,12,41,195,45,29,36,325,44*7B,0
1779393655085,$GPGSV,3,2,12,25,29,240,44,20,29,017,40,11,25,079,37,06,09,115,06*7B,0
1779393655086,$GPGSV,3,3,12,13,20,028,44,44,42,284,43,14,42,228,,21,23,004,*72,0
1779393655087,$GPRMC,200027.000,A,1205.9653,S,07701.4569,W,0.00,26.54,210526,,,A*51,0
1779393655087,$GPGGA,200028.000,1205.9653,S,07701.4569,W,1,07,1.0,140.7,M,8.4,M,,0000*63,0
1779393655088,$GPGSA,M,3,24,15,12,29,25,20,11,,,,,,3.0,1.0,2.8*39,0
1779393655088,$GPRMC,200028.000,A,1205.9653,S,07701.4569,W,0.00,26.54,210526,,,A*5E,0
1779393655089,$GPGGA,200029.000,1205.9653,S,07701.4569,W,1,07,1.0,140.7,M,8.4,M,,0000*62,0
1779393655090,$GPGSA,M,3,24,15,12,29,25,20,11,,,,,,3.0,1.0,2.8*39,0
1779393655090,$GPRMC,200029.000,A,1205.9653,S,07701.4569,W,0.00,26.54,210526,,,A*5F,0
1779393655091,$GPGGA,200030.000,1205.9653,S,07701.4569,W,1,07,1.0,140.7,M,8.4,M,,0000*6A,0
1779393655092,$GPGSA,M,3,24,15,12,29,25,20,11,,,,,,3.0,1.0,2.8*39,0
1779393655092,$GPRMC,200030.000,A,1205.9653,S,07701.4569,W,0.00,26.54,210526,,,A*57,0
1779393655093,$GPGGA,200031.000,1205.9653,S,07701.4569,W,1,07,1.0,140.7,M,8.4,M,,0000*6B,0
1779393655094,$GPGSA,M,3,24,15,12,29,25,20,11,,,,,,3.0,1.0,2.8*39,0
1779393655094,$GPRMC,200031.000,A,1205.9653,S,07701.4569,W,0.00,26.54,210526,,,A*56,0
1779393655095,$GPGGA,200032.000,1205.9653,S,07701.4569,W,1,07,1.0,140.7,M,8.4,M,,0000*68,0
1779393655095,$GPGSA,M,3,24,15,12,29,25,20,11,,,,,,3.0,1.0,2.8*39,0
1779393655096,$GPGSV,3,1,12,24,58,150,42,15,47,349,46,12,40,195,45,29,37,325,44*7A,0
1779393655097,$GPGSV,3,2,12,25,29,240,44,20,28,017,40,11,25,079,36,05,03,018,25*7F,0
1779393655097,$GPGSV,3,3,12,06,09,115,06,13,19,028,45,44,42,284,44,14,42,228,*74,0
1779393655098,$GPRMC,200032.000,A,1205.9653,S,07701.4569,W,0.00,26.54,210526,,,A*55,0
1779393655099,$GPGGA,200033.000,1205.9653,S,07701.4569,W,1,08,0.9,140.7,M,8.4,M,,0000*6E,0
1779393655099,$GPGSA,M,3,24,15,12,29,25,20,11,06,,,,,2.2,0.9,2.0*3C,0
1779393655100,$GPRMC,200033.000,A,1205.9653,S,07701.4569,W,0.00,26.54,210526,,,A*54,0
1779393655100,$GPGGA,200034.000,1205.9653,S,07701.4569,W,1,08,0.9,140.7,M,8.4,M,,0000*69,0
1779393655101,$GPGSA,M,3,24,15,12,29,25,20,11,06,,,,,2.2,0.9,2.0*3C,0
1779393655102,$GPRMC,200034.000,A,1205.9653,S,07701.4569,W,0.00,26.54,210526,,,A*53,0
1779393655102,$GPGGA,200035.000,1205.9653,S,07701.4569,W,1,08,0.9,140.7,M,8.4,M,,0000*68,0
1779393655103,$GPGSA,M,3,24,15,12,29,25,20,11,06,,,,,2.2,0.9,2.0*3C,0
1779393655103,$GPRMC,200035.000,A,1205.9653,S,07701.4569,W,0.00,26.54,210526,,,A*52,0
1779393655104,$GPGGA,200036.000,1205.9653,S,07701.4569,W,1,08,0.9,140.7,M,8.4,M,,0000*6B,0
1779393655105,$GPGSA,M,3,24,15,12,29,25,20,11,06,,,,,2.2,0.9,2.0*3C,0
1779393655105,$GPRMC,200036.000,A,1205.9653,S,07701.4569,W,0.00,26.54,210526,,,A*51,0
1779393655106,$GPGGA,200037.000,1205.9653,S,07701.4569,W,1,08,0.9,140.7,M,8.4,M,,0000*6A,0
1779393655107,$GPGSA,M,3,24,15,12,29,25,20,11,06,,,,,2.2,0.9,2.0*3C,0
1779393655107,$GPGSV,3,1,12,24,58,150,42,15,47,349,46,12,40,195,45,29,37,325,44*7A,0
1779393655108,$GPGSV,3,2,12,25,29,240,44,20,28,017,40,11,25,079,36,06,09,115,16*7A,0
1779393655108,$GPGSV,3,3,12,05,03,018,23,13,19,028,45,44,42,284,43,14,42,228,*71,0
1779393655109,$GPRMC,200037.000,A,1205.9653,S,07701.4569,W,0.00,26.54,210526,,,A*50,0
1779393655109,$GPGGA,200038.000,1205.9653,S,07701.4569,W,1,08,0.9,140.7,M,8.4,M,,0000*65,0
1779393655110,$GPGSA,M,3,24,15,12,29,25,20,11,06,,,,,2.2,0.9,2.0*3C,0
1779393655110,$GPRMC,200038.000,A,1205.9653,S,07701.4569,W,0.00,26.54,210526,,,A*5F,0
1779393655110,$GPGGA,200039.000,1205.9653,S,07701.4569,W,1,08,0.9,140.7,M,8.4,M,,0000*64,0
1779393655110,$GPGSA,M,3,24,15,12,29,25,20,11,06,,,,,2.2,0.9,2.0*3C,0
1779393655110,$GPRMC,200039.000,A,1205.9653,S,07701.4569,W,0.00,26.54,210526,,,A*5E,0
1779393655110,$GPGGA,200040.000,1205.9653,S,07701.4569,W,1,08,0.9,140.7,M,8.4,M,,0000*6A,0
1779393655110,$GPGSA,M,3,24,15,12,29,25,20,11,06,,,,,2.2,0.9,2.0*3C,0
1779393655110,$GPRMC,200040.000,A,1205.9653,S,07701.4569,W,0.00,26.54,210526,,,A*50,0
1779393655111,$GPGGA,200041.000,1205.9653,S,07701.4569,W,1,08,0.9,140.7,M,8.4,M,,0000*6B,0
1779393655111,$GPGSA,M,3,24,15,12,29,25,20,11,06,,,,,2.2,0.9,2.0*3C,0
1779393655111,$GPRMC,200041.000,A,1205.9653,S,07701.4569,W,0.00,26.54,210526,,,A*51,0
1779393655111,$GPGGA,200042.000,1205.9653,S,07701.4569,W,1,08,0.9,140.7,M,8.4,M,,0000*68,0
1779393655111,$GPGSA,M,3,24,15,12,29,25,20,11,06,,,,,2.2,0.9,2.0*3C,0
1779393655111,$GPGSV,3,1,12,24,58,150,42,15,47,349,46,12,40,195,45,29,37,325,44*7A,0
1779393655111,$GPGSV,3,2,12,25,29,240,44,20,28,017,40,11,25,079,36,06,09,115,18*74,0
1779393655111,$GPGSV,3,3,12,05,03,018,23,13,19,028,45,44,42,284,44,14,42,228,*76,0
1779393655111,$GPRMC,200042.000,A,1205.9653,S,07701.4569,W,0.00,26.54,210526,,,A*52,0
1779393655112,$GPGGA,200043.000,1205.9653,S,07701.4569,W,1,08,0.9,140.7,M,8.4,M,,0000*69,0
1779393655112,$GPGSA,M,3,24,15,12,29,25,20,11,06,,,,,2.2,0.9,2.0*3C,0
1779393655112,$GPRMC,200043.000,A,1205.9653,S,07701.4569,W,0.00,26.54,210526,,,A*53,0
1779393655112,$GPGGA,200044.000,1205.9653,S,07701.4569,W,1,08,0.9,140.7,M,8.4,M,,0000*6E,0
1779393655112,$GPGSA,M,3,24,15,12,29,25,20,11,06,,,,,2.2,0.9,2.0*3C,0
1779393655112,$GPRMC,200044.000,A,1205.9653,S,07701.4569,W,0.00,26.54,210526,,,A*54,0
1779393655112,$GPGGA,200045.000,1205.9653,S,07701.4569,W,1,08,0.9,140.7,M,8.4,M,,0000*6F,0
1779393655113,$GPGSA,M,3,24,15,12,29,25,20,11,06,,,,,2.2,0.9,2.0*3C,0
1779393655113,$GPRMC,200045.000,A,1205.9653,S,07701.4569,W,0.00,26.54,210526,,,A*55,0
1779393655113,$GPGGA,200046.000,1205.9653,S,07701.4569,W,1,08,0.9,140.7,M,8.4,M,,0000*6C,0
1779393655113,$GPGSA,M,3,24,15,12,29,25,20,11,06,,,,,2.2,0.9,2.0*3C,0
1779393655113,$GPRMC,200046.000,A,1205.9653,S,07701.4569,W,0.00,26.54,210526,,,A*56,0
1779393655113,$GPGGA,200047.000,1205.9653,S,07701.4569,W,1,08,0.9,140.7,M,8.4,M,,0000*6D,0
1779393655113,$GPGSA,M,3,24,15,12,29,25,20,11,06,,,,,2.2,0.9,2.0*3C,0
1779393655113,$GPGSV,3,1,12,24,58,150,42,15,47,349,46,12,40,195,45,29,37,325,44*7A,0
1779393655114,$GPGSV,3,2,12,25,29,240,44,20,28,017,40,11,25,079,36,06,09,115,19*75,0
1779393655114,$GPGSV,3,3,12,05,03,018,22,13,19,028,45,44,42,284,44,14,42,228,*77,0
1779393655114,$GPRMC,200047.000,A,1205.9653,S,07701.4569,W,0.00,26.54,210526,,,A*57,0
1779393655114,$GPGGA,200048.000,1205.9653,S,07701.4569,W,1,08,0.9,140.7,M,8.4,M,,0000*62,0
1779393655114,$GPGSA,M,3,24,15,12,29,25,20,11,06,,,,,2.2,0.9,2.0*3C,0
1779393655114,$GPRMC,200048.000,A,1205.9653,S,07701.4569,W,0.00,26.54,210526,,,A*58,0
1779393655114,$GPGGA,200049.000,1205.9653,S,07701.4569,W,1,08,0.9,140.7,M,8.4,M,,0000*63,0
1779393655114,$GPGSA,M,3,24,15,12,29,25,20,11,06,,,,,2.2,0.9,2.0*3C,0
1779393655115,$GPRMC,200049.000,A,1205.9653,S,07701.4569,W,0.00,26.54,210526,,,A*59,0
1779393655115,$GPGGA,200050.000,1205.9653,S,07701.4569,W,1,08,0.9,140.7,M,8.4,M,,0000*6B,0
1779393655115,$GPGSA,M,3,24,15,12,29,25,20,11,06,,,,,2.2,0.9,2.0*3C,0
1779393655115,$GPRMC,200050.000,A,1205.9653,S,07701.4569,W,0.00,26.54,210526,,,A*51,0
1779393655115,$GPGGA,200051.000,1205.9653,S,07701.4569,W,1,08,0.9,140.7,M,8.4,M,,0000*6A,0
1779393655115,$GPGSA,M,3,24,15,12,29,25,20,11,06,,,,,2.2,0.9,2.0*3C,0
1779393655115,$GPRMC,200051.000,A,1205.9653,S,07701.4569,W,0.00,26.54,210526,,,A*50,0
1779393655115,$GPGGA,200052.000,1205.9653,S,07701.4569,W,1,08,0.9,140.7,M,8.4,M,,0000*69,0
1779393655116,$GPGSA,M,3,24,15,12,29,25,20,11,06,,,,,2.2,0.9,2.0*3C,0
1779393655116,$GPGSV,3,1,12,24,58,150,42,15,47,349,46,12,40,195,45,29,37,325,44*7A,0
1779393655116,$GPGSV,3,2,12,25,29,240,44,20,28,017,40,11,25,079,36,06,09,115,21*7E,0
1779393655116,$GPGSV,3,3,12,05,03,018,22,13,19,028,45,44,42,284,44,14,42,228,*77,0
1779393655116,$GPRMC,200052.000,A,1205.9653,S,07701.4569,W,0.00,26.54,210526,,,A*53,0
1779393655116,$GPGGA,200053.000,1205.9653,S,07701.4569,W,1,08,0.9,140.7,M,8.4,M,,0000*68,0
1779393655116,$GPGSA,M,3,24,15,12,29,25,20,11,06,,,,,2.2,0.9,2.0*3C,0
1779393655116,$GPRMC,200053.000,A,1205.9653,S,07701.4569,W,0.00,26.54,210526,,,A*52,0
1779393655117,$GPGGA,200054.000,1205.9653,S,07701.4569,W,1,08,0.9,140.7,M,8.4,M,,0000*6F,0
1779393655117,$GPGSA,M,3,24,15,12,29,25,20,11,06,,,,,2.2,0.9,2.0*3C,0
1779393655117,$GPRMC,200054.000,A,1205.9653,S,07701.4569,W,0.00,26.54,210526,,,A*55,0
1779393655202,$GPGGA,200055.000,1205.9653,S,07701.4569,W,1,08,0.9,140.7,M,8.4,M,,0000*6E,0
1779393655328,$GPGSA,M,3,24,15,12,29,25,20,11,06,,,,,2.2,0.9,2.0*3C,0
1779393655491,$GPRMC,200055.000,A,1205.9653,S,07701.4569,W,0.00,26.54,210526,,,A*54,0
1779393656201,$GPGGA,200056.000,1205.9653,S,07701.4569,W,1,08,0.9,140.7,M,8.4,M,,0000*6D,0
1779393656327,$GPGSA,M,3,24,15,12,29,25,20,11,06,,,,,2.2,0.9,2.0*3C,0
1779393656490,$GPRMC,200056.000,A,1205.9653,S,07701.4569,W,0.00,26.54,210526,,,A*57,0
1779393657201,$GPGGA,200057.000,1205.9653,S,07701.4569,W,1,08,0.9,140.7,M,8.4,M,,0000*6C,0
1779393657327,$GPGSA,M,3,24,15,12,29,25,20,11,06,,,,,2.2,0.9,2.0*3C,0
1779393657488,$GPGSV,3,1,12,24,58,150,42,15,47,349,46,12,40,195,44,29,37,325,44*7B,0
1779393657648,$GPGSV,3,2,12,25,29,240,44,20,28,017,40,11,25,079,36,06,09,115,22*7D,0
1779393657804,$GPGSV,3,3,12,05,03,018,23,13,19,028,44,44,42,284,44,14,42,228,*77,0
1779393657967,$GPRMC,200057.000,A,1205.9653,S,07701.4569,W,0.00,26.54,210526,,,A*56,0
1779393658201,$GPGGA,200058.000,1205.9653,S,07701.4569,W,1,08,0.9,140.7,M,8.4,M,,0000*63,0
1779393658327,$GPGSA,M,3,24,15,12,29,25,20,11,06,,,,,2.2,0.9,2.0*3C,0
1779393658490,$GPRMC,200058.000,A,1205.9653,S,07701.4569,W,0.00,26.54,210526,,,A*59,0
1779393659195,$GPGGA,200059.000,1205.9653,S,07701.4569,W,1,08,0.9,140.7,M,8.4,M,,0000*62,0
1779393659321,$GPGSA,M,3,24,15,12,29,25,20,11,06,,,,,2.2,0.9,2.0*3C,0
1779393659484,$GPRMC,200059.000,A,1205.9653,S,07701.4569,W,0.00,26.54,210526,,,A*58,0
1779393660195,$GPGGA,200100.000,1205.9653,S,07701.4569,W,1,08,0.9,140.7,M,8.4,M,,0000*6F,1
1779393660322,$GPGSA,M,3,24,15,12,29,25,20,11,06,,,,,2.2,0.9,2.0*3C,1
1779393660484,$GPRMC,200100.000,A,1205.9653,S,07701.4569,W,0.00,26.54,210526,,,A*55,1
1779393661202,$GPGGA,200101.000,1205.9652,S,07701.4569,W,1,08,0.9,140.6,M,8.4,M,,0000*6E,1
1779393661328,$GPGSA,M,3,24,15,12,29,25,20,11,06,,,,,2.2,0.9,2.0*3C,1
1779393661491,$GPRMC,200101.000,A,1205.9652,S,07701.4569,W,0.55,26.54,210526,,,A*55,1
1779393662201,$GPGGA,200102.000,1205.9648,S,07701.4566,W,1,08,0.9,140.6,M,8.4,M,,0000*69,1
1779393662327,$GPGSA,M,3,24,15,12,29,25,20,11,06,,,,,2.2,0.9,2.0*3C,1
1779393662487,$GPGSV,3,1,12,24,58,150,42,15,47,349,46,12,40,195,44,29,37,325,44*7B,1
1779393662648,$GPGSV,3,2,12,25,29,240,43,20,28,017,40,11,25,079,36,06,09,115,22*7A,1
1779393662803,$GPGSV,3,3,12,05,03,018,20,13,19,028,44,44,42,284,44,14,42,228,*74,1
1779393662966,$GPRMC,200102.000,A,1205.9648,S,07701.4566,W,2.95,23.94,210526,,,A*55,1
1779393663201,$GPGGA,200103.000,1205.9636,S,07701.4561,W,1,08,0.9,140.6,M,8.4,M,,0000*66,1
1779393663327,$GPGSA,M,3,24,15,12,29,25,20,11,06,,,,,2.2,0.9,2.0*3C,1
1779393663490,$GPRMC,200103.000,A,1205.9636,S,07701.4561,W,5.72,22.26,210526,,,A*5C,1
1779393664202,$GPGGA,200104.000,1205.9618,S,07701.4554,W,1,08,0.9,140.6,M,8.4,M,,0000*6B,1
1779393664328,$GPGSA,M,3,24,15,12,29,25,20,11,06,,,,,2.2,0.9,2.0*3C,1
1779393664490,$GPRMC,200104.000,A,1205.9618,S,07701.4554,W,7.86,22.48,210526,,,A*50,1
1779393665196,$GPGGA,200105.000,1205.9596,S,07701.4544,W,1,08,0.9,140.8,M,8.4,M,,0000*60,1
1779393665322,$GPGSA,M,3,24,15,12,29,25,20,11,06,,,,,2.2,0.9,2.0*3C,1
1779393665485,$GPRMC,200105.000,A,1205.9596,S,07701.4544,W,9.23,23.35,210526,,,A*5F,1
1779393666199,$GPGGA,200106.000,1205.9571,S,07701.4533,W,1,08,0.9,140.8,M,8.4,M,,0000*6A,1
1779393666325,$GPGSA,M,3,24,15,12,29,25,20,11,06,,,,,2.2,0.9,2.0*3C,1
1779393666488,$GPRMC,200106.000,A,1205.9571,S,07701.4533,W,9.31,23.55,210526,,,A*50,1
1779393667201,$GPGGA,200107.000,1205.9545,S,07701.4522,W,1,08,0.9,140.8,M,8.4,M,,0000*6C,1
1779393667327,$GPGSA,M,3,24,15,12,29,25,20,11,06,,,,,2.2,0.9,2.0*3C,1
1779393667488,$GPGSV,3,1,12,24,58,150,42,15,47,349,45,12,40,195,44,29,37,325,43*7F,1
1779393667648,$GPGSV,3,2,12,25,29,240,43,20,28,017,41,11,25,079,24,06,09,115,20*7A,1
1779393667799,$GPGSV,3,3,12,13,19,028,43,44,42,284,43,14,42,228,,21,23,004,*7F,1
1779393667964,$GPRMC,200107.000,A,1205.9545,S,07701.4522,W,10.37,24.11,210526,,,A*6F,1
1779393668200,$GPGGA,200108.000,1205.9516,S,07701.4508,W,1,08,0.9,140.9,M,8.4,M,,0000*6C,1
1779393668326,$GPGSA,M,3,24,15,12,29,25,20,11,06,,,,,2.2,0.9,2.0*3C,1
1779393668491,$GPRMC,200108.000,A,1205.9516,S,07701.4508,W,11.83,24.60,210526,,,A*66,1
1779393669199,$GPGGA,200109.000,1205.9484,S,07701.4495,W,1,08,0.9,141.5,M,8.4,M,,0000*6F,1
1779393669326,$GPGSA,M,3,24,15,12,29,25,20,11,06,,,,,2.2,0.9,2.0*3C,1
1779393669491,$GPRMC,200109.000,A,1205.9484,S,07701.4495,W,12.83,24.43,210526,,,A*6A,1
1779393670199,$GPGGA,200110.000,1205.9450,S,07701.4480,W,1,08,0.9,141.7,M,8.4,M,,0000*68,1
1779393670325,$GPGSA,M,3,24,15,12,29,25,20,11,06,,,,,2.2,0.9,2.0*3C,1
1779393670490,$GPRMC,200110.000,A,1205.9450,S,07701.4480,W,13.51,24.42,210526,,,A*60,1
1779393671194,$GPGGA,200111.000,1205.9415,S,07701.4464,W,1,08,0.9,142.0,M,8.4,M,,0000*66,1
1779393671320,$GPGSA,M,3,24,15,12,29,25,20,11,06,,,,,2.2,0.9,2.0*3C,1
1779393671485,$GPRMC,200111.000,A,1205.9415,S,07701.4464,W,13.64,25.28,210526,,,A*61,1
1779393672206,$GPGGA,200112.000,1205.9379,S,07701.4448,W,1,08,0.9,142.3,M,8.4,M,,0000*65,1
1779393672332,$GPGSA,M,3,24,15,12,29,25,20,11,06,,,,,2.2,0.9,2.0*3C,1
1779393672493,$GPGSV,3,1,12,24,58,150,42,15,47,349,37,12,40,195,45,29,37,325,34*7B,1
1779393672653,$GPGSV,3,2,12,25,29,240,42,20,28,017,41,11,25,079,40,06,09,115,20*79,1
1779393672809,$GPGSV,3,3,12,05,03,018,15,13,19,028,44,44,42,284,35,14,42,228,*74,1
1779393672974,$GPRMC,200112.000,A,1205.9379,S,07701.4448,W,14.16,24.31,210526,,,A*6A,1
1779393673193,$GPGGA,200113.000,1205.9342,S,07701.4431,W,1,07,1.0,142.4,M,8.4,M,,0000*62,1
1779393673314,$GPGSA,M,3,24,15,12,29,25,20,11,,,,,,3.0,1.0,2.8*39,1
1779393673479,$GPRMC,200113.000,A,1205.9342,S,07701.4431,W,14.28,25.13,210526,,,A*61,1
1779393674198,$GPGGA,200114.000,1205.9305,S,07701.4413,W,1,08,0.9,142.6,M,8.4,M,,0000*63,1
1779393674324,$GPGSA,M,3,24,15,12,29,25,20,11,06,,,,,2.2,0.9,2.0*3C,1
1779393674489,$GPRMC,200114.000,A,1205.9305,S,07701.4413,W,14.66,25.55,210526,,,A*6D,1
1779393675199,$GPGGA,200115.000,1205.9266,S,07701.4394,W,1,07,1.0,143.1,M,8.4,M,,0000*6F,1
1779393675320,$GPGSA,M,3,24,15,12,29,25,20,11,,,,,,3.0,1.0,2.8*39,1
1779393675485,$GPRMC,200115.000,A,1205.9266,S,07701.4394,W,15.02,25.74,210526,,,A*60,1
1779393676199,$GPGGA,200116.000,1205.9227,S,07701.4375,W,1,07,1.0,143.6,M,8.4,M,,0000*61,1
1779393676320,$GPGSA,M,3,24,15,12,29,25,20,11,,,,,,3.0,1.0,2.8*39,1
1779393676485,$GPRMC,200116.000,A,1205.9227,S,07701.4375,W,15.24,25.60,210526,,,A*68,1
1779393677195,$GPGGA,200117.000,1205.9188,S,07701.4356,W,1,08,0.9,144.0,M,8.4,M,,0000*61,1
1779393677321,$GPGSA,M,3,24,15,12,29,25,20,11,06,,,,,2.2,0.9,2.0*3C,1
1779393677481,$GPGSV,3,1,12,24,58,150,42,15,47,349,43,12,40,195,45,29,37,325,39*75,1
1779393677642,$GPGSV,3,2,12,25,29,240,41,20,28,017,41,11,25,079,36,06,09,115,10*78,1
1779393677798,$GPGSV,3,3,12,05,03,018,22,13,19,028,44,44,42,284,38,14,42,228,*7D,1
1779393677963,$GPRMC,200117.000,A,1205.9188,S,07701.4356,W,15.38,25.31,210526,,,A*67,1
1779393678194,$GPGGA,200118.000,1205.9148,S,07701.4337,W,1,08,0.9,144.2,M,8.4,M,,0000*67,1
1779393678320,$GPGSA,M,3,24,15,12,29,25,20,11,06,,,,,2.2,0.9,2.0*3C,1
1779393678485,$GPRMC,200118.000,A,1205.9148,S,07701.4337,W,15.32,24.42,210526,,,A*6C,1
1779393679195,$GPGGA,200119.000,1205.9109,S,07701.4319,W,1,08,0.9,144.3,M,8.4,M,,0000*6E,1
1779393679321,$GPGSA,M,3,24,15,12,29,25,20,11,06,,,,,2.2,0.9,2.0*3C,1
1779393679486,$GPRMC,200119.000,A,1205.9109,S,07701.4319,W,15.60,25.06,210526,,,A*62,1
1779393680201,$GPGGA,200120.000,1205.9069,S,07701.4300,W,1,08,0.9,144.4,M,8.4,M,,0000*6C,1
1779393680327,$GPGSA,M,3,24,15,12,29,25,20,11,06,,,,,2.2,0.9,2.0*3C,1
1779393680492,$GPRMC,200120.000,A,1205.9069,S,07701.4300,W,16.17,24.87,210526,,,A*6C,1
1779393681196,$GPGGA,200121.000,1205.9027,S,07701.4281,W,1,08,0.9,144.4,M,8.4,M,,0000*6F,1
1779393681322,$GPGSA,M,3,24,15,12,29,25,20,11,06,,,,,2.2,0.9,2.0*3C,1
1779393681487,$GPRMC,200121.000,A,1205.9027,S,07701.4281,W,16.22,24.69,210526,,,A*69,1
1779393682193,$GPGGA,200122.000,1205.8986,S,07701.4261,W,1,08,0.9,144.4,M,8.4,M,,0000*61,1
1779393682319,$GPGSA,M,3,24,15,12,29,25,20,11,06,,,,,2.2,0.9,2.0*3C,1
1779393682480,$GPGSV,3,1,12,24,58,150,42,15,47,349,44,12,40,195,44,29,37,325,41*7C,1
1779393682640,$GPGSV,3,2,12,25,29,240,40,20,28,017,42,11,25,079,22,06,09,115,22*7E,1
1779393682796,$GPGSV,3,3,12,05,03,018,17,13,19,028,43,44,42,284,42,14,42,228,*71,1
1779393682961,$GPRMC,200122.000,A,1205.8986,S,07701.4261,W,16.29,25.09,210526,,,A*6B,1
1779393683200,$GPGGA,200123.000,1205.8945,S,07701.4241,W,1,08,0.9,144.4,M,8.4,M,,0000*6D,1
1779393683326,$GPGSA,M,3,24,15,12,29,25,20,11,06,,,,,2.2,0.9,2.0*3C,1
1779393683491,$GPRMC,200123.000,A,1205.8945,S,07701.4241,W,16.21,24.80,210526,,,A*6F,1
1779393684200,$GPGGA,200124.000,1205.8903,S,07701.4222,W,1,08,0.9,144.6,M,8.4,M,,0000*6F,1
1779393684326,$GPGSA,M,3,24,15,12,29,25,20,11,06,,,,,2.2,0.9,2.0*3C,1
1779393684491,$GPRMC,200124.000,A,1205.8903,S,07701.4222,W,16.16,24.49,210526,,,A*6E,1
1779393685194,$GPGGA,200125.000,1205.8863,S,07701.4203,W,1,07,1.0,144.5,M,8.4,M,,0000*6E,1
1779393685315,$GPGSA,M,3,24,15,12,29,25,20,11,,,,,,3.0,1.0,2.8*39,1
1779393685480,$GPRMC,200125.000,A,1205.8863,S,07701.4203,W,15.80,23.63,210526,,,A*68,1
1779393686196,$GPGGA,200126.000,1205.8824,S,07701.4186,W,1,07,1.0,144.6,M,8.4,M,,0000*63,1
1779393686318,$GPGSA,M,3,24,15,12,29,25,20,11,,,,,,3.0,1.0,2.8*39,1
1779393686483,$GPRMC,200126.000,A,1205.8824,S,07701.4186,W,14.66,23.44,210526,,,A*6A,1
1779393687196,$GPGGA,200127.000,1205.8789,S,07701.4170,W,1,07,1.0,144.6,M,8.4,M,,0000*63,1
1779393687318,$GPGSA,M,3,24,15,12,29,25,20,11,,,,,,3.0,1.0,2.8*39,1
1779393687478,$GPGSV,3,1,12,24,58,150,39,15,47,349,45,12,40,195,44,29,37,325,42*72,1
1779393687638,$GPGSV,3,2,12,25,29,240,41,20,28,017,42,11,25,079,27,06,09,115,04*7E,1
1779393687790,$GPGSV,3,3,12,13,19,028,43,44,42,284,43,14,42,228,,21,23,004,*7F,1
1779393687955,$GPRMC,200127.000,A,1205.8789,S,07701.4170,W,12.77,23.21,210526,,,A*6F,1
1779393688196,$GPGGA,200128.000,1205.8760,S,07701.4158,W,1,07,1.0,144.7,M,8.4,M,,0000*60,1
1779393688317,$GPGSA,M,3,24,15,12,29,25,20,11,,,,,,3.0,1.0,2.8*39,1
1779393688482,$GPRMC,200128.000,A,1205.8760,S,07701.4158,W,10.53,22.66,210526,,,A*6B,1
1779393689196,$GPGGA,200129.000,1205.8736,S,07701.4149,W,1,07,1.0,144.7,M,8.4,M,,0000*62,1
1779393689318,$GPGSA,M,3,24,15,12,29,25,20,11,,,,,,3.0,1.0,2.8*39,1
1779393689481,$GPRMC,200129.000,A,1205.8736,S,07701.4149,W,8.40,19.74,210526,,,A*59,1
1779393690196,$GPGGA,200130.000,1205.8717,S,07701.4143,W,1,07,1.0,144.7,M,8.4,M,,0000*63,1
1779393690317,$GPGSA,M,3,24,15,12,29,25,20,11,,,,,,3.0,1.0,2.8*39,1
1779393690480,$GPRMC,200130.000,A,1205.8717,S,07701.4143,W,6.80,13.87,210526,,,A*5C,1
1779393691200,$GPGGA,200131.000,1205.8701,S,07701.4142,W,1,08,0.9,144.7,M,8.4,M,,0000*63,1
1779393691326,$GPGSA,M,3,24,15,12,29,25,20,11,06,,,,,2.2,0.9,2.0*3C,1
1779393691487,$GPRMC,200131.000,A,1205.8701,S,07701.4142,W,5.78,0.17,210526,,,A*64,1
1779393692200,$GPGGA,200132.000,1205.8686,S,07701.4148,W,1,08,0.9,144.7,M,8.4,M,,0000*64,1
1779393692326,$GPGSA,M,3,24,15,12,29,25,20,11,06,,,,,2.2,0.9,2.0*3C,1
1779393692487,$GPGSV,3,1,12,24,58,150,42,15,47,349,45,12,40,195,44,29,37,325,43*7F,1
1779393692647,$GPGSV,3,2,12,25,29,240,41,20,28,017,42,11,25,079,25,06,09,115,21*7B,1
1779393692798,$GPGSV,3,3,12,13,19,028,44,44,42,284,43,14,42,228,,21,23,004,*78,1
1779393692963,$GPRMC,200132.000,A,1205.8686,S,07701.4148,W,6.28,333.78,210526,,,A*6F,1
1779393693201,$GPGGA,200133.000,1205.8673,S,07701.4162,W,1,08,0.9,144.7,M,8.4,M,,0000*67,1
1779393693327,$GPGSA,M,3,24,15,12,29,25,20,11,06,,,,,2.2,0.9,2.0*3C,1
1779393693492,$GPRMC,200133.000,A,1205.8673,S,07701.4162,W,7.57,304.66,210526,,,A*6E,1
1779393694194,$GPGGA,200134.000,1205.8666,S,07701.4185,W,1,08,0.9,144.4,M,8.4,M,,0000*6E,1
1779393694320,$GPGSA,M,3,24,15,12,29,25,20,11,06,,,,,2.2,0.9,2.0*3C,1
1779393694485,$GPRMC,200134.000,A,1205.8666,S,07701.4185,W,9.37,284.13,210526,,,A*67,1
1779393695200,$GPGGA,200135.000,1205.8661,S,07701.4214,W,1,08,0.9,144.4,M,8.4,M,,0000*63,1
1779393695326,$GPGSA,M,3,24,15,12,29,25,20,11,06,,,,,2.2,0.9,2.0*3C,1
1779393695493,$GPRMC,200135.000,A,1205.8661,S,07701.4214,W,10.78,277.89,210526,,,A*56,1
1779393696202,$GPGGA,200136.000,1205.8658,S,07701.4247,W,1,08,0.9,144.2,M,8.4,M,,0000*6A,1
1779393696328,$GPGSA,M,3,24,15,12,29,25,20,11,06,,,,,2.2,0.9,2.0*3C,1
1779393696495,$GPRMC,200136.000,A,1205.8658,S,07701.4247,W,12.10,276.81,210526,,,A*5C,1
1779393697201,$GPGGA,200137.000,1205.8655,S,07701.4283,W,1,08,0.9,144.0,M,8.4,M,,0000*6C,1
1779393697327,$GPGSA,M,3,24,15,12,29,25,20,11,06,,,,,2.2,0.9,2.0*3C,1
1779393697487,$GPGSV,3,1,12,24,58,150,44,15,47,349,44,12,40,195,43,29,37,325,43*7F,1
1779393697648,$GPGSV,3,2,12,25,29,240,37,20,28,017,38,11,25,079,35,06,09,115,24*73,1
1779393697803,$GPGSV,3,3,12,05,03,018,04,13,19,028,38,44,42,284,45,14,42,228,*78,1
1779393697971,$GPRMC,200137.000,A,1205.8655,S,07701.4283,W,12.81,277.08,210526,,,A*50,1
1779393698199,$GPGGA,200138.000,1205.8651,S,07701.4320,W,1,08,0.9,144.3,M,8.4,M,,0000*6C,1
1779393698325,$GPGSA,M,3,24,15,12,29,25,20,11,06,,,,,2.2,0.9,2.0*3C,1
1779393698492,$GPRMC,200138.000,A,1205.8651,S,07701.4320,W,13.05,277.50,210526,,,A*53,1
1779393699200,$GPGGA,200139.000,1205.8646,S,07701.4357,W,1,08,0.9,144.5,M,8.4,M,,0000*6D,1
1779393699326,$GPGSA,M,3,24,15,12,29,25,20,11,06,,,,,2.2,0.9,2.0*3C,1
1779393699493,$GPRMC,200139.000,A,1205.8646,S,07701.4357,W,12.65,277.80,210526,,,A*5E,1
1779393700198,$GPGGA,200140.000,1205.8642,S,07701.4393,W,1,08,0.9,144.6,M,8.4,M,,0000*6C,1
1779393700325,$GPGSA,M,3,24,15,12,29,25,20,11,06,,,,,2.2,0.9,2.0*3C,1
1779393700492,$GPRMC,200140.000,A,1205.8642,S,07701.4393,W,12.34,278.23,210526,,,A*5E,1
1779393701199,$GPGGA,200141.000,1205.8639,S,07701.4428,W,1,08,0.9,144.6,M,8.4,M,,0000*66,1
1779393701325,$GPGSA,M,3,24,15,12,29,25,20,11,06,,,,,2.2,0.9,2.0*3C,1
1779393701493,$GPRMC,200141.000,A,1205.8639,S,07701.4428,W,12.12,276.83,210526,,,A*54,1
1779393702198,$GPGGA,200142.000,1205.8637,S,07701.4461,W,1,08,0.9,144.6,M,8.4,M,,0000*66,1
1779393702324,$GPGSA,M,3,24,15,12,29,25,20,11,06,,,,,2.2,0.9,2.0*3C,1
1779393702485,$GPGSV,3,1,12,24,58,150,44,15,47,349,40,12,40,195,43,29,37,325,43*7B,1
1779393702645,$GPGSV,3,2,12,25,29,240,33,20,28,017,23,11,25,079,44,06,09,115,27*78,1
1779393702801,$GPGSV,3,3,12,05,03,018,04,13,19,028,42,44,42,284,45,14,42,228,*75,1
1779393702968,$GPRMC,200142.000,A,1205.8637,S,07701.4461,W,11.32,277.50,210526,,,A*5A,1
1779393703200,$GPGGA,200143.000,1205.8634,S,07701.4490,W,1,08,0.9,144.5,M,8.4,M,,0000*69,1
1779393703326,$GPGSA,M,3,24,15,12,29,25,20,11,06,,,,,2.2,0.9,2.0*3C,1
1779393703491,$GPRMC,200143.000,A,1205.8634,S,07701.4490,W,9.43,278.32,210526,,,A*62,1
1779393704200,$GPGGA,200144.000,1205.8631,S,07701.4512,W,1,08,0.9,144.6,M,8.4,M,,0000*63,1
1779393704326,$GPGSA,M,3,24,15,12,29,25,20,11,06,,,,,2.2,0.9,2.0*3C,1
1779393704491,$GPRMC,200144.000,A,1205.8631,S,07701.4512,W,6.98,278.13,210526,,,A*61,1
1779393705200,$GPGGA,200145.000,1205.8630,S,07701.4530,W,1,08,0.9,144.4,M,8.4,M,,0000*61,1
1779393705326,$GPGSA,M,3,24,15,12,29,25,20,11,06,,,,,2.2,0.9,2.0*3C,1
1779393705491,$GPRMC,200145.000,A,1205.8630,S,07701.4530,W,5.61,271.53,210526,,,A*69,1
1779393706194,$GPGGA,200146.000,1205.8634,S,07701.4546,W,1,08,0.9,144.2,M,8.4,M,,0000*61,1
1779393706320,$GPGSA,M,3,24,15,12,29,25,20,11,06,,,,,2.2,0.9,2.0*3C,1
1779393706485,$GPRMC,200146.000,A,1205.8634,S,07701.4546,W,6.02,251.45,210526,,,A*6C,1
1779393707194,$GPGGA,200147.000,1205.8646,S,07701.4562,W,1,08,0.9,143.9,M,8.4,M,,0000*6F,1
1779393707320,$GPGSA,M,3,24,15,12,29,25,20,11,06,,,,,2.2,0.9,2.0*3C,1
1779393707481,$GPGSV,3,1,12,24,58,150,45,15,47,349,43,12,40,195,44,29,37,325,27*7C,1
1779393707641,$GPGSV,3,2,12,25,29,240,21,20,28,017,39,11,25,079,42,06,09,115,31*71,1
1779393707797,$GPGSV,3,3,12,05,03,018,04,13,19,028,43,44,42,284,25,14,42,228,*72,1
1779393707962,$GPRMC,200147.000,A,1205.8646,S,07701.4562,W,7.95,226.86,210526,,,A*6E,1
1779393708194,$GPGGA,200148.000,1205.8668,S,07701.4577,W,1,08,0.9,143.6,M,8.4,M,,0000*67,1
1779393708320,$GPGSA,M,3,24,15,12,29,25,20,11,06,,,,,2.2,0.9,2.0*3C,1
1779393708487,$GPRMC,200148.000,A,1205.8668,S,07701.4577,W,10.41,210.11,210526,,,A*5D,1
1779393709194,$GPGGA,200149.000,1205.8699,S,07701.4591,W,1,08,0.9,143.5,M,8.4,M,,0000*63,1
1779393709320,$GPGSA,M,3,24,15,12,29,25,20,11,06,,,,,2.2,0.9,2.0*3C,1
1779393709487,$GPRMC,200149.000,A,1205.8699,S,07701.4591,W,12.77,204.30,210526,,,A*5B,1
1779393710193,$GPGGA,200150.000,1205.8735,S,07701.4607,W,1,08,0.9,143.7,M,8.4,M,,0000*62,1
1779393710319,$GPGSA,M,3,24,15,12,29,25,20,11,06,,,,,2.2,0.9,2.0*3C,1
1779393710486,$GPRMC,200150.000,A,1205.8735,S,07701.4607,W,14.73,204.64,210526,,,A*5B,1
1779393711193,$GPGGA,200151.000,1205.8775,S,07701.4625,W,1,08,0.9,143.7,M,8.4,M,,0000*67,1
1779393711319,$GPGSA,M,3,24,15,12,29,25,20,11,06,,,,,2.2,0.9,2.0*3C,1
1779393711486,$GPRMC,200151.000,A,1205.8775,S,07701.4625,W,15.26,205.73,210526,,,A*58,1
1779393712193,$GPGGA,200152.000,1205.8815,S,07701.4644,W,1,08,0.9,143.7,M,8.4,M,,0000*6A,1
1779393712319,$GPGSA,M,3,24,15,12,29,25,20,11,06,,,,,2.2,0.9,2.0*3C,1
1779393712480,$GPGSV,3,1,12,24,58,150,44,15,47,349,43,12,40,195,44,29,37,325,29*73,1
1779393712640,$GPGSV,3,2,12,25,29,240,32,20,28,017,39,11,25,079,38,06,09,115,23*7D,1
1779393712787,$GPGSV,3,3,12,13,19,028,44,44,42,284,,14,42,228,,21,23,004,*7F,1
1779393712954,$GPRMC,200152.000,A,1205.8815,S,07701.4644,W,15.12,205.65,210526,,,A*55,1
1779393713193,$GPGGA,200153.000,1205.8855,S,07701.4662,W,1,08,0.9,143.4,M,8.4,M,,0000*68,1
1779393713319,$GPGSA,M,3,24,15,12,29,25,20,11,06,,,,,2.2,0.9,2.0*3C,1
1779393713486,$GPRMC,200153.000,A,1205.8855,S,07701.4662,W,15.55,205.33,210526,,,A*54,1
1779393714191,$GPGGA,200154.000,1205.8896,S,07701.4683,W,1,08,0.9,143.2,M,8.4,M,,0000*69,1
1779393714317,$GPGSA,M,3,24,15,12,29,25,20,11,06,,,,,2.2,0.9,2.0*3C,1
1779393714485,$GPRMC,200154.000,A,1205.8896,S,07701.4683,W,16.05,204.75,210526,,,A*56,1
1779393715190,$GPGGA,200155.000,1205.8938,S,07701.4702,W,1,08,0.9,143.1,M,8.4,M,,0000*66,1
1779393715316,$GPGSA,M,3,24,15,12,29,25,20,11,06,,,,,2.2,0.9,2.0*3C,1
1779393715484,$GPRMC,200155.000,A,1205.8938,S,07701.4702,W,15.93,205.07,210526,,,A*52,1
1779393716191,$GPGGA,200156.000,1205.8980,S,07701.4722,W,1,08,0.9,142.9,M,8.4,M,,0000*6D,1
1779393716317,$GPGSA,M,3,24,15,12,29,25,20,11,06,,,,,2.2,0.9,2.0*3C,1
1779393716484,$GPRMC,200156.000,A,1205.8980,S,07701.4722,W,16.00,203.04,210526,,,A*5C,1
1779393717191,$GPGGA,200157.000,1205.9022,S,07701.4740,W,1,08,0.9,142.7,M,8.4,M,,0000*66,1
1779393717317,$GPGSA,M,3,24,15,12,29,25,20,11,06,,,,,2.2,0.9,2.0*3C,1
1779393717478,$GPGSV,3,1,12,24,58,150,42,15,47,349,33,12,40,195,44,29,37,325,17*7F,1
1779393717638,$GPGSV,3,2,12,25,29,240,35,20,28,017,42,11,25,079,32,06,09,115,22*7D,1
1779393717785,$GPGSV,3,3,12,13,19,028,44,44,42,284,,14,42,228,,21,23,004,*7F,1
1779393717952,$GPRMC,200157.000,A,1205.9022,S,07701.4740,W,15.87,203.48,210526,,,A*5D,1
1779393718190,$GPGGA,200158.000,1205.9063,S,07701.4755,W,1,08,0.9,143.2,M,8.4,M,,0000*6C,1
1779393718316,$GPGSA,M,3,24,15,12,29,25,20,11,06,,,,,2.2,0.9,2.0*3C,1
1779393718484,$GPRMC,200158.000,A,1205.9063,S,07701.4755,W,15.88,205.55,210526,,,A*56,1
1779393719192,$GPGGA,200159.000,1205.9104,S,07701.4774,W,1,08,0.9,143.4,M,8.4,M,,0000*68,1
1779393719318,$GPGSA,M,3,24,15,12,29,25,20,11,06,,,,,2.2,0.9,2.0*3C,1
1779393719485,$GPRMC,200159.000,A,1205.9104,S,07701.4774,W,16.04,205.43,210526,,,A*54,1
1779393720193,$GPGGA,200200.000,1205.9145,S,07701.4796,W,1,08,0.9,143.9,M,8.4,M,,0000*63,1
1779393720319,$GPGSA,M,3,24,15,12,29,25,20,11,06,,,,,2.2,0.9,2.0*3C,1
1779393720486,$GPRMC,200200.000,A,1205.9145,S,07701.4796,W,16.46,205.39,210526,,,A*59,1
1779393721198,$GPGGA,200201.000,1205.9187,S,07701.4819,W,1,08,0.9,144.3,M,8.4,M,,0000*69,1
1779393721324,$GPGSA,M,3,24,15,12,29,25,20,11,06,,,,,2.2,0.9,2.0*3C,1
1779393721491,$GPRMC,200201.000,A,1205.9187,S,07701.4819,W,16.69,205.87,210526,,,A*56,1
1779393722191,$GPGGA,200202.000,1205.9230,S,07701.4838,W,1,08,0.9,143.9,M,8.4,M,,0000*6B,1
1779393722317,$GPGSA,M,3,24,15,12,29,25,20,11,06,,,,,2.2,0.9,2.0*3C,1
1779393722478,$GPGSV,3,1,12,24,58,150,43,15,47,349,33,12,40,195,44,29,37,325,42*7E,1
1779393722638,$GPGSV,3,2,12,25,29,240,33,20,28,017,43,11,25,079,40,06,09,115,21*7C,1
1779393722789,$GPGSV,3,3,12,13,19,028,44,44,42,284,40,14,42,228,,21,23,004,*7B,1
1779393722956,$GPRMC,200202.000,A,1205.9230,S,07701.4838,W,16.52,205.29,210526,,,A*55,1
1779393723190,$GPGGA,200203.000,1205.9272,S,07701.4862,W,1,08,0.9,144.3,M,8.4,M,,0000*6E,1
1779393723316,$GPGSA,M,3,24,15,12,29,25,20,11,06,,,,,2.2,0.9,2.0*3C,1
1779393723483,$GPRMC,200203.000,A,1205.9272,S,07701.4862,W,16.78,206.34,210526,,,A*5A,1
1779393724191,$GPGGA,200204.000,1205.9315,S,07701.4884,W,1,08,0.9,144.1,M,8.4,M,,0000*63,1
1779393724317,$GPGSA,M,3,24,15,12,29,25,20,11,06,,,,,2.2,0.9,2.0*3C,1
1779393724485,$GPRMC,200204.000,A,1205.9315,S,07701.4884,W,17.07,205.96,210526,,,A*57,1
1779393725193,$GPGGA,200205.000,1205.9358,S,07701.4905,W,1,08,0.9,143.8,M,8.4,M,,0000*6D,1
1779393725319,$GPGSA,M,3,24,15,12,29,25,20,11,06,,,,,2.2,0.9,2.0*3C,1
1779393725486,$GPRMC,200205.000,A,1205.9358,S,07701.4905,W,17.09,205.05,210526,,,A*53,1
1779393726192,$GPGGA,200206.000,1205.9401,S,07701.4926,W,1,08,0.9,143.6,M,8.4,M,,0000*6A,1
1779393726318,$GPGSA,M,3,24,15,12,29,25,20,11,06,,,,,2.2,0.9,2.0*3C,1
1779393726486,$GPRMC,200206.000,A,1205.9401,S,07701.4926,W,16.61,204.69,210526,,,A*5E,1
1779393727194,$GPGGA,200207.000,1205.9442,S,07701.4946,W,1,08,0.9,143.4,M,8.4,M,,0000*68,1
1779393727320,$GPGSA,M,3,24,15,12,29,25,20,11,06,,,,,2.2,0.9,2.0*3C,1
1779393727480,$GPGSV,3,1,12,24,58,150,43,15,47,349,41,12,40,195,42,29,37,325,39*71,1
1779393727641,$GPGSV,3,2,12,25,29,240,38,20,28,017,39,11,25,079,37,06,09,115,22*79,1
1779393727792,$GPGSV,3,3,12,13,19,028,42,44,42,284,37,14,42,228,,21,23,004,*7D,1
1779393727959,$GPRMC,200207.000,A,1205.9442,S,07701.4946,W,16.00,204.31,210526,,,A*54,1
1779393728193,$GPGGA,200208.000,1205.9482,S,07701.4965,W,1,08,0.9,143.3,M,8.4,M,,0000*6D,1
1779393728319,$GPGSA,M,3,24,15,12,29,25,20,11,06,,,,,2.2,0.9,2.0*3C,1
1779393728486,$GPRMC,200208.000,A,1205.9482,S,07701.4965,W,15.49,203.97,210526,,,A*53,1
1779393729197,$GPGGA,200209.000,1205.9520,S,07701.4983,W,1,07,1.0,143.1,M,8.4,M,,0000*68,1
1779393729318,$GPGSA,M,3,24,15,12,29,25,20,11,,,,,,3.0,1.0,2.8*39,1
1779393729485,$GPRMC,200209.000,A,1205.9520,S,07701.4983,W,14.29,204.06,210526,,,A*5B,1
1779393730189,$GPGGA,200210.000,1205.9555,S,07701.4998,W,1,07,1.0,143.0,M,8.4,M,,0000*69,1
1779393730310,$GPGSA,M,3,24,15,12,29,25,20,11,,,,,,3.0,1.0,2.8*39,1
1779393730478,$GPRMC,200210.000,A,1205.9555,S,07701.4998,W,12.47,204.73,210526,,,A*57,1
1779393731189,$GPGGA,200211.000,1205.9582,S,07701.5011,W,1,07,1.0,142.8,M,8.4,M,,0000*62,1
1779393731310,$GPGSA,M,3,24,15,12,29,25,20,11,,,,,,3.0,1.0,2.8*39,1
1779393731475,$GPRMC,200211.000,A,1205.9582,S,07701.5011,W,9.31,204.74,210526,,,A*69,1
1779393732191,$GPGGA,200212.000,1205.9600,S,07701.5020,W,1,07,1.0,142.7,M,8.4,M,,0000*65,1
1779393732313,$GPGSA,M,3,24,15,12,29,25,20,11,,,,,,3.0,1.0,2.8*39,1
1779393732473,$GPGSV,3,1,12,24,58,150,41,15,47,349,36,12,40,195,37,29,37,325,35*7D,1
1779393732634,$GPGSV,3,2,12,25,29,240,34,20,28,017,38,11,25,079,15,06,09,115,04*70,1
1779393732785,$GPGSV,3,3,12,13,19,028,38,44,42,284,38,14,42,228,,21,23,004,*7F,1
1779393732950,$GPRMC,200212.000,A,1205.9600,S,07701.5020,W,5.00,204.31,210526,,,A*6E,1
1779393733193,$GPGGA,200213.000,1205.9612,S,07701.5025,W,1,07,1.0,142.6,M,8.4,M,,0000*63,1
1779393733314,$GPGSA,M,3,24,15,12,29,25,20,11,,,,,,3.0,1.0,2.8*39,1
1779393733479,$GPRMC,200213.000,A,1205.9612,S,07701.5025,W,4.23,204.72,210526,,,A*6E,1
1779393734196,$GPGGA,200214.000,1205.9622,S,07701.5030,W,1,07,1.0,142.5,M,8.4,M,,0000*60,1
1779393734317,$GPGSA,M,3,24,15,12,29,25,20,11,,,,,,3.0,1.0,2.8*39,1
1779393734482,$GPRMC,200214.000,A,1205.9622,S,07701.5030,W,4.16,204.90,210526,,,A*64,1
1779393735193,$GPGGA,200215.000,1205.9634,S,07701.5036,W,1,08,0.9,142.5,M,8.4,M,,0000*67,1
1779393735319,$GPGSA,M,3,24,15,12,29,25,20,11,06,,,,,2.2,0.9,2.0*3C,1
1779393735484,$GPRMC,200215.000,A,1205.9634,S,07701.5036,W,5.49,204.61,210526,,,A*61,1
1779393736194,$GPGGA,200216.000,1205.9651,S,07701.5043,W,1,08,0.9,142.6,M,8.4,M,,0000*66,1
1779393736320,$GPGSA,M,3,24,15,12,29,25,20,11,06,,,,,2.2,0.9,2.0*3C,1
1779393736485,$GPRMC,200216.000,A,1205.9651,S,07701.5043,W,7.34,204.38,210526,,,A*67,1
1779393737193,$GPGGA,200217.000,1205.9671,S,07701.5052,W,1,08,0.9,142.5,M,8.4,M,,0000*66,1
1779393737319,$GPGSA,M,3,24,15,12,29,25,20,11,06,,,,,2.2,0.9,2.0*3C,1
1779393737480,$GPGSV,3,1,12,24,58,150,40,15,47,349,39,12,40,195,39,29,37,325,40*7F,1
1779393737640,$GPGSV,3,2,12,25,29,240,36,20,28,017,39,11,25,079,18,06,09,115,22*7A,1
1779393737791,$GPGSV,3,3,12,13,19,028,39,44,42,284,35,14,42,228,,21,23,004,*73,1
1779393737956,$GPRMC,200217.000,A,1205.9671,S,07701.5052,W,8.21,204.23,210526,,,A*65,1
1779393738193,$GPGGA,200218.000,1205.9692,S,07701.5061,W,1,08,0.9,142.5,M,8.4,M,,0000*64,1
1779393738319,$GPGSA,M,3,24,15,12,29,25,20,11,06,,,,,2.2,0.9,2.0*3C,1
1779393738485,$GPRMC,200218.000,A,1205.9692,S,07701.5061,W,8.22,203.28,210526,,,A*68,1
1779393739194,$GPGGA,200219.000,1205.9711,S,07701.5070,W,1,08,0.9,142.5,M,8.4,M,,0000*6F,1
1779393739320,$GPGSA,M,3,24,15,12,29,25,20,11,06,,,,,2.2,0.9,2.0*3C,1
1779393739485,$GPRMC,200219.000,A,1205.9711,S,07701.5070,W,7.06,202.02,210526,,,A*63,1
1779393740194,$GPGGA,200220.000,1205.9729,S,07701.5075,W,1,08,0.9,142.6,M,8.4,M,,0000*68,1
1779393740320,$GPGSA,M,3,24,15,12,29,25,20,11,06,,,,,2.2,0.9,2.0*3C,1
1779393740485,$GPRMC,200220.000,A,1205.9729,S,07701.5075,W,6.17,191.42,210526,,,A*6B,1
1779393741194,$GPGGA,200221.000,1205.9746,S,07701.5073,W,1,08,0.9,142.6,M,8.4,M,,0000*66,1
1779393741320,$GPGSA,M,3,24,15,12,29,25,20,11,06,,,,,2.2,0.9,2.0*3C,1
1779393741485,$GPRMC,200221.000,A,1205.9746,S,07701.5073,W,6.61,163.48,210526,,,A*63,1
1779393742193,$GPGGA,200222.000,1205.9762,S,07701.5061,W,1,08,0.9,142.5,M,8.4,M,,0000*63,1
1779393742319,$GPGSA,M,3,24,15,12,29,25,20,11,06,,,,,2.2,0.9,2.0*3C,1
1779393742480,$GPGSV,3,1,12,24,58,150,38,15,47,349,40,12,40,195,40,29,37,325,40*70,1
1779393742640,$GPGSV,3,2,12,25,29,240,38,20,28,017,40,11,25,079,38,06,09,115,20*7A,1
1779393742791,$GPGSV,3,3,12,13,19,028,39,44,42,284,40,14,42,228,,21,23,004,*71,1
1779393742956,$GPRMC,200222.000,A,1205.9762,S,07701.5061,W,7.76,134.31,210526,,,A*6E,1
1779393743194,$GPGGA,200223.000,1205.9776,S,07701.5040,W,1,08,0.9,142.5,M,8.4,M,,0000*64,1
1779393743320,$GPGSA,M,3,24,15,12,29,25,20,11,06,,,,,2.2,0.9,2.0*3C,1
1779393743485,$GPRMC,200223.000,A,1205.9776,S,07701.5040,W,9.63,121.72,210526,,,A*60,1
1779393744191,$GPGGA,200224.000,1205.9790,S,07701.5016,W,1,08,0.9,142.8,M,8.4,M,,0000*65,1
1779393744317,$GPGSA,M,3,24,15,12,29,25,20,11,06,,,,,2.2,0.9,2.0*3C,1
1779393744485,$GPRMC,200224.000,A,1205.9790,S,07701.5016,W,10.66,118.30,210526,,,A*5D,1
1779393745194,$GPGGA,200225.000,1205.9804,S,07701.4989,W,1,08,0.9,142.9,M,8.4,M,,0000*69,1
1779393745320,$GPGSA,M,3,24,15,12,29,25,20,11,06,,,,,2.2,0.9,2.0*3C,1
1779393745487,$GPRMC,200225.000,A,1205.9804,S,07701.4989,W,11.29,117.98,210526,,,A*57,1
1779393746195,$GPGGA,200226.000,1205.9819,S,07701.4959,W,1,08,0.9,142.8,M,8.4,M,,0000*6A,1
1779393746321,$GPGSA,M,3,24,15,12,29,25,20,11,06,,,,,2.2,0.9,2.0*3C,1
1779393746488,$GPRMC,200226.000,A,1205.9819,S,07701.4959,W,11.57,115.22,210526,,,A*5F,1
1779393747198,$GPGGA,200227.000,1205.9833,S,07701.4928,W,1,08,0.9,142.6,M,8.4,M,,0000*6B,1
1779393747324,$GPGSA,M,3,24,15,12,29,25,20,11,06,,,,,2.2,0.9,2.0*3C,1
1779393747484,$GPGSV,3,1,12,24,58,150,42,15,47,349,39,12,40,195,41,29,37,325,40*72,1
1779393747644,$GPGSV,3,2,12,25,29,240,38,20,28,017,34,11,25,079,30,06,09,115,36*76,1
1779393747796,$GPGSV,3,3,12,13,19,028,41,44,42,284,42,14,42,228,,21,23,004,*7C,1
1779393747963,$GPRMC,200227.000,A,1205.9833,S,07701.4928,W,11.80,116.36,210526,,,A*5C,1
1779393748193,$GPGGA,200228.000,1205.9848,S,07701.4897,W,1,08,0.9,142.4,M,8.4,M,,0000*6F,1
1779393748319,$GPGSA,M,3,24,15,12,29,25,20,11,06,,,,,2.2,0.9,2.0*3C,1
1779393748486,$GPRMC,200228.000,A,1205.9848,S,07701.4897,W,11.81,116.63,210526,,,A*5B,1
1779393749198,$GPGGA,200229.000,1205.9863,S,07701.4866,W,1,08,0.9,142.3,M,8.4,M,,0000*6E,1
1779393749324,$GPGSA,M,3,24,15,12,29,25,20,11,06,,,,,2.2,0.9,2.0*3C,1
1779393749491,$GPRMC,200229.000,A,1205.9863,S,07701.4866,W,11.58,114.94,210526,,,A*53,1
1779393750198,$GPGGA,200230.000,1205.9876,S,07701.4837,W,1,08,0.9,142.4,M,8.4,M,,0000*61,1
1779393750324,$GPGSA,M,3,24,15,12,29,25,20,11,06,,,,,2.2,0.9,2.0*3C,1
1779393750491,$GPRMC,200230.000,A,1205.9876,S,07701.4837,W,11.17,113.72,210526,,,A*5F,1
1779393751198,$GPGGA,200231.000,1205.9888,S,07701.4810,W,1,08,0.9,142.6,M,8.4,M,,0000*66,1
1779393751324,$GPGSA,M,3,24,15,12,29,25,20,11,06,,,,,2.2,0.9,2.0*3C,1
1779393751491,$GPRMC,200231.000,A,1205.9888,S,07701.4810,W,10.22,113.41,210526,,,A*5D,1
1779393752203,$GPGGA,200232.000,1205.9898,S,07701.4786,W,1,08,0.9,143.6,M,8.4,M,,0000*65,1
1779393752329,$GPGSA,M,3,24,15,12,29,25,20,11,06,,,,,2.2,0.9,2.0*3C,1
1779393752489,$GPGSV,3,1,12,24,58,150,43,15,47,349,39,12,40,195,42,29,37,325,39*7E,1
1779393752650,$GPGSV,3,2,12,25,29,240,39,20,28,017,36,11,25,079,31,06,09,115,38*7A,1
1779393752801,$GPGSV,3,3,12,05,03,018,,13,19,028,42,44,42,284,42,14,42,228,*76,1
1779393752966,$GPRMC,200232.000,A,1205.9898,S,07701.4786,W,9.20,112.89,210526,,,A*60,1
1779393753199,$GPGGA,200233.000,1205.9906,S,07701.4765,W,1,08,0.9,144.2,M,8.4,M,,0000*6C,1
1779393753325,$GPGSA,M,3,24,15,12,29,25,20,11,06,,,,,2.2,0.9,2.0*3C,1
1779393753490,$GPRMC,200233.000,A,1205.9906,S,07701.4765,W,7.65,108.88,210526,,,A*6F,1
1779393754197,$GPGGA,200234.000,1205.9910,S,07701.4746,W,1,08,0.9,144.7,M,8.4,M,,0000*68,1
1779393754323,$GPGSA,M,3,24,15,12,29,25,20,11,06,,,,,2.2,0.9,2.0*3C,1
1779393754486,$GPRMC,200234.000,A,1205.9910,S,07701.4746,W,6.54,98.91,210526,,,A*5D,1
1779393755197,$GPGGA,200235.000,1205.9909,S,07701.4729,W,1,08,0.9,145.1,M,8.4,M,,0000*6F,1
1779393755323,$GPGSA,M,3,24,15,12,29,25,20,11,06,,,,,2.2,0.9,2.0*3C,1
1779393755486,$GPRMC,200235.000,A,1205.9909,S,07701.4729,W,5.95,80.47,210526,,,A*51,1
1779393756194,$GPGGA,200236.000,1205.9903,S,07701.4713,W,1,08,0.9,144.9,M,8.4,M,,0000*66,1
1779393756320,$GPGSA,M,3,24,15,12,29,25,20,11,06,,,,,2.2,0.9,2.0*3C,1
1779393756483,$GPRMC,200236.000,A,1205.9903,S,07701.4713,W,6.52,62.32,210526,,,A*57,1
1779393757194,$GPGGA,200237.000,1205.9889,S,07701.4697,W,1,08,0.9,144.6,M,8.4,M,,0000*66,1
1779393757321,$GPGSA,M,3,24,15,12,29,25,20,11,06,,,,,2.2,0.9,2.0*3C,1
1779393757481,$GPGSV,3,1,12,24,58,150,43,15,47,349,43,12,40,195,42,29,37,325,39*73,1
1779393757641,$GPGSV,3,2,12,25,29,240,40,20,28,017,37,11,25,079,43,06,09,115,20*79,1
1779393757793,$GPGSV,3,3,12,13,19,028,41,44,42,284,34,14,42,228,,21,23,004,*7D,1
1779393757955,$GPRMC,200237.000,A,1205.9889,S,07701.4697,W,7.66,43.49,210526,,,A*51,1
1779393758192,$GPGGA,200238.000,1205.9869,S,07701.4684,W,1,08,0.9,144.5,M,8.4,M,,0000*66,1
1779393758318,$GPGSA,M,3,24,15,12,29,25,20,11,06,,,,,2.2,0.9,2.0*3C,1
1779393758481,$GPRMC,200238.000,A,1205.9869,S,07701.4684,W,8.75,33.01,210526,,,A*54,1
1779393759194,$GPGGA,200239.000,1205.9846,S,07701.4671,W,1,08,0.9,144.4,M,8.4,M,,0000*61,1
1779393759320,$GPGSA,M,3,24,15,12,29,25,20,11,06,,,,,2.2,0.9,2.0*3C,1
1779393759483,$GPRMC,200239.000,A,1205.9846,S,07701.4671,W,9.78,28.17,210526,,,A*53,1
1779393760200,$GPGGA,200240.000,1205.9819,S,07701.4659,W,1,08,0.9,144.2,M,8.4,M,,0000*69,1
1779393760326,$GPGSA,M,3,24,15,12,29,25,20,11,06,,,,,2.2,0.9,2.0*3C,1
1779393760491,$GPRMC,200240.000,A,1205.9819,S,07701.4659,W,10.12,25.60,210526,,,A*64,1
1779393761200,$GPGGA,200241.000,1205.9793,S,07701.4646,W,1,08,0.9,144.0,M,8.4,M,,0000*69,1
1779393761326,$GPGSA,M,3,24,15,12,29,25,20,11,06,,,,,2.2,0.9,2.0*3C,1
1779393761491,$GPRMC,200241.000,A,1205.9793,S,07701.4646,W,10.21,24.65,210526,,,A*62,1
1779393762198,$GPGGA,200242.000,1205.9766,S,07701.4634,W,1,08,0.9,143.9,M,8.4,M,,0000*6B,1
1779393762324,$GPGSA,M,3,24,15,12,29,25,20,11,06,,,,,2.2,0.9,2.0*3C,1
1779393762485,$GPGSV,3,1,12,24,58,150,42,15,47,349,43,12,40,195,42,29,37,325,40*7C,1
1779393762645,$GPGSV,3,2,12,25,29,240,39,20,28,017,40,11,25,079,38,06,09,115,23*78,1
1779393762801,$GPGSV,3,3,12,05,03,018,15,13,19,028,42,44,42,284,40,14,42,228,*70,1
1779393762966,$GPRMC,200242.000,A,1205.9766,S,07701.4634,W,10.29,24.92,210526,,,A*6E,1
1779393763201,$GPGGA,200243.000,1205.9739,S,07701.4622,W,1,08,0.9,143.9,M,8.4,M,,0000*67,1
1779393763327,$GPGSA,M,3,24,15,12,29,25,20,11,06,,,,,2.2,0.9,2.0*3C,1
1779393763492,$GPRMC,200243.000,A,1205.9739,S,07701.4622,W,10.27,26.07,210526,,,A*62,1
1779393764200,$GPGGA,200244.000,1205.9712,S,07701.4608,W,1,08,0.9,143.8,M,8.4,M,,0000*60,1
1779393764326,$GPGSA,M,3,24,15,12,29,25,20,11,06,,,,,2.2,0.9,2.0*3C,1
1779393764491,$GPRMC,200244.000,A,1205.9712,S,07701.4608,W,11.28,25.45,210526,,,A*6F,1
1779393765199,$GPGGA,200245.000,1205.9681,S,07701.4594,W,1,08,0.9,143.6,M,8.4,M,,0000*62,1
1779393765326,$GPGSA,M,3,24,15,12,29,25,20,11,06,,,,,2.2,0.9,2.0*3C,1
1779393765490,$GPRMC,200245.000,A,1205.9681,S,07701.4594,W,12.03,24.81,210526,,,A*60,1
1779393766201,$GPGGA,200246.000,1205.9649,S,07701.4579,W,1,08,0.9,143.5,M,8.4,M,,0000*65,1
1779393766327,$GPGSA,M,3,24,15,12,29,25,20,11,06,,,,,2.2,0.9,2.0*3C,1
1779393766492,$GPRMC,200246.000,A,1205.9649,S,07701.4579,W,12.45,25.14,210526,,,A*6B,1
1779393767194,$GPGGA,200247.000,1205.9617,S,07701.4563,W,1,08,0.9,143.4,M,8.4,M,,0000*65,1
1779393767320,$GPGSA,M,3,24,15,12,29,25,20,11,06,,,,,2.2,0.9,2.0*3C,1
1779393767481,$GPGSV,3,1,12,24,59,148,42,15,46,350,44,12,40,193,44,29,38,324,42*76,1
1779393767641,$GPGSV,3,2,12,25,29,239,41,20,27,017,41,11,26,081,39,06,08,116,22*71,1
1779393767797,$GPGSV,3,3,12,05,03,019,17,13,18,028,43,44,42,284,43,14,43,229,*70,1
1779393767962,$GPRMC,200247.000,A,1205.9617,S,07701.4563,W,12.75,25.32,210526,,,A*6D,1
1779393768199,$GPGGA,200248.000,1205.9583,S,07701.4547,W,1,08,0.9,143.4,M,8.4,M,,0000*62,1
1779393768326,$GPGSA,M,3,24,15,12,29,25,20,11,06,,,,,2.2,0.9,2.0*3C,1
1779393768490,$GPRMC,200248.000,A,1205.9583,S,07701.4547,W,13.02,25.72,210526,,,A*6F,1
1779393769200,$GPGGA,200249.000,1205.9549,S,07701.4531,W,1,08,0.9,143.4,M,8.4,M,,0000*64,1
1779393769326,$GPGSA,M,3,24,15,12,29,25,20,11,06,,,,,2.2,0.9,2.0*3C,1
1779393769491,$GPRMC,200249.000,A,1205.9549,S,07701.4531,W,13.35,25.29,210526,,,A*63,1
1779393770200,$GPGGA,200250.000,1205.9515,S,07701.4515,W,1,08,0.9,143.4,M,8.4,M,,0000*63,1
1779393770326,$GPGSA,M,3,24,15,12,29,25,20,11,06,,,,,2.2,0.9,2.0*3C,1
1779393770491,$GPRMC,200250.000,A,1205.9515,S,07701.4515,W,13.77,25.26,210526,,,A*6D,1
1779393771198,$GPGGA,200251.000,1205.9478,S,07701.4500,W,1,08,0.9,144.0,M,8.4,M,,0000*6F,1
1779393771324,$GPGSA,M,3,24,15,12,29,25,20,11,06,,,,,2.2,0.9,2.0*3C,1
1779393771489,$GPRMC,200251.000,A,1205.9478,S,07701.4500,W,14.18,24.78,210526,,,A*66,1
1779393772193,$GPGGA,200252.000,1205.9441,S,07701.4483,W,1,08,0.9,144.1,M,8.4,M,,0000*6D,1
1779393772319,$GPGSA,M,3,24,15,12,29,25,20,11,06,,,,,2.2,0.9,2.0*3C,1
1779393772480,$GPGSV,3,1,12,24,59,148,42,15,46,350,45,12,40,193,44,29,38,324,43*76,1
1779393772640,$GPGSV,3,2,12,25,29,239,42,20,27,017,42,11,26,081,41,06,08,116,16*79,1
1779393772796,$GPGSV,3,3,12,05,03,019,19,13,18,028,44,44,42,284,42,14,43,229,*78,1
1779393772961,$GPRMC,200252.000,A,1205.9441,S,07701.4483,W,14.59,24.88,210526,,,A*6F,1
1779393773199,$GPGGA,200253.000,1205.9404,S,07701.4464,W,1,08,0.9,143.9,M,8.4,M,,0000*6B,1
1779393773325,$GPGSA,M,3,24,15,12,29,25,20,11,06,,,,,2.2,0.9,2.0*3C,1
1779393773490,$GPRMC,200253.000,A,1205.9404,S,07701.4464,W,14.88,25.65,210526,,,A*68,1
1779393774192,$GPGGA,200254.000,1205.9366,S,07701.4446,W,1,08,0.9,143.8,M,8.4,M,,0000*6E,1
1779393774318,$GPGSA,M,3,24,15,12,29,25,20,11,06,,,,,2.2,0.9,2.0*3C,1
1779393774483,$GPRMC,200254.000,A,1205.9366,S,07701.4446,W,14.94,25.17,210526,,,A*64,1
1779393775193,$GPGGA,200255.000,1205.9328,S,07701.4428,W,1,08,0.9,143.7,M,8.4,M,,0000*62,1
1779393775319,$GPGSA,M,3,24,15,12,29,25,20,11,06,,,,,2.2,0.9,2.0*3C,1
1779393775484,$GPRMC,200255.000,A,1205.9328,S,07701.4428,W,14.63,25.16,210526,,,A*6E,1
1779393776198,$GPGGA,200256.000,1205.9291,S,07701.4411,W,1,08,0.9,143.7,M,8.4,M,,0000*68,1
1779393776324,$GPGSA,M,3,24,15,12,29,25,20,11,06,,,,,2.2,0.9,2.0*3C,1
1779393776489,$GPRMC,200256.000,A,1205.9291,S,07701.4411,W,14.69,25.65,210526,,,A*6A,1
1779393777199,$GPGGA,200257.000,1205.9253,S,07701.4392,W,1,08,0.9,143.7,M,8.4,M,,0000*6B,1
1779393777325,$GPGSA,M,3,24,15,12,29,25,20,11,06,,,,,2.2,0.9,2.0*3C,1
1779393777485,$GPGSV,3,1,12,24,59,148,42,15,46,350,44,12,40,193,45,29,38,324,43*76,1
1779393777646,$GPGSV,3,2,12,25,29,239,41,20,27,017,42,11,26,081,28,06,08,116,17*74,1
1779393777801,$GPGSV,3,3,12,05,03,019,23,13,18,028,44,44,42,284,42,14,43,229,*71,1
1779393777966,$GPRMC,200257.000,A,1205.9253,S,07701.4392,W,14.95,25.87,210526,,,A*66,1
1779393778197,$GPGGA,200258.000,1205.9215,S,07701.4373,W,1,08,0.9,143.7,M,8.4,M,,0000*69,1
1779393778323,$GPGSA,M,3,24,15,12,29,25,20,11,06,,,,,2.2,0.9,2.0*3C,1
1779393778488,$GPRMC,200258.000,A,1205.9215,S,07701.4373,W,15.20,26.19,210526,,,A*6F,1
1779393779192,$GPGGA,200259.000,1205.9177,S,07701.4355,W,1,08,0.9,143.7,M,8.4,M,,0000*6B,1
1779393779318,$GPGSA,M,3,24,15,12,29,25,20,11,06,,,,,2.2,0.9,2.0*3C,1
1779393779483,$GPRMC,200259.000,A,1205.9177,S,07701.4355,W,15.08,24.57,210526,,,A*6F,1
1779393780192,$GPGGA,200300.000,1205.9139,S,07701.4337,W,1,08,0.9,143.6,M,8.4,M,,0000*69,1
1779393780318,$GPGSA,M,3,24,15,12,29,25,20,11,06,,,,,2.2,0.9,2.0*3C,1
1779393780483,$GPRMC,200300.000,A,1205.9139,S,07701.4337,W,14.99,25.05,210526,,,A*63,1
1779393781199,$GPGGA,200301.000,1205.9101,S,07701.4319,W,1,08,0.9,143.5,M,8.4,M,,0000*6C,1
1779393781325,$GPGSA,M,3,24,15,12,29,25,20,11,06,,,,,2.2,0.9,2.0*3C,1
1779393781490,$GPRMC,200301.000,A,1205.9101,S,07701.4319,W,14.77,24.74,210526,,,A*62,1
1779393782197,$GPGGA,200302.000,1205.9063,S,07701.4301,W,1,08,0.9,143.5,M,8.4,M,,0000*63,1
1779393782324,$GPGSA,M,3,24,15,12,29,25,20,11,06,,,,,2.2,0.9,2.0*3C,1
1779393782484,$GPGSV,3,1,12,24,59,148,42,15,46,350,44,12,40,193,44,29,38,324,40*74,1
1779393782644,$GPGSV,3,2,12,25,29,239,39,20,27,017,42,11,26,081,37,06,08,116,22*73,1
1779393782800,$GPGSV,3,3,12,05,03,019,12,13,18,028,43,44,42,284,36,14,43,229,*77,1
1779393782965,$GPRMC,200302.000,A,1205.9063,S,07701.4301,W,14.66,25.03,210526,,,A*6C,1
1779393783193,$GPGGA,200303.000,1205.9027,S,07701.4283,W,1,08,0.9,143.5,M,8.4,M,,0000*69,1
1779393783319,$GPGSA,M,3,24,15,12,29,25,20,11,06,,,,,2.2,0.9,2.0*3C,1
1779393783484,$GPRMC,200303.000,A,1205.9027,S,07701.4283,W,14.36,25.03,210526,,,A*63,1
1779393784199,$GPGGA,200304.000,1205.8991,S,07701.4265,W,1,08,0.9,143.5,M,8.4,M,,0000*63,1
1779393784325,$GPGSA,M,3,24,15,12,29,25,20,11,06,,,,,2.2,0.9,2.0*3C,1
1779393784490,$GPRMC,200304.000,A,1205.8991,S,07701.4265,W,14.14,25.57,210526,,,A*68,1
1779393785198,$GPGGA,200305.000,1205.8956,S,07701.4248,W,1,08,0.9,143.5,M,8.4,M,,0000*66,1
1779393785324,$GPGSA,M,3,24,15,12,29,25,20,11,06,,,,,2.2,0.9,2.0*3C,1
1779393785489,$GPRMC,200305.000,A,1205.8956,S,07701.4248,W,13.54,25.80,210526,,,A*64,1
1779393786197,$GPGGA,200306.000,1205.8924,S,07701.4231,W,1,08,0.9,143.7,M,8.4,M,,0000*6C,1
1779393786323,$GPGSA,M,3,24,15,12,29,25,20,11,06,,,,,2.2,0.9,2.0*3C,1
1779393786488,$GPRMC,200306.000,A,1205.8924,S,07701.4231,W,12.89,26.41,210526,,,A*63,1
1779393787195,$GPGGA,200307.000,1205.8891,S,07701.4214,W,1,07,1.0,143.8,M,8.4,M,,0000*6D,1
1779393787317,$GPGSA,M,3,24,15,12,29,25,20,11,,,,,,3.0,1.0,2.8*39,1
1779393787477,$GPGSV,3,1,12,24,59,148,42,15,46,350,45,12,40,193,44,29,38,324,42*77,1
1779393787638,$GPGSV,3,2,12,25,29,239,41,20,27,017,42,11,26,081,35,05,03,019,15*7C,1
1779393787793,$GPGSV,3,3,12,06,08,116,20,13,18,028,43,44,42,284,38,14,43,229,*7E,1
1779393787958,$GPRMC,200307.000,A,1205.8891,S,07701.4214,W,13.20,25.25,210526,,,A*69,1
1779393788191,$GPGGA,200308.000,1205.8858,S,07701.4197,W,1,07,1.0,143.9,M,8.4,M,,0000*6E,1
1779393788312,$GPGSA,M,3,24,15,12,29,25,20,11,,,,,,3.0,1.0,2.8*39,1
1779393788477,$GPRMC,200308.000,A,1205.8858,S,07701.4197,W,13.48,24.19,210526,,,A*6B,1
1779393789196,$GPGGA,200309.000,1205.8823,S,07701.4182,W,1,07,1.0,144.0,M,8.4,M,,0000*69,1
1779393789317,$GPGSA,M,3,24,15,12,29,25,20,11,,,,,,3.0,1.0,2.8*39,1
1779393789482,$GPRMC,200309.000,A,1205.8823,S,07701.4182,W,13.46,23.64,210526,,,A*61,1
1779393790194,$GPGGA,200310.000,1205.8790,S,07701.4167,W,1,07,1.0,143.9,M,8.4,M,,0000*63,1
1779393790316,$GPGSA,M,3,24,15,12,29,25,20,11,,,,,,3.0,1.0,2.8*39,1
1779393790481,$GPRMC,200310.000,A,1205.8790,S,07701.4167,W,12.54,23.63,210526,,,A*60,1
1779393791196,$GPGGA,200311.000,1205.8761,S,07701.4153,W,1,07,1.0,143.8,M,8.4,M,,0000*6A,1
1779393791318,$GPGSA,M,3,24,15,12,29,25,20,11,,,,,,3.0,1.0,2.8*39,1
1779393791483,$GPRMC,200311.000,A,1205.8761,S,07701.4153,W,10.72,22.21,210526,,,A*69,1
1779393792200,$GPGGA,200312.000,1205.8736,S,07701.4145,W,1,07,1.0,143.9,M,8.4,M,,0000*6D,1
1779393792321,$GPGSA,M,3,24,15,12,29,25,20,11,,,,,,3.0,1.0,2.8*39,1
1779393792482,$GPGSV,3,1,12,24,59,148,41,15,46,350,45,12,40,193,44,29,38,324,43*75,1
1779393792642,$GPGSV,3,2,12,25,29,239,42,20,27,017,42,11,26,081,23,05,03,019,14*79,1
1779393792798,$GPGSV,3,3,12,06,08,116,20,13,18,028,43,44,42,284,43,14,43,229,*72,1
1779393792961,$GPRMC,200312.000,A,1205.8736,S,07701.4145,W,8.80,16.67,210526,,,A*5E,1
1779393793200,$GPGGA,200313.000,1205.8715,S,07701.4141,W,1,08,0.9,143.9,M,8.4,M,,0000*6E,1
1779393793326,$GPGSA,M,3,24,15,12,29,25,20,11,06,,,,,2.2,0.9,2.0*3C,1
1779393793487,$GPRMC,200313.000,A,1205.8715,S,07701.4141,W,6.94,7.02,210526,,,A*62,1
1779393794198,$GPGGA,200314.000,1205.8698,S,07701.4142,W,1,08,0.9,143.9,M,8.4,M,,0000*6E,1
1779393794324,$GPGSA,M,3,24,15,12,29,25,20,11,06,,,,,2.2,0.9,2.0*3C,1
1779393794489,$GPRMC,200314.000,A,1205.8698,S,07701.4142,W,6.28,351.69,210526,,,A*68,1
1779393795199,$GPGGA,200315.000,1205.8682,S,07701.4150,W,1,08,0.9,143.9,M,8.4,M,,0000*67,1
1779393795325,$GPGSA,M,3,24,15,12,29,25,20,11,06,,,,,2.2,0.9,2.0*3C,1
1779393795490,$GPRMC,200315.000,A,1205.8682,S,07701.4150,W,6.94,328.26,210526,,,A*63,1
1779393796193,$GPGGA,200316.000,1205.8669,S,07701.4166,W,1,08,0.9,143.7,M,8.4,M,,0000*6A,1
1779393796319,$GPGSA,M,3,24,15,12,29,25,20,11,06,,,,,2.2,0.9,2.0*3C,1
1779393796484,$GPRMC,200316.000,A,1205.8669,S,07701.4166,W,7.94,302.44,210526,,,A*6D,1
1779393797193,$GPGGA,200317.000,1205.8661,S,07701.4190,W,1,08,0.9,143.6,M,8.4,M,,0000*6B,1
1779393797319,$GPGSA,M,3,24,15,12,29,25,20,11,06,,,,,2.2,0.9,2.0*3C,1
1779393797479,$GPGSV,3,1,12,24,59,148,43,15,46,350,45,12,40,193,45,29,38,324,44*71,1
1779393797640,$GPGSV,3,2,12,25,29,239,42,20,27,017,39,11,26,081,24,06,08,116,27*74,1
1779393797795,$GPGSV,3,3,12,05,03,019,12,13,18,028,44,44,42,284,44,14,43,229,*75,1
1779393797960,$GPRMC,200317.000,A,1205.8661,S,07701.4190,W,9.12,283.57,210526,,,A*67,1
1779393798198,$GPGGA,200318.000,1205.8657,S,07701.4218,W,1,08,0.9,143.8,M,8.4,M,,0000*6C,1
1779393798324,$GPGSA,M,3,24,15,12,29,25,20,11,06,,,,,2.2,0.9,2.0*3C,1
1779393798491,$GPRMC,200318.000,A,1205.8657,S,07701.4218,W,10.19,275.66,210526,,,A*56,1
1779393799200,$GPGGA,200319.000,1205.8656,S,07701.4249,W,1,08,0.9,144.1,M,8.4,M,,0000*66,1
1779393799326,$GPGSA,M,3,24,15,12,29,25,20,11,06,,,,,2.2,0.9,2.0*3C,1
1779393799493,$GPRMC,200319.000,A,1205.8656,S,07701.4249,W,10.92,273.38,210526,,,A*5C,1
1779393800198,$GPGGA,200320.000,1205.8655,S,07701.4281,W,1,08,0.9,144.0,M,8.4,M,,0000*6A,1
1779393800324,$GPGSA,M,3,24,15,12,29,25,20,11,06,,,,,2.2,0.9,2.0*3C,1
1779393800491,$GPRMC,200320.000,A,1205.8655,S,07701.4281,W,11.13,272.74,210526,,,A*50,1
1779393801203,$GPGGA,200321.000,1205.8653,S,07701.4313,W,1,08,0.9,143.9,M,8.4,M,,0000*69,1
1779393801329,$GPGSA,M,3,24,15,12,29,25,20,11,06,,,,,2.2,0.9,2.0*3C,1
1779393801496,$GPRMC,200321.000,A,1205.8653,S,07701.4313,W,10.86,275.53,210526,,,A*52,1
1779393802197,$GPGGA,200322.000,1205.8650,S,07701.4344,W,1,08,0.9,144.1,M,8.4,M,,0000*64,1
1779393802323,$GPGSA,M,3,24,15,12,29,25,20,11,06,,,,,2.2,0.9,2.0*3C,1
1779393802483,$GPGSV,3,1,12,24,59,148,44,15,46,350,44,12,40,193,38,29,38,324,36*78,1
1779393802644,$GPGSV,3,2,12,25,29,239,38,20,27,017,34,11,26,081,40,06,08,116,28*79,1
1779393802800,$GPGSV,3,3,12,05,03,019,04,13,18,028,38,44,42,284,45,14,43,229,*78,1
1779393802967,$GPRMC,200322.000,A,1205.8650,S,07701.4344,W,11.35,277.42,210526,,,A*5B,1
1779393803196,$GPGGA,200323.000,1205.8646,S,07701.4377,W,1,08,0.9,144.2,M,8.4,M,,0000*61,1
1779393803322,$GPGSA,M,3,24,15,12,29,25,20,11,06,,,,,2.2,0.9,2.0*3C,1
1779393803490,$GPRMC,200323.000,A,1205.8646,S,07701.4377,W,11.88,276.27,210526,,,A*59,1
1779393804198,$GPGGA,200324.000,1205.8644,S,07701.4411,W,1,08,0.9,144.3,M,8.4,M,,0000*62,1
1779393804324,$GPGSA,M,3,24,15,12,29,25,20,11,06,,,,,2.2,0.9,2.0*3C,1
1779393804492,$GPRMC,200324.000,A,1205.8644,S,07701.4411,W,11.64,275.69,210526,,,A*50,1
1779393805199,$GPGGA,200325.000,1205.8640,S,07701.4443,W,1,08,0.9,144.4,M,8.4,M,,0000*67,1
1779393805325,$GPGSA,M,3,24,15,12,29,25,20,11,06,,,,,2.2,0.9,2.0*3C,1
1779393805492,$GPRMC,200325.000,A,1205.8640,S,07701.4443,W,10.91,277.55,210526,,,A*54,1
1779393806200,$GPGGA,200326.000,1205.8637,S,07701.4472,W,1,08,0.9,144.4,M,8.4,M,,0000*66,1
1779393806326,$GPGSA,M,3,24,15,12,29,25,20,11,06,,,,,2.2,0.9,2.0*3C,1
1779393806491,$GPRMC,200326.000,A,1205.8637,S,07701.4472,W,9.53,279.52,210526,,,A*6A,1
1779393807198,$GPGGA,200327.000,1205.8633,S,07701.4497,W,1,08,0.9,144.1,M,8.4,M,,0000*6D,1
1779393807324,$GPGSA,M,3,24,15,12,29,25,20,11,06,,,,,2.2,0.9,2.0*3C,1
1779393807484,$GPGSV,3,1,12,24,59,148,45,15,46,350,43,12,40,193,43,29,38,324,44*77,1
1779393807645,$GPGSV,3,2,12,25,29,239,25,20,27,017,33,11,26,081,42,06,08,116,28*70,1
1779393807796,$GPGSV,3,3,12,13,18,028,42,44,42,284,46,14,43,229,,21,24,005,*7C,1
1779393807961,$GPRMC,200327.000,A,1205.8633,S,07701.4497,W,8.34,280.84,210526,,,A*69,1
1779393808199,$GPGGA,200328.000,1205.8631,S,07701.4517,W,1,08,0.9,144.0,M,8.4,M,,0000*68,1
1779393808325,$GPGSA,M,3,24,15,12,29,25,20,11,06,,,,,2.2,0.9,2.0*3C,1
1779393808490,$GPRMC,200328.000,A,1205.8631,S,07701.4517,W,6.60,277.92,210526,,,A*6D,1
1779393809192,$GPGGA,200329.000,1205.8631,S,07701.4534,W,1,08,0.9,144.0,M,8.4,M,,0000*68,1
1779393809318,$GPGSA,M,3,24,15,12,29,25,20,11,06,,,,,2.2,0.9,2.0*3C,1
1779393809483,$GPRMC,200329.000,A,1205.8631,S,07701.4534,W,5.47,267.96,210526,,,A*6E,1
1779393810191,$GPGGA,200330.000,1205.8636,S,07701.4549,W,1,08,0.9,143.8,M,8.4,M,,0000*62,1
1779393810317,$GPGSA,M,3,24,15,12,29,25,20,11,06,,,,,2.2,0.9,2.0*3C,1
1779393810482,$GPRMC,200330.000,A,1205.8636,S,07701.4549,W,5.86,247.04,210526,,,A*6F,1
1779393811192,$GPGGA,200331.000,1205.8648,S,07701.4564,W,1,08,0.9,143.6,M,8.4,M,,0000*6B,1
1779393811318,$GPGSA,M,3,24,15,12,29,25,20,11,06,,,,,2.2,0.9,2.0*3C,1
1779393811483,$GPRMC,200331.000,A,1205.8648,S,07701.4564,W,7.83,225.10,210526,,,A*6E,1
1779393812192,$GPGGA,200332.000,1205.8669,S,07701.4579,W,1,08,0.9,143.8,M,8.4,M,,0000*69,1
1779393812318,$GPGSA,M,3,24,15,12,29,25,20,11,06,,,,,2.2,0.9,2.0*3C,1
1779393812478,$GPGSV,3,1,12,24,59,148,45,15,46,350,43,12,40,193,44,29,38,324,26*74,1
1779393812639,$GPGSV,3,2,12,25,29,239,22,20,27,017,39,11,26,081,43,06,08,116,28*7C,1
1779393812790,$GPGSV,3,3,12,13,18,028,43,44,42,284,23,14,43,229,,21,24,005,*7E,1
1779393812955,$GPRMC,200332.000,A,1205.8669,S,07701.4579,W,9.68,211.70,210526,,,A*68,1
1779393813190,$GPGGA,200333.000,1205.8696,S,07701.4593,W,1,08,0.9,143.7,M,8.4,M,,0000*63,1
1779393813316,$GPGSA,M,3,24,15,12,29,25,20,11,06,,,,,2.2,0.9,2.0*3C,1
1779393813483,$GPRMC,200333.000,A,1205.8696,S,07701.4593,W,11.09,207.68,210526,,,A*5D,1
1779393814190,$GPGGA,200334.000,1205.8726,S,07701.4608,W,1,08,0.9,143.7,M,8.4,M,,0000*6F,1
1779393814316,$GPGSA,M,3,24,15,12,29,25,20,11,06,,,,,2.2,0.9,2.0*3C,1
1779393814483,$GPRMC,200334.000,A,1205.8726,S,07701.4608,W,12.19,206.72,210526,,,A*59,1
1779393815189,$GPGGA,200335.000,1205.8759,S,07701.4624,W,1,08,0.9,143.9,M,8.4,M,,0000*66,1
1779393815315,$GPGSA,M,3,24,15,12,29,25,20,11,06,,,,,2.2,0.9,2.0*3C,1
1779393815483,$GPRMC,200335.000,A,1205.8759,S,07701.4624,W,13.02,205.86,210526,,,A*5D,1
1779393816189,$GPGGA,200336.000,1205.8794,S,07701.4640,W,1,08,0.9,144.0,M,8.4,M,,0000*68,1
1779393816315,$GPGSA,M,3,24,15,12,29,25,20,11,06,,,,,2.2,0.9,2.0*3C,1
1779393816482,$GPRMC,200336.000,A,1205.8794,S,07701.4640,W,13.69,205.42,210526,,,A*58,1
1779393817195,$GPGGA,200337.000,1205.8830,S,07701.4657,W,1,07,1.0,144.4,M,8.4,M,,0000*6D,1
1779393817317,$GPGSA,M,3,24,15,12,29,25,20,06,,,,,,2.3,1.0,2.0*35,1
1779393817477,$GPGSV,3,1,12,24,59,148,46,15,46,350,42,12,40,193,44,29,38,324,29*79,1
1779393817637,$GPGSV,3,2,12,25,29,239,29,20,27,017,44,06,08,116,23,05,03,019,14*77,1
