Unix_time,GPS_data,flagStop
1778781143201483746,$GPGGA,175435.000,1205.8820,S,07701.2842,W,1,08,0.9,163.5,M,8.4,M,,0000*67,0
1778781185763524554,$GPGSA,M,3,20,19,05,21,17,24,11,14,,,,,1.7,0.9,1.4*3D,0
1778781185764083091,$GPRMC,175435.000,A,1205.8820,S,07701.2842,W,0.00,273.22,140526,,,A*6B,0
1778781185764841498,$GPGGA,175436.000,1205.8820,S,07701.2841,W,1,08,0.9,163.6,M,8.4,M,,0000*64,0
1778781185765611739,$GPGSA,M,3,20,19,05,21,17,24,11,14,,,,,1.7,0.9,1.4*3D,0
1778781185766158072,$GPRMC,175436.000,A,1205.8820,S,07701.2841,W,0.00,273.22,140526,,,A*6B,0
1778781185766873257,$GPGGA,175437.000,1205.8820,S,07701.2841,W,1,08,0.9,163.7,M,8.4,M,,0000*64,0
1778781185767628128,$GPGSA,M,3,20,19,05,21,17,24,11,14,,,,,1.7,0.9,1.4*3D,0
1778781185768172480,$GPRMC,175437.000,A,1205.8820,S,07701.2841,W,0.00,273.22,140526,,,A*6A,0
1778781185768894387,$GPGGA,175438.000,1205.8819,S,07701.2841,W,1,07,1.0,163.8,M,8.4,M,,0000*69,0
1778781185769648998,$GPGSA,M,3,20,19,05,21,17,24,14,,,,,,2.1,1.0,1.8*3C,0
1778781185770173387,$GPGSV,3,1,12,20,69,164,45,19,42,085,29,05,42,322,16,21,30,357,21*7A,0
1778781185770867702,$GPGSV,3,2,12,17,27,115,46,24,23,221,27,14,08,143,22,30,06,105,08*7E,0
1778781185771561628,$GPGSV,3,3,12,44,42,284,44,13,61,127,,26,48,095,,28,32,154,*7C,0
1778781185772194480,$GPRMC,175438.000,A,1205.8819,S,07701.2841,W,0.00,273.22,140526,,,A*6F,0
1778781185772915183,$GPGGA,175439.000,1205.8819,S,07701.2840,W,1,07,1.0,163.9,M,8.4,M,,0000*68,0
1778781185773667294,$GPGSA,M,3,20,19,05,21,17,24,14,,,,,,2.1,1.0,1.8*3C,0
1778781185774189294,$GPRMC,175439.000,A,1205.8819,S,07701.2840,W,0.00,273.22,140526,,,A*6F,0
1778781185774901628,$GPGGA,175440.000,1205.8819,S,07701.2839,W,1,07,1.0,164.0,M,8.4,M,,0000*66,0
1778781185775654406,$GPGSA,M,3,20,19,05,21,17,24,14,,,,,,2.1,1.0,1.8*3C,0
1778781185776177350,$GPRMC,175440.000,A,1205.8819,S,07701.2839,W,0.00,273.22,140526,,,A*6F,0
1778781185776893831,$GPGGA,175441.000,1205.8818,S,07701.2839,W,1,07,1.0,164.2,M,8.4,M,,0000*64,0
1778781185777633202,$GPGSA,M,3,20,19,05,21,17,24,14,,,,,,2.1,1.0,1.8*3C,0
1778781185778144350,$GPRMC,175441.000,A,1205.8818,S,07701.2839,W,0.00,273.22,140526,,,A*6F,0
1778781185778839424,$GPGGA,175442.000,1205.8818,S,07701.2838,W,1,07,1.0,164.4,M,8.4,M,,0000*60,0
1778781185779572906,$GPGSA,M,3,20,19,05,21,17,24,14,,,,,,2.1,1.0,1.8*3C,0
1778781185780086813,$GPRMC,175442.000,A,1205.8818,S,07701.2838,W,0.00,273.22,140526,,,A*6D,0
1778781185780823035,$GPGGA,175443.000,1205.8817,S,07701.2837,W,1,08,0.9,164.5,M,8.4,M,,0000*67,0
1778781185781553072,$GPGSA,M,3,20,19,05,21,17,24,11,14,,,,,1.7,0.9,1.4*3D,0
1778781185782086220,$GPGSV,3,1,12,20,69,164,45,19,42,085,29,05,42,322,22,21,30,357,11*7E,0
1778781185782759609,$GPGSV,3,2,12,17,27,115,46,24,23,221,29,11,08,012,18,14,08,143,21*78,0
1778781185783436257,$GPGSV,3,3,12,30,06,105,07,44,42,284,44,13,61,127,,26,48,095,*71,0
1778781185784073294,$GPRMC,175443.000,A,1205.8817,S,07701.2837,W,0.00,273.22,140526,,,A*6C,0
1778781185784773850,$GPGGA,175444.000,1205.8817,S,07701.2836,W,1,08,0.9,164.7,M,8.4,M,,0000*63,0
1778781185785504646,$GPGSA,M,3,20,19,05,21,17,24,11,14,,,,,1.7,0.9,1.4*3D,0
1778781185786034980,$GPRMC,175444.000,A,1205.8817,S,07701.2836,W,0.00,273.22,140526,,,A*6A,0
1778781185786725517,$GPGGA,175445.000,1205.8816,S,07701.2836,W,1,08,0.9,164.9,M,8.4,M,,0000*6D,0
1778781185786879906,$GPGSA,M,3,20,19,05,21,17,24,11,14,,,,,1.7,0.9,1.4*3D,0
1778781185786985109,$GPRMC,175445.000,A,1205.8816,S,07701.2836,W,0.00,273.22,140526,,,A*6A,0
1778781185787121646,$GPGGA,175446.000,1205.8816,S,07701.2835,W,1,08,0.9,165.0,M,8.4,M,,0000*65,0
1778781185787266276,$GPGSA,M,3,20,19,05,21,17,24,11,14,,,,,1.7,0.9,1.4*3D,0
1778781185787371091,$GPRMC,175446.000,A,1205.8816,S,07701.2835,W,0.00,273.22,140526,,,A*6A,0
1778781185787508072,$GPGGA,175447.000,1205.8815,S,07701.2834,W,1,06,1.1,165.2,M,8.4,M,,0000*63,0
1778781185787653350,$GPGSA,M,3,20,05,21,17,24,14,,,,,,,2.2,1.1,1.8*36,0
1778781185787750628,$GPRMC,175447.000,A,1205.8815,S,07701.2834,W,0.00,273.22,140526,,,A*69,0
1778781185787887331,$GPGGA,175448.000,1205.8815,S,07701.2833,W,1,07,1.0,165.4,M,8.4,M,,0000*6D,0
1778781185788136794,$GPGSA,M,3,20,05,21,17,24,11,14,,,,,,1.8,1.0,1.5*33,0
1778781185788237276,$GPGSV,3,1,12,20,69,164,45,05,42,322,22,21,30,357,13,17,27,115,46*70,0
1778781185788369202,$GPGSV,3,2,12,24,23,221,30,11,08,012,26,14,08,143,22,06,01,048,22*71,0
1778781185788500146,$GPGSV,3,3,12,19,42,085,22,30,06,105,05,44,42,284,45,13,61,127,*75,0
1778781185788628035,$GPRMC,175448.000,A,1205.8815,S,07701.2833,W,0.00,273.22,140526,,,A*61,0
1778781185789680646,$GPGGA,175449.000,1205.8814,S,07701.2832,W,1,08,0.9,165.5,M,8.4,M,,0000*6A,0
1778781185790423035,$GPGSA,M,3,20,19,05,21,17,24,11,14,,,,,1.7,0.9,1.4*3D,0
1778781185790960369,$GPRMC,175449.000,A,1205.8814,S,07701.2832,W,0.00,273.22,140526,,,A*60,0
1778781185791661757,$GPGGA,175450.000,1205.8813,S,07701.2829,W,1,05,1.4,165.5,M,8.4,M,,0000*6E,0
1778781185792403313,$GPGSA,M,3,20,05,17,24,14,,,,,,,,2.5,1.4,2.0*3C,0
1778781185792888554,$GPRMC,175450.000,A,1205.8813,S,07701.2829,W,0.22,273.22,140526,,,A*65,0
1778781185793591869,$GPGGA,175451.000,1205.8813,S,07701.2828,W,1,06,1.1,165.6,M,8.4,M,,0000*6B,0
1778781185794331943,$GPGSA,M,3,20,05,17,24,11,14,,,,,,,1.9,1.1,1.5*30,0
1778781185794829202,$GPRMC,175451.000,A,1205.8813,S,07701.2828,W,0.00,273.22,140526,,,A*65,0
1778781185795528906,$GPGGA,175452.000,1205.8812,S,07701.2827,W,1,07,1.0,165.8,M,8.4,M,,0000*68,0
1778781185796262072,$GPGSA,M,3,20,19,05,17,24,11,14,,,,,,1.7,1.0,1.4*36,0
1778781185796776831,$GPRMC,175452.000,A,1205.8812,S,07701.2827,W,0.00,273.22,140526,,,A*68,0
1778781185797461924,$GPGGA,175453.000,1205.8812,S,07701.2826,W,1,06,1.3,166.0,M,8.4,M,,0000*61,0
1778781185798187091,$GPGSA,M,3,20,19,05,17,24,14,,,,,,,2.4,1.3,2.0*32,0
1778781185798673757,$GPGSV,3,1,12,20,69,164,45,19,42,085,23,05,42,322,24,17,27,115,46*77,0
1778781185799336461,$GPGSV,3,2,12,24,23,221,30,14,08,143,22,11,08,012,10,30,06,105,04*7A,0
1778781185800001591,$GPGSV,3,3,12,44,42,284,44,13,61,127,,26,48,095,,28,32,154,*7C,0
1778781185800608387,$GPRMC,175453.000,A,1205.8812,S,07701.2826,W,0.00,273.22,140526,,,A*68,0
1778781185801298146,$GPGGA,175454.000,1205.8811,S,07701.2826,W,1,06,1.3,166.1,M,8.4,M,,0000*64,0
1778781185801981924,$GPGSA,M,3,20,19,05,17,24,14,,,,,,,2.4,1.3,2.0*32,0
1778781185802442257,$GPRMC,175454.000,A,1205.8811,S,07701.2826,W,0.00,273.22,140526,,,A*6C,0
1778781185803094461,$GPGGA,175455.000,1205.8811,S,07701.2825,W,1,07,1.0,166.3,M,8.4,M,,0000*66,0
1778781185803781146,$GPGSA,M,3,20,19,05,17,24,11,14,,,,,,1.7,1.0,1.4*36,0
1778781185804261424,$GPRMC,175455.000,A,1205.8811,S,07701.2825,W,0.00,273.22,140526,,,A*6E,0
1778781185804955665,$GPGGA,175456.000,1205.8810,S,07701.2824,W,1,08,0.9,166.5,M,8.4,M,,0000*64,0
1778781185805636887,$GPGSA,M,3,20,19,05,21,17,24,11,14,,,,,1.7,0.9,1.4*3D,0
1778781185806129517,$GPRMC,175456.000,A,1205.8810,S,07701.2824,W,0.00,273.22,140526,,,A*6D,0
1778781185806773869,$GPGGA,175457.000,1205.8810,S,07701.2823,W,1,09,0.9,166.6,M,8.4,M,,0000*60,0
1778781185807452406,$GPGSA,M,3,20,19,05,21,17,24,11,14,30,,,,1.6,0.9,1.3*38,0
1778781185807961276,$GPRMC,175457.000,A,1205.8810,S,07701.2823,W,0.00,273.22,140526,,,A*6B,0
1778781185808604776,$GPGGA,175458.000,1205.8809,S,07701.2823,W,1,08,0.9,166.8,M,8.4,M,,0000*68,0
1778781185809295535,$GPGSA,M,3,20,19,05,21,17,24,11,14,,,,,1.7,0.9,1.4*3D,0
1778781185809789517,$GPGSV,3,1,12,20,69,164,45,19,42,085,20,05,42,322,29,21,30,357,22*7C,0
1778781185810415517,$GPGSV,3,2,12,17,27,115,46,24,23,221,31,11,08,012,19,14,08,143,21*70,0
1778781185811042220,$GPGSV,3,3,12,06,01,048,24,30,06,105,05,44,42,284,44,13,61,127,*7A,0
1778781185811651035,$GPRMC,175458.000,A,1205.8809,S,07701.2823,W,0.00,273.22,140526,,,A*6C,0
1778781185812293202,$GPGGA,175459.000,1205.8809,S,07701.2822,W,1,08,0.9,167.0,M,8.4,M,,0000*61,0
1778781185812980072,$GPGSA,M,3,20,19,05,21,17,24,11,14,,,,,1.7,0.9,1.4*3D,0
1778781185813107980,$GPRMC,175459.000,A,1205.8809,S,07701.2822,W,0.00,273.22,140526,,,A*6C,0
1778781185813241276,$GPGGA,175500.000,1205.8808,S,07701.2821,W,1,08,0.9,167.1,M,8.4,M,,0000*6F,0
1778781185813382350,$GPGSA,M,3,20,19,05,21,17,24,11,14,,,,,1.7,0.9,1.4*3D,0
1778781185813484831,$GPRMC,175500.000,A,1205.8808,S,07701.2821,W,0.00,273.22,140526,,,A*63,0
1778781185813649128,$GPGGA,175501.000,1205.8808,S,07701.2820,W,1,08,0.9,167.3,M,8.4,M,,0000*6D,0
1778781185813790146,$GPGSA,M,3,20,19,05,21,17,24,11,14,,,,,1.7,0.9,1.4*3D,0
1778781185813892646,$GPRMC,175501.000,A,1205.8808,S,07701.2820,W,0.00,273.22,140526,,,A*63,0
1778781185814026424,$GPGGA,175502.000,1205.8807,S,07701.2820,W,1,08,1.0,167.5,M,8.4,M,,0000*6F,0
1778781185814167739,$GPGSA,M,3,20,19,05,21,17,24,14,30,,,,,1.8,1.0,1.6*3B,0
1778781185814270350,$GPRMC,175502.000,A,1205.8807,S,07701.2820,W,0.00,273.22,140526,,,A*6F,0
1778781185814404720,$GPGGA,175503.000,1205.8807,S,07701.2819,W,1,08,1.0,167.6,M,8.4,M,,0000*67,0
1778781185814546461,$GPGSA,M,3,20,19,05,21,17,24,14,30,,,,,1.8,1.0,1.6*3B,0
1778781185814649146,$GPGSV,3,1,12,20,69,164,45,19,42,085,24,05,42,322,30,21,30,357,24*76,0
1778781185814779683,$GPGSV,3,2,12,17,27,115,46,24,23,221,32,14,08,143,12,30,06,105,13*73,0
1778781185814910369,$GPGSV,3,3,12,06,01,048,23,44,42,284,45,13,61,127,,26,48,095,*7C,0
1778781185815033628,$GPRMC,175503.000,A,1205.8807,S,07701.2819,W,0.00,273.22,140526,,,A*64,0
1778781185815167943,$GPGGA,175504.000,1205.8807,S,07701.2818,W,1,08,1.0,167.8,M,8.4,M,,0000*6F,0
1778781185815309665,$GPGSA,M,3,20,19,05,21,17,24,14,30,,,,,1.8,1.0,1.6*3B,0
1778781185815412424,$GPRMC,175504.000,A,1205.8807,S,07701.2818,W,0.00,273.22,140526,,,A*62,0
1778781185815546702,$GPGGA,175505.000,1205.8806,S,07701.2817,W,1,07,1.0,168.0,M,8.4,M,,0000*68,0
1778781185815688183,$GPGSA,M,3,20,19,05,21,17,24,30,,,,,,2.0,1.0,1.7*34,0
1778781185815787091,$GPRMC,175505.000,A,1205.8806,S,07701.2817,W,0.00,273.22,140526,,,A*6D,0
1778781185815921276,$GPGGA,175506.000,1205.8806,S,07701.2816,W,1,06,1.1,168.1,M,8.4,M,,0000*6B,0
1778781185816062869,$GPGSA,M,3,20,19,05,21,17,24,,,,,,,2.5,1.1,2.3*34,0
1778781185816158165,$GPRMC,175506.000,A,1205.8806,S,07701.2816,W,0.00,273.22,140526,,,A*6F,0
1778781185816292331,$GPGGA,175507.000,1205.8805,S,07701.2816,W,1,06,1.1,168.3,M,8.4,M,,0000*6B,0
1778781185816433980,$GPGSA,M,3,20,19,05,21,17,24,,,,,,,2.5,1.1,2.3*34,0
1778781185816529276,$GPRMC,175507.000,A,1205.8805,S,07701.2816,W,0.00,273.22,140526,,,A*6D,0
1778781185816703091,$GPGGA,175508.000,1205.8805,S,07701.2815,W,1,07,1.0,168.4,M,8.4,M,,0000*60,0
1778781185816844313,$GPGSA,M,3,20,19,05,21,17,24,11,,,,,,2.0,1.0,1.7*37,0
1778781185816943294,$GPGSV,3,1,12,20,69,164,45,19,42,085,25,05,42,322,32,21,30,357,28*79,0
1778781185817073350,$GPGSV,3,2,12,17,27,115,46,24,23,221,32,11,08,012,24,14,08,143,12*7D,0
1778781185817203239,$GPGSV,3,3,12,30,06,105,08,44,42,284,45,13,61,127,,26,48,095,*7F,0
1778781185817325350,$GPRMC,175508.000,A,1205.8805,S,07701.2815,W,0.00,273.22,140526,,,A*61,0
1778781185817458813,$GPGGA,175509.000,1205.8804,S,07701.2814,W,1,07,1.0,168.6,M,8.4,M,,0000*63,0
1778781185817599665,$GPGSA,M,3,20,19,05,21,17,24,11,,,,,,2.0,1.0,1.7*37,0
1778781185817698498,$GPRMC,175509.000,A,1205.8804,S,07701.2814,W,0.00,273.22,140526,,,A*60,0
1778781185817833387,$GPGGA,175510.000,1205.8804,S,07701.2813,W,1,07,1.0,168.8,M,8.4,M,,0000*62,0
1778781185817976072,$GPGSA,M,3,20,19,05,21,17,24,11,,,,,,2.0,1.0,1.7*37,0
1778781185818075831,$GPRMC,175510.000,A,1205.8804,S,07701.2813,W,0.00,273.22,140526,,,A*6F,0
1778781185818210776,$GPGGA,175511.000,1205.8803,S,07701.2813,W,1,07,1.0,168.9,M,8.4,M,,0000*65,0
1778781185818353146,$GPGSA,M,3,20,19,05,21,17,24,11,,,,,,2.0,1.0,1.7*37,0
1778781185818451794,$GPRMC,175511.000,A,1205.8803,S,07701.2813,W,0.00,273.22,140526,,,A*69,0
1778781185818585572,$GPGGA,175512.000,1205.8803,S,07701.2812,W,1,08,0.9,169.1,M,8.4,M,,0000*69,0
1778781185818726794,$GPGSA,M,3,20,19,05,21,17,24,11,14,,,,,1.7,0.9,1.4*3D,0
1778781185818829368,$GPRMC,175512.000,A,1205.8803,S,07701.2812,W,0.00,273.22,140526,,,A*6B,0
1778781185818963609,$GPGGA,175513.000,1205.8802,S,07701.2811,W,1,08,0.9,169.2,M,8.4,M,,0000*69,0
1778781185819105498,$GPGSA,M,3,20,19,05,21,17,24,11,14,,,,,1.7,0.9,1.4*3D,0
1778781185819208220,$GPGSV,3,1,12,20,69,164,45,19,42,085,27,05,42,322,34,21,30,357,28*7D,0
1778781185819338831,$GPGSV,3,2,12,17,27,115,46,24,23,221,32,11,08,012,15,14,08,143,13*7E,0
1778781185819490480,$GPGSV,3,3,12,06,01,048,23,30,06,105,07,44,42,284,44,13,61,127,*7F,0
1778781185819617461,$GPRMC,175513.000,A,1205.8802,S,07701.2811,W,0.00,273.22,140526,,,A*68,0
1778781185819751535,$GPGGA,175514.000,1205.8803,S,07701.2811,W,1,07,1.0,169.3,M,8.4,M,,0000*69,0
1778781185819892961,$GPGSA,M,3,20,19,05,21,17,24,11,,,,,,2.0,1.0,1.7*37,0
1778781185819991980,$GPRMC,175514.000,A,1205.8803,S,07701.2811,W,0.00,273.22,140526,,,A*6E,0
1778781185820125924,$GPGGA,175515.000,1205.8803,S,07701.2811,W,1,07,1.0,169.2,M,8.4,M,,0000*69,0
1778781185820267387,$GPGSA,M,3,20,19,05,21,17,24,11,,,,,,2.0,1.0,1.7*37,0
1778781185820366276,$GPRMC,175515.000,A,1205.8803,S,07701.2811,W,0.00,273.22,140526,,,A*6F,0
1778781185820500554,$GPGGA,175516.000,1205.8803,S,07701.2811,W,1,07,1.0,169.2,M,8.4,M,,0000*6A,0
1778781185820649368,$GPGSA,M,3,20,19,05,21,17,24,11,,,,,,2.0,1.0,1.7*37,0
1778781185820748017,$GPRMC,175516.000,A,1205.8803,S,07701.2811,W,0.00,273.22,140526,,,A*6C,0
1778781185820881591,$GPGGA,175517.000,1205.8803,S,07701.2811,W,1,08,0.9,169.2,M,8.4,M,,0000*6C,0
1778781185821022443,$GPGSA,M,3,20,19,05,21,17,24,11,30,,,,,1.7,0.9,1.5*3A,0
1778781185821128146,$GPRMC,175517.000,A,1205.8803,S,07701.2811,W,0.00,273.22,140526,,,A*6D,0
1778781186199960387,$GPGGA,175518.000,1205.8803,S,07701.2811,W,1,07,1.0,169.2,M,8.4,M,,0000*64,0
1778781186321404090,$GPGSA,M,3,20,19,05,21,17,24,11,,,,,,2.0,1.0,1.7*37,0
1778781186481815868,$GPGSV,3,1,12,20,69,164,45,19,42,085,29,05,42,322,34,21,30,357,27*7C,0
1778781186642212609,$GPGSV,3,2,12,17,27,115,46,24,23,221,32,11,08,012,18,30,06,105,07*7C,0
1778781186788849146,$GPGSV,3,3,12,44,42,284,44,13,61,127,,26,48,095,,28,32,154,*7C,0
1778781186953870220,$GPRMC,175518.000,A,1205.8803,S,07701.2811,W,0.00,273.22,140526,,,A*62,0
1778781187196540534,$GPGGA,175519.000,1205.8803,S,07701.2811,W,1,07,1.0,169.2,M,8.4,M,,0000*65,0
1778781187317993534,$GPGSA,M,3,20,19,05,21,17,24,11,,,,,,2.0,1.0,1.7*37,0
1778781187483028368,$GPRMC,175519.000,A,1205.8803,S,07701.2811,W,0.00,273.22,140526,,,A*63,0
1778781188205316923,$GPGGA,175520.000,1205.8803,S,07701.2811,W,1,07,1.0,169.2,M,8.4,M,,0000*6F,1
1778781188326701182,$GPGSA,M,3,20,19,05,21,17,24,11,,,,,,2.0,1.0,1.7*37,1
1778781188491681997,$GPRMC,175520.000,A,1205.8803,S,07701.2811,W,0.00,273.22,140526,,,A*69,1
1778781189201476459,$GPGGA,175521.000,1205.8803,S,07701.2811,W,1,07,1.0,169.2,M,8.4,M,,0000*6E,1
1778781189322924366,$GPGSA,M,3,20,19,05,21,17,24,11,,,,,,2.0,1.0,1.7*37,1
1778781189487897533,$GPRMC,175521.000,A,1205.8803,S,07701.2811,W,0.00,273.22,140526,,,A*68,1
1778781190200567570,$GPGGA,175522.000,1205.8803,S,07701.2811,W,1,07,1.0,169.2,M,8.4,M,,0000*6D,1
1778781190322009792,$GPGSA,M,3,20,19,05,21,17,24,11,,,,,,2.0,1.0,1.7*37,1
1778781190487043606,$GPRMC,175522.000,A,1205.8803,S,07701.2811,W,0.00,273.22,140526,,,A*6B,1
1778781191200328847,$GPGGA,175523.000,1205.8803,S,07701.2811,W,1,07,1.0,169.2,M,8.4,M,,0000*6C,1
1778781191321787662,$GPGSA,M,3,20,19,05,21,17,24,11,,,,,,2.0,1.0,1.7*37,1
1778781191482197587,$GPGSV,3,1,12,20,69,164,45,19,42,085,29,05,42,322,34,21,30,357,21*7A,1
1778781191642573995,$GPGSV,3,2,12,17,27,115,47,24,23,221,32,11,08,012,17,14,08,143,09*76,1
1778781191793868883,$GPGSV,3,3,12,30,06,105,09,44,42,284,44,13,61,127,,26,48,095,*7F,1
1778781191958830661,$GPRMC,175523.000,A,1205.8803,S,07701.2811,W,0.00,273.22,140526,,,A*6A,1
1778781192206926587,$GPGGA,175524.000,1205.8803,S,07701.2811,W,1,07,1.0,169.2,M,8.4,M,,0000*6B,1
1778781192328417846,$GPGSA,M,3,20,19,05,21,17,24,11,,,,,,2.0,1.0,1.7*37,1
1778781192493413050,$GPRMC,175524.000,A,1205.8803,S,07701.2811,W,0.00,273.22,140526,,,A*6D,1
1778781193198135086,$GPGGA,175525.000,1205.8803,S,07701.2811,W,1,07,1.0,169.2,M,8.4,M,,0000*6A,1
1778781193319583864,$GPGSA,M,3,20,19,05,21,17,24,11,,,,,,2.0,1.0,1.7*37,1
1778781193484617827,$GPRMC,175525.000,A,1205.8803,S,07701.2811,W,0.00,273.22,140526,,,A*6C,1
1778781194199784475,$GPGGA,175526.000,1205.8803,S,07701.2811,W,1,08,0.9,169.2,M,8.4,M,,0000*6E,1
1778781194325797641,$GPGSA,M,3,20,19,05,21,17,24,11,30,,,,,1.7,0.9,1.5*3A,1
1778781194490835215,$GPRMC,175526.000,A,1205.8803,S,07701.2811,W,0.00,273.22,140526,,,A*6F,1
1778781195199932844,$GPGGA,175527.000,1205.8803,S,07701.2811,W,1,07,1.0,169.2,M,8.4,M,,0000*68,1
1778781195321397363,$GPGSA,M,3,20,19,05,21,17,24,11,,,,,,2.0,1.0,1.7*37,1
1778781195486366455,$GPRMC,175527.000,A,1205.8803,S,07701.2811,W,0.00,273.22,140526,,,A*6E,1
1778781196205536696,$GPGGA,175528.000,1205.8803,S,07701.2811,W,1,07,1.0,169.2,M,8.4,M,,0000*67,1
1778781196326978973,$GPGSA,M,3,20,19,05,21,17,24,11,,,,,,2.0,1.0,1.7*37,1
1778781196487383492,$GPGSV,3,1,12,20,69,164,45,19,42,085,30,05,42,322,34,21,30,357,20*73,1
1778781196647777955,$GPGSV,3,2,12,17,27,115,47,24,23,221,32,11,08,012,24,06,01,048,24*79,1
1778781196803623547,$GPGSV,3,3,12,14,08,143,17,30,06,105,09,44,42,284,44,13,61,127,*76,0
1778781196968576806,$GPRMC,175528.000,A,1205.8803,S,07701.2811,W,0.00,273.22,140526,,,A*61,0
1778781197202983510,$GPGGA,175529.000,1205.8803,S,07701.2811,W,1,07,1.0,169.2,M,8.4,M,,0000*66,0
1778781197324432436,$GPGSA,M,3,20,19,05,21,17,24,11,,,,,,2.0,1.0,1.7*37,0
1778781197489405936,$GPRMC,175529.000,A,1205.8803,S,07701.2811,W,0.00,273.22,140526,,,A*60,0
1778781198196767009,$GPGGA,175530.000,1205.8803,S,07701.2811,W,1,07,1.0,169.2,M,8.4,M,,0000*6E,0
1778781198318148268,$GPGSA,M,3,20,19,05,21,17,24,11,,,,,,2.0,1.0,1.7*37,0
1778781198483130731,$GPRMC,175530.000,A,1205.8803,S,07701.2811,W,0.00,273.22,140526,,,A*68,0
1778781199201929453,$GPGGA,175531.000,1205.8803,S,07701.2811,W,1,07,1.0,169.2,M,8.4,M,,0000*6F,0
1778781199323308712,$GPGSA,M,3,20,19,05,21,17,24,11,,,,,,2.0,1.0,1.7*37,0
1778781199488266471,$GPRMC,175531.000,A,1205.8803,S,07701.2811,W,0.00,273.22,140526,,,A*69,0
1778781200195562490,$GPGGA,175532.000,1205.8806,S,07701.2810,W,1,07,1.0,168.5,M,8.4,M,,0000*6E,0
1778781200316999175,$GPGSA,M,3,20,19,05,21,17,24,11,,,,,,2.0,1.0,1.7*37,0
1778781200481983360,$GPRMC,175532.000,A,1205.8806,S,07701.2810,W,0.49,273.22,140526,,,A*63,0
1778781201200718470,$GPGGA,175533.000,1205.8809,S,07701.2811,W,1,07,1.0,167.9,M,8.4,M,,0000*62,0
1778781201322241859,$GPGSA,M,3,20,19,05,21,17,24,11,,,,,,2.0,1.0,1.7*37,0
1778781201482580989,$GPGSV,3,1,12,20,69,164,45,19,42,085,30,05,42,322,30,21,30,357,21*76,0
1778781201642964174,$GPGSV,3,2,12,17,27,115,47,24,23,221,25,11,08,012,23,06,01,048,18*77,0
1778781201798802100,$GPGSV,3,3,12,14,08,143,17,30,06,105,13,44,42,284,44,13,61,127,*7D,0
1778781201963826859,$GPRMC,175533.000,A,1205.8809,S,07701.2811,W,1.32,269.26,140526,,,A*6E,0
1778781202198175229,$GPGGA,175534.000,1205.8814,S,07701.2819,W,1,07,1.0,166.8,M,8.4,M,,0000*61,0
1778781202319641803,$GPGSA,M,3,20,19,05,21,17,24,11,,,,,,2.0,1.0,1.7*37,0
1778781202484604470,$GPRMC,175534.000,A,1205.8814,S,07701.2819,W,2.91,276.69,140526,,,A*62,0
1778781203199595377,$GPGGA,175535.000,1205.8817,S,07701.2827,W,1,07,1.0,166.4,M,8.4,M,,0000*62,0
1778781203321033877,$GPGSA,M,3,20,19,05,21,17,24,11,,,,,,2.0,1.0,1.7*37,0
1778781203486063469,$GPRMC,175535.000,A,1205.8817,S,07701.2827,W,4.29,277.78,140526,,,A*69,0
1778781204197230172,$GPGGA,175536.000,1205.8819,S,07701.2842,W,1,07,1.0,165.9,M,8.4,M,,0000*62,0
1778781204318689283,$GPGSA,M,3,20,19,05,21,17,24,11,,,,,,2.0,1.0,1.7*37,0
1778781204483734561,$GPRMC,175536.000,A,1205.8819,S,07701.2842,W,6.30,275.80,140526,,,A*68,0
1778781205195504079,$GPGGA,175537.000,1205.8820,S,07701.2861,W,1,06,1.1,165.4,M,8.4,M,,0000*65,0
1778781205312392690,$GPGSA,M,3,20,19,05,21,17,24,,,,,,,2.5,1.1,2.3*34,0
1778781205477373468,$GPRMC,175537.000,A,1205.8820,S,07701.2861,W,7.00,275.97,140526,,,A*66,0
1778781206197763764,$GPGGA,175538.000,1205.8822,S,07701.2884,W,1,07,1.0,164.4,M,8.4,M,,0000*62,0
1778781206319243856,$GPGSA,M,3,20,19,05,21,17,24,11,,,,,,2.0,1.0,1.7*37,0
1778781206479646078,$GPGSV,3,1,12,20,69,164,45,19,42,085,35,05,42,322,45,21,30,357,24*74,0
1778781206640035689,$GPGSV,3,2,12,17,27,115,41,24,23,221,32,11,08,012,19,44,42,284,47*77,0
1778781206782122245,$GPGSV,3,3,12,13,61,127,,26,48,095,,28,32,154,,23,18,050,*79,0
1778781206947150689,$GPRMC,175538.000,A,1205.8822,S,07701.2884,W,7.48,278.08,140526,,,A*67,0
1778781207196483856,$GPGGA,175539.000,1205.8822,S,07701.2908,W,1,06,1.1,163.4,M,8.4,M,,0000*61,0
1778781207313333782,$GPGSA,M,3,20,19,05,21,17,24,,,,,,,2.5,1.1,2.3*34,0
1778781207478367726,$GPRMC,175539.000,A,1205.8822,S,07701.2908,W,7.88,277.71,140526,,,A*6E,0
1778781208193340337,$GPGGA,175540.000,1205.8825,S,07701.2939,W,1,05,2.4,161.4,M,8.4,M,,0000*6D,0
1778781208305660485,$GPGSA,M,3,20,19,05,21,17,,,,,,,,4.5,2.4,3.9*39,0
1778781208470635188,$GPRMC,175540.000,A,1205.8825,S,07701.2939,W,8.38,277.39,140526,,,A*6D,0
1778781209198925818,$GPGGA,175541.000,1205.8830,S,07701.2973,W,1,06,1.1,158.6,M,8.4,M,,0000*6B,0
1778781209315759484,$GPGSA,M,3,20,19,05,21,17,24,,,,,,,2.5,1.1,2.3*34,0
1778781209480787706,$GPRMC,175541.000,A,1205.8830,S,07701.2973,W,8.64,277.98,140526,,,A*64,0
1778781210194445910,$GPGGA,175542.000,1205.8828,S,07701.3002,W,1,05,1.2,157.3,M,8.4,M,,0000*65,0
1778781210306776021,$GPGSA,M,3,20,19,21,17,24,,,,,,,,2.6,1.2,2.3*31,0
1778781210471753798,$GPRMC,175542.000,A,1205.8828,S,07701.3002,W,8.06,279.00,140526,,,A*6B,0
1778781211193406483,$GPGGA,175543.000,1205.8831,S,07701.3033,W,1,05,1.2,155.0,M,8.4,M,,0000*6F,0
1778781211305752557,$GPGSA,M,3,20,19,21,17,24,,,,,,,,2.6,1.2,2.3*31,0
1778781211466083872,$GPGSV,3,1,12,20,69,164,37,19,42,085,47,21,30,357,39,17,27,115,37*7B,0
1778781211621914372,$GPGSV,3,2,12,24,23,221,37,14,08,143,18,44,42,284,46,13,61,127,*70,0
1778781211763991409,$GPGSV,3,3,12,26,48,095,,05,42,322,,28,32,154,,23,18,050,*78,0
1778781211928961964,$GPRMC,175543.000,A,1205.8831,S,07701.3033,W,7.81,278.30,140526,,,A*62,0
1778781212202496668,$GPGGA,175544.000,1205.8830,S,07701.3063,W,1,06,1.1,153.1,M,8.4,M,,0000*6B,0
1778781212319387205,$GPGSA,M,3,20,19,21,17,24,14,,,,,,,2.1,1.1,1.8*38,0
1778781212484365112,$GPRMC,175544.000,A,1205.8830,S,07701.3063,W,7.83,279.15,140526,,,A*65,0
1778781213201198297,$GPGGA,175545.000,1205.8827,S,07701.3090,W,1,08,1.0,151.6,M,8.4,M,,0000*6A,0
1778781213327228963,$GPGSA,M,3,20,19,05,21,17,24,14,30,,,,,1.8,1.0,1.6*3B,0
1778781213492221037,$GPRMC,175545.000,A,1205.8827,S,07701.3090,W,7.98,279.55,140526,,,A*60,0
1778781214201566407,$GPGGA,175546.000,1205.8827,S,07701.3116,W,1,08,1.0,150.6,M,8.4,M,,0000*67,0
1778781214327598333,$GPGSA,M,3,20,19,05,21,17,24,14,30,,,,,1.8,1.0,1.6*3B,0
1778781214492608833,$GPRMC,175546.000,A,1205.8827,S,07701.3116,W,6.90,276.20,140526,,,A*68,0
1778781215204237147,$GPGGA,175547.000,1205.8824,S,07701.3136,W,1,08,1.0,150.7,M,8.4,M,,0000*66,0
1778781215330255332,$GPGSA,M,3,20,19,05,21,17,24,14,30,,,,,1.8,1.0,1.6*3B,0
1778781215495268684,$GPRMC,175547.000,A,1205.8824,S,07701.3136,W,6.95,278.97,140526,,,A*6F,0
1778781216194391887,$GPGGA,175548.000,1205.8821,S,07701.3158,W,1,07,1.0,150.5,M,8.4,M,,0000*69,0
1778781216315861943,$GPGSA,M,3,20,19,05,21,17,24,30,,,,,,2.0,1.0,1.7*34,0
1778781216476265702,$GPGSV,3,1,12,20,69,164,44,19,42,085,47,05,42,322,26,21,30,357,34*74,0
1778781216636669183,$GPGSV,3,2,12,17,27,115,31,24,23,221,37,30,06,105,24,11,08,012,08*79,0
1778781216783315887,$GPGSV,3,3,12,44,42,284,48,13,61,127,,26,48,095,,28,32,154,*70,0
1778781216948313776,$GPRMC,175548.000,A,1205.8821,S,07701.3158,W,7.08,275.97,140526,,,A*65,0
1778781217198089757,$GPGGA,175549.000,1205.8819,S,07701.3182,W,1,07,1.0,150.0,M,8.4,M,,0000*61,0
1778781217319556331,$GPGSA,M,3,20,19,05,21,17,24,30,,,,,,2.0,1.0,1.7*34,0
1778781217484563627,$GPRMC,175549.000,A,1205.8819,S,07701.3182,W,8.44,275.78,140526,,,A*6E,0
1778781218197649812,$GPGGA,175550.000,1205.8812,S,07701.3212,W,1,07,1.0,149.7,M,8.4,M,,0000*67,0
1778781218319086442,$GPGSA,M,3,20,19,05,21,17,24,30,,,,,,2.0,1.0,1.7*34,0
1778781218484083034,$GPRMC,175550.000,A,1205.8812,S,07701.3212,W,9.33,278.51,140526,,,A*60,0
1778781219201131349,$GPGGA,175551.000,1205.8806,S,07701.3244,W,1,08,1.0,149.0,M,8.4,M,,0000*68,0
1778781219327171700,$GPGSA,M,3,20,19,05,21,17,24,14,30,,,,,1.8,1.0,1.6*3B,0
1778781219492178663,$GPRMC,175551.000,A,1205.8806,S,07701.3244,W,9.97,277.41,140526,,,A*67,0
1778781220205086070,$GPGGA,175552.000,1205.8801,S,07701.3276,W,1,08,1.0,148.4,M,8.4,M,,0000*68,0
1778781220331110848,$GPGSA,M,3,20,19,05,21,17,24,14,30,,,,,1.8,1.0,1.5*38,0
1778781220498368774,$GPRMC,175552.000,A,1205.8801,S,07701.3276,W,10.49,277.93,140526,,,A*56,0
1778781221201249273,$GPGGA,175553.000,1205.8797,S,07701.3311,W,1,08,1.0,147.1,M,8.4,M,,0000*63,0
1778781221327294884,$GPGSA,M,3,20,19,05,21,17,24,14,30,,,,,1.8,1.0,1.5*38,0
1778781221487708162,$GPGSV,3,1,12,20,69,164,45,19,42,085,44,05,42,322,41,21,30,357,18*79,0
1778781221648105180,$GPGSV,3,2,12,17,27,115,46,24,23,221,41,14,08,143,26,30,06,105,21*71,0
1778781221799343254,$GPGSV,3,3,12,06,01,048,20,44,42,284,45,13,61,127,,26,48,095,*7F,0
1778781221966630662,$GPRMC,175553.000,A,1205.8797,S,07701.3311,W,10.11,278.37,140526,,,A*5B,0
1778781222200468365,$GPGGA,175554.000,1205.8793,S,07701.3343,W,1,08,1.0,146.0,M,8.4,M,,0000*67,0
1778781222326405828,$GPGSA,M,3,20,19,05,21,17,24,14,30,,,,,1.8,1.0,1.5*38,0
1778781222491448921,$GPRMC,175554.000,A,1205.8793,S,07701.3343,W,9.83,278.98,140526,,,A*69,0
1778781223196989828,$GPGGA,175555.000,1205.8789,S,07701.3373,W,1,08,1.0,145.0,M,8.4,M,,0000*6D,0
1778781223323038272,$GPGSA,M,3,20,19,05,21,17,24,14,30,,,,,1.8,1.0,1.5*38,0
1778781223488036161,$GPRMC,175555.000,A,1205.8789,S,07701.3373,W,9.28,278.66,140526,,,A*60,0
1778781224197994272,$GPGGA,175556.000,1205.8784,S,07701.3401,W,1,08,1.0,144.4,M,8.4,M,,0000*64,0
1778781224324020160,$GPGSA,M,3,20,19,05,21,17,24,14,30,,,,,1.8,1.0,1.5*38,0
1778781224489023586,$GPRMC,175556.000,A,1205.8784,S,07701.3401,W,9.73,278.40,140526,,,A*66,0
1778781225202115901,$GPGGA,175557.000,1205.8779,S,07701.3429,W,1,08,1.0,144.1,M,8.4,M,,0000*68,0
1778781225328140604,$GPGSA,M,3,20,19,05,21,17,24,14,30,,,,,1.8,1.0,1.5*38,0
1778781225495443956,$GPRMC,175557.000,A,1205.8779,S,07701.3429,W,10.08,277.83,140526,,,A*5B,0
1778781226196644585,$GPGGA,175558.000,1205.8772,S,07701.3459,W,1,08,1.0,143.5,M,8.4,M,,0000*68,0
1778781226322688807,$GPGSA,M,3,20,19,05,21,17,24,14,30,,,,,1.8,1.0,1.5*38,0
1778781226483108622,$GPGSV,3,1,12,20,69,164,45,19,42,085,46,05,42,322,42,21,30,357,41*74,0
1778781226643503696,$GPGSV,3,2,12,17,27,115,46,24,23,221,39,14,08,143,23,30,06,105,19*70,0
1778781226790162326,$GPGSV,3,3,12,44,42,284,39,13,61,127,,26,48,095,,28,32,154,*76,0
1778781226957452048,$GPRMC,175558.000,A,1205.8772,S,07701.3459,W,10.44,277.94,140526,,,A*56,0
1778781227195976011,$GPGGA,175559.000,1205.8768,S,07701.3487,W,1,08,1.0,143.4,M,8.4,M,,0000*60,0
1778781227322022770,$GPGSA,M,3,20,19,05,21,17,24,14,30,,,,,1.8,1.0,1.5*38,0
1778781227489320010,$GPRMC,175559.000,A,1205.8768,S,07701.3487,W,10.33,276.37,140526,,,A*57,0
1778781228200314862,$GPGGA,175600.000,1205.8765,S,07701.3516,W,1,08,1.0,143.4,M,8.4,M,,0000*6B,0
1778781228326338195,$GPGSA,M,3,20,19,05,21,17,24,14,30,,,,,1.8,1.0,1.5*38,0
1778781228493636547,$GPRMC,175600.000,A,1205.8765,S,07701.3516,W,10.28,276.24,140526,,,A*54,0
1778781229202576028,$GPGGA,175601.000,1205.8762,S,07701.3544,W,1,08,1.0,143.6,M,8.4,M,,0000*68,0
1778781229328588824,$GPGSA,M,3,20,19,05,21,17,24,14,30,,,,,1.8,1.0,1.5*38,0
1778781229495889398,$GPRMC,175601.000,A,1205.8762,S,07701.3544,W,10.33,276.54,140526,,,A*58,0
1778781230197724286,$GPGGA,175602.000,1205.8759,S,07701.3573,W,1,08,1.0,143.6,M,8.4,M,,0000*67,0
1778781230323764657,$GPGSA,M,3,20,19,05,21,17,24,14,30,,,,,1.8,1.0,1.5*38,0
1778781230491049490,$GPRMC,175602.000,A,1205.8759,S,07701.3573,W,10.53,276.18,140526,,,A*59,0
1778781231202275823,$GPGGA,175603.000,1205.8755,S,07701.3603,W,1,08,1.0,143.6,M,8.4,M,,0000*6E,0
1778781231328288027,$GPGSA,M,3,20,19,05,21,17,24,14,30,,,,,1.8,1.0,1.5*38,0
1778781231488719008,$GPGSV,3,1,12,20,69,164,44,19,42,085,41,05,42,322,22,21,30,357,36*74,0
1778781231649122323,$GPGSV,3,2,12,17,27,115,46,24,23,221,35,14,08,143,24,30,06,105,17*75,0
1778781231800359952,$GPGSV,3,3,12,06,01,048,12,44,42,284,46,13,61,127,,26,48,095,*7D,0
1778781231967643656,$GPRMC,175603.000,A,1205.8755,S,07701.3603,W,10.85,278.56,140526,,,A*5F,0
1778781232199931267,$GPGGA,175604.000,1205.8743,S,07701.3635,W,1,08,1.0,143.2,M,8.4,M,,0000*6F,0
1778781232325965470,$GPGSA,M,3,20,19,05,21,17,24,14,30,,,,,1.8,1.0,1.5*38,0
1778781232493255655,$GPRMC,175604.000,A,1205.8743,S,07701.3635,W,10.86,279.24,140526,,,A*5D,0
1778781233201134748,$GPGGA,175605.000,1205.8739,S,07701.3663,W,1,08,1.0,143.4,M,8.4,M,,0000*66,0
1778781233327161933,$GPGSA,M,3,20,19,05,21,17,24,14,30,,,,,1.8,1.0,1.5*38,0
1778781233494456710,$GPRMC,175605.000,A,1205.8739,S,07701.3663,W,10.75,275.74,140526,,,A*57,0
1778781234205668432,$GPGGA,175606.000,1205.8736,S,07701.3694,W,1,08,1.0,143.5,M,8.4,M,,0000*63,0
1778781234331719284,$GPGSA,M,3,20,19,05,21,17,24,14,30,,,,,1.8,1.0,1.5*38,0
1778781234499003784,$GPRMC,175606.000,A,1205.8736,S,07701.3694,W,11.12,277.74,140526,,,A*51,0
1778781235203125691,$GPGGA,175607.000,1205.8732,S,07701.3724,W,1,08,0.9,143.4,M,8.4,M,,0000*65,0
1778781235329164561,$GPGSA,M,3,20,19,05,17,24,11,14,30,,,,,1.6,0.9,1.3*3B,0
1778781235496456487,$GPRMC,175607.000,A,1205.8732,S,07701.3724,W,10.93,278.38,140526,,,A*51,0
1778781236201828524,$GPGGA,175608.000,1205.8728,S,07701.3755,W,1,08,1.0,143.4,M,8.4,M,,0000*6F,0
1778781236327859394,$GPGSA,M,3,20,19,05,21,17,24,14,30,,,,,1.8,1.0,1.5*38,0
1778781236488295005,$GPGSV,3,1,12,20,69,164,44,19,42,085,46,05,42,322,42,21,30,357,21*73,0
1778781236648673986,$GPGSV,3,2,12,17,27,115,46,24,23,221,38,14,08,143,23,30,06,105,22*79,0
1778781236804507301,$GPGSV,3,3,12,06,01,048,22,11,08,012,12,44,42,284,46,13,61,127,*72,0
1778781236971788338,$GPRMC,175608.000,A,1205.8728,S,07701.3755,W,10.51,278.62,140526,,,A*52,0
1778781237203646208,$GPGGA,175609.000,1205.8724,S,07701.3784,W,1,08,1.0,143.3,M,8.4,M,,0000*69,0
1778781237329698764,$GPGSA,M,3,20,19,05,21,17,24,14,30,,,,,1.8,1.0,1.5*38,0
1778781237496988560,$GPRMC,175609.000,A,1205.8724,S,07701.3784,W,10.20,276.37,140526,,,A*5B,0
1778781238199247522,$GPGGA,175610.000,1205.8720,S,07701.3813,W,1,07,1.2,143.2,M,8.4,M,,0000*68,0
1778781238320695671,$GPGSA,M,3,20,19,05,17,24,14,30,,,,,,2.1,1.2,1.7*31,0
1778781238485696152,$GPRMC,175610.000,A,1205.8720,S,07701.3813,W,9.83,278.12,140526,,,A*6E,0
1778781239198584151,$GPGGA,175611.000,1205.8716,S,07701.3841,W,1,07,1.2,143.1,M,8.4,M,,0000*68,0
1778781239320015670,$GPGSA,M,3,20,19,05,17,24,14,30,,,,,,2.1,1.2,1.7*31,0
1778781239485025688,$GPRMC,175611.000,A,1205.8716,S,07701.3841,W,9.99,278.44,140526,,,A*65,0
1778781240199155243,$GPGGA,175612.000,1205.8713,S,07701.3870,W,1,08,1.0,143.1,M,8.4,M,,0000*61,0
1778781240325186780,$GPGSA,M,3,20,19,05,21,17,24,14,30,,,,,1.8,1.0,1.5*38,0
1778781240492480891,$GPRMC,175612.000,A,1205.8713,S,07701.3870,W,10.04,277.29,140526,,,A*59,0
1778781241201808687,$GPGGA,175613.000,1205.8709,S,07701.3898,W,1,08,1.0,143.2,M,8.4,M,,0000*6E,0
1778781241327856743,$GPGSA,M,3,20,19,05,21,17,24,14,30,,,,,1.8,1.0,1.5*38,0
1778781241488310317,$GPGSV,3,1,12,20,69,164,45,19,42,085,46,05,42,322,25,21,30,357,35*76,0
1778781241648669317,$GPGSV,3,2,12,17,27,115,46,24,23,221,39,14,08,143,35,30,06,105,22*7F,0
1778781241795348909,$GPGSV,3,3,12,44,42,284,46,13,61,127,,26,48,095,,28,32,154,*7E,0
1778781241962615742,$GPRMC,175613.000,A,1205.8709,S,07701.3898,W,10.14,277.36,140526,,,A*5A,0
1778781242196150279,$GPGGA,175614.000,1205.8707,S,07701.3927,W,1,08,1.0,143.3,M,8.4,M,,0000*63,0
1778781242322178057,$GPGSA,M,3,20,19,05,21,17,24,14,30,,,,,1.8,1.0,1.5*38,0
1778781242489478798,$GPRMC,175614.000,A,1205.8707,S,07701.3927,W,10.16,275.44,140526,,,A*53,0
1778781243204227075,$GPGGA,175615.000,1205.8704,S,07701.3956,W,1,08,1.0,143.3,M,8.4,M,,0000*67,0
1778781243330255260,$GPGSA,M,3,20,19,05,21,17,24,14,30,,,,,1.8,1.0,1.5*38,0
1778781243497617760,$GPRMC,175615.000,A,1205.8704,S,07701.3956,W,10.27,277.75,140526,,,A*55,0
1778781244197509371,$GPGGA,175616.000,1205.8699,S,07701.3984,W,1,07,1.5,143.2,M,8.4,M,,0000*65,0
1778781244318972130,$GPGSA,M,3,20,19,05,21,17,14,30,,,,,,2.3,1.5,1.7*31,0
1778781244483962241,$GPRMC,175616.000,A,1205.8699,S,07701.3984,W,9.64,279.54,140526,,,A*6E,0
1778781245197267981,$GPGGA,175617.000,1205.8693,S,07701.4011,W,1,07,1.5,142.9,M,8.4,M,,0000*66,0
1778781245318744963,$GPGSA,M,3,20,19,05,21,17,14,30,,,,,,2.3,1.5,1.7*31,0
1778781245483716481,$GPRMC,175617.000,A,1205.8693,S,07701.4011,W,9.02,278.66,140526,,,A*67,0
1778781246196377258,$GPGGA,175618.000,1205.8690,S,07701.4037,W,1,08,1.0,142.7,M,8.4,M,,0000*6A,0
1778781246322420240,$GPGSA,M,3,20,19,05,21,17,24,14,30,,,,,1.8,1.0,1.5*38,0
1778781246482832406,$GPGSV,3,1,12,20,69,164,45,19,42,085,47,05,42,322,41,21,30,357,27*76,0
1778781246643237221,$GPGSV,3,2,12,17,27,115,46,24,23,221,39,14,08,143,27,30,06,105,36*79,0
1778781246794466536,$GPGSV,3,3,12,06,01,048,16,44,42,284,44,13,61,127,,26,48,095,*7B,0
1778781246959480443,$GPRMC,175618.000,A,1205.8690,S,07701.4037,W,9.02,278.61,140526,,,A*68,0
1778781247201332073,$GPGGA,175619.000,1205.8687,S,07701.4063,W,1,08,1.0,142.5,M,8.4,M,,0000*6E,0
1778781247327368054,$GPGSA,M,3,20,19,05,21,17,24,14,30,,,,,1.8,1.0,1.5*38,0
1778781247492379906,$GPRMC,175619.000,A,1205.8687,S,07701.4063,W,9.42,278.66,140526,,,A*6D,0
1778781248197961517,$GPGGA,175620.000,1205.8683,S,07701.4091,W,1,08,1.0,142.2,M,8.4,M,,0000*6A,0
1778781248323992757,$GPGSA,M,3,20,19,05,21,17,24,14,30,,,,,1.8,1.0,1.5*38,0
1778781248488999850,$GPRMC,175620.000,A,1205.8683,S,07701.4091,W,9.51,278.50,140526,,,A*69,0
1778781249205003405,$GPGGA,175621.000,1205.8679,S,07701.4120,W,1,09,0.9,141.8,M,8.4,M,,0000*65,0
1778781249335644997,$GPGSA,M,3,20,19,05,21,17,24,11,14,30,,,,1.6,0.9,1.3*38,0
1778781249500616238,$GPRMC,175621.000,A,1205.8679,S,07701.4120,W,9.50,279.40,140526,,,A*67,0
1778781250200374589,$GPGGA,175622.000,1205.8674,S,07701.4148,W,1,08,0.9,141.2,M,8.4,M,,0000*6E,0
1778781250326404441,$GPGSA,M,3,20,19,05,21,17,24,11,30,,,,,1.7,0.9,1.5*3A,0
1778781250491416071,$GPRMC,175622.000,A,1205.8674,S,07701.4148,W,9.16,279.32,140526,,,A*60,0
1778781251206782626,$GPGGA,175623.000,1205.8670,S,07701.4176,W,1,08,0.9,140.8,M,8.4,M,,0000*6D,0
1778781251332824644,$GPGSA,M,3,20,19,05,21,17,24,11,30,,,,,1.7,0.9,1.5*3A,0
1778781251493243515,$GPGSV,3,1,12,20,69,164,44,19,42,085,47,05,42,322,44,21,30,357,38*7C,0
1778781251653651940,$GPGSV,3,2,12,17,27,115,46,24,23,221,39,11,08,012,19,30,06,105,34*76,0
1778781251804882163,$GPGSV,3,3,12,14,08,143,22,44,42,284,46,13,61,127,,26,48,095,*7E,0
1778781251969880940,$GPRMC,175623.000,A,1205.8670,S,07701.4176,W,9.39,278.97,140526,,,A*6B,0
1778781252201939792,$GPGGA,175624.000,1205.8665,S,07701.4204,W,1,08,0.9,140.6,M,8.4,M,,0000*66,0
1778781252327986051,$GPGSA,M,3,20,19,05,17,24,11,14,30,,,,,1.6,0.9,1.3*3B,0
1778781252492990199,$GPRMC,175624.000,A,1205.8665,S,07701.4204,W,9.60,278.63,140526,,,A*69,0
1778781253205661662,$GPGGA,175625.000,1205.8660,S,07701.4230,W,1,09,0.9,140.3,M,8.4,M,,0000*61,0
1778781253336299495,$GPGSA,M,3,20,19,05,21,17,24,11,14,30,,,,1.6,0.9,1.3*38,0
1778781253501268884,$GPRMC,175625.000,A,1205.8660,S,07701.4230,W,8.86,278.30,140526,,,A*65,0
1778781254204225383,$GPGGA,175626.000,1205.8657,S,07701.4256,W,1,09,0.9,139.8,M,8.4,M,,0000*63,0
1778781254335162161,$GPGSA,M,3,20,19,05,21,17,24,11,14,30,,,,1.6,0.9,1.3*38,0
1778781254499769216,$GPRMC,175626.000,A,1205.8657,S,07701.4256,W,8.66,277.56,140526,,,A*63,0
1778781255204945883,$GPGGA,175627.000,1205.8654,S,07701.4282,W,1,09,0.9,139.5,M,8.4,M,,0000*65,0
1778781255335590420,$GPGSA,M,3,20,19,05,21,17,24,11,14,30,,,,1.6,0.9,1.3*38,0
1778781255500552734,$GPRMC,175627.000,A,1205.8654,S,07701.4282,W,8.96,277.62,140526,,,A*60,0
1778781256205717771,$GPGGA,175628.000,1205.8651,S,07701.4308,W,1,09,0.9,139.4,M,8.4,M,,0000*6D,0
1778781256336379512,$GPGSA,M,3,20,19,05,21,17,24,11,14,30,,,,1.6,0.9,1.3*38,0
1778781256496753900,$GPGSV,3,1,12,20,69,164,44,19,42,085,47,05,42,322,45,21,30,357,31*74,0
1778781256657164826,$GPGSV,3,2,12,17,27,115,46,24,23,221,39,11,08,012,18,14,08,143,28*70,0
1778781256812976845,$GPGSV,3,3,12,30,06,105,38,06,01,048,13,44,42,284,46,13,61,127,*72,0
1778781256977996085,$GPRMC,175628.000,A,1205.8651,S,07701.4308,W,9.11,278.15,140526,,,A*68,0
1778781257205052363,$GPGGA,175629.000,1205.8648,S,07701.4331,W,1,09,0.9,139.2,M,8.4,M,,0000*68,0
1778781257335725826,$GPGSA,M,3,20,19,05,21,17,24,11,14,30,,,,1.6,0.9,1.3*38,0
1778781257500718141,$GPRMC,175629.000,A,1205.8648,S,07701.4331,W,8.14,277.91,140526,,,A*6C,0
1778781258207307325,$GPGGA,175630.000,1205.8645,S,07701.4352,W,1,09,0.9,139.0,M,8.4,M,,0000*6A,0
1778781258337946733,$GPGSA,M,3,20,19,05,21,17,24,11,14,30,,,,1.6,0.9,1.3*38,0
1778781258502930159,$GPRMC,175630.000,A,1205.8645,S,07701.4352,W,7.18,277.15,140526,,,A*63,0
1778781259206217269,$GPGGA,175631.000,1205.8643,S,07701.4370,W,1,09,0.9,139.0,M,8.4,M,,0000*6D,0
1778781259336852084,$GPGSA,M,3,20,19,05,21,17,24,11,14,30,,,,1.6,0.9,1.3*38,0
1778781259501826528,$GPRMC,175631.000,A,1205.8643,S,07701.4370,W,6.29,277.99,140526,,,A*63,0
1778781260200129454,$GPGGA,175632.000,1205.8643,S,07701.4387,W,1,09,0.9,139.0,M,8.4,M,,0000*66,0
1778781260330763583,$GPGSA,M,3,20,19,05,21,17,24,11,14,30,,,,1.6,0.9,1.3*38,0
1778781260495741305,$GPRMC,175632.000,A,1205.8643,S,07701.4387,W,6.02,277.39,140526,,,A*6B,0
1778781261204895601,$GPGGA,175633.000,1205.8642,S,07701.4403,W,1,09,0.9,139.0,M,8.4,M,,0000*6D,1
1778781261335521879,$GPGSA,M,3,20,19,05,21,17,24,11,14,30,,,,1.6,0.9,1.3*38,1
1778781261495904360,$GPGSV,3,1,12,20,69,164,44,19,42,085,47,05,42,322,31,21,30,357,24*73,1
1778781261656348934,$GPGSV,3,2,12,17,27,115,45,24,23,221,41,11,08,012,25,14,08,143,28*72,1
1778781261812127823,$GPGSV,3,3,12,30,06,105,42,06,01,048,24,44,42,284,46,13,61,127,*7B,1
1778781261977144212,$GPRMC,175633.000,A,1205.8642,S,07701.4403,W,6.08,278.90,140526,,,A*66,1
1778781262198415934,$GPGGA,175634.000,1205.8640,S,07701.4420,W,1,07,1.0,139.0,M,8.4,M,,0000*6F,1
1778781262319827953,$GPGSA,M,3,20,19,05,17,24,11,30,,,,,,1.8,1.0,1.5*3E,1
1778781262484834267,$GPRMC,175634.000,A,1205.8640,S,07701.4420,W,5.76,279.64,140526,,,A*62,1
1778781263203324711,$GPGGA,175635.000,1205.8641,S,07701.4432,W,1,08,0.9,139.0,M,8.4,M,,0000*6B,1
1778781263329363730,$GPGSA,M,3,20,19,05,17,24,11,14,30,,,,,1.6,0.9,1.3*3B,1
1778781263494378322,$GPRMC,175635.000,A,1205.8641,S,07701.4432,W,4.12,280.39,140526,,,A*6C,1
1778781264201848063,$GPGGA,175636.000,1205.8641,S,07701.4443,W,1,08,0.9,139.0,M,8.4,M,,0000*6E,1
1778781264327853285,$GPGSA,M,3,20,19,05,17,24,11,14,30,,,,,1.6,0.9,1.3*3B,1
1778781264492863692,$GPRMC,175636.000,A,1205.8641,S,07701.4443,W,3.62,280.26,140526,,,A*67,1
1778781265208881821,$GPGGA,175637.000,1205.8640,S,07701.4455,W,1,07,1.0,138.9,M,8.4,M,,0000*66,1
1778781265330309266,$GPGSA,M,3,20,19,05,17,24,11,30,,,,,,1.8,1.0,1.5*3E,1
1778781265495319395,$GPRMC,175637.000,A,1205.8640,S,07701.4455,W,5.30,278.32,140526,,,A*63,1
1778781266208195598,$GPGGA,175638.000,1205.8638,S,07701.4474,W,1,08,0.9,138.8,M,8.4,M,,0000*63,1
1778781266334699395,$GPGSA,M,3,20,19,05,21,17,24,11,30,,,,,1.7,0.9,1.5*3A,1
1778781266494646839,$GPGSV,3,1,12,20,69,164,44,19,42,085,47,05,42,322,45,21,30,357,31*74,1
1778781266655096561,$GPGSV,3,2,12,17,27,115,46,24,23,221,41,11,08,012,19,30,06,105,42*78,1
1778781266806288024,$GPGSV,3,3,12,14,08,143,26,44,42,284,46,13,61,127,,26,48,095,*7A,1
1778781266971276635,$GPRMC,175638.000,A,1205.8638,S,07701.4474,W,7.13,276.33,140526,,,A*6C,1
1778781267208780061,$GPGGA,175639.000,1205.8637,S,07701.4494,W,1,09,0.9,138.8,M,8.4,M,,0000*62,1
1778781267339425894,$GPGSA,M,3,20,19,05,21,17,24,11,14,30,,,,1.6,0.9,1.3*38,1
1778781267504391098,$GPRMC,175639.000,A,1205.8637,S,07701.4494,W,6.88,275.70,140526,,,A*6B,1
1778781268206028245,$GPGGA,175640.000,1205.8632,S,07701.4513,W,1,09,0.9,138.6,M,8.4,M,,0000*69,1
1778781268336666338,$GPGSA,M,3,20,19,05,21,17,24,11,14,30,,,,1.6,0.9,1.3*38,1
1778781268501632486,$GPRMC,175640.000,A,1205.8632,S,07701.4513,W,5.79,283.29,140526,,,A*66,1
1778781269201175689,$GPGGA,175641.000,1205.8623,S,07701.4527,W,1,09,0.9,138.4,M,8.4,M,,0000*6D,1
1778781269331800319,$GPGSA,M,3,20,19,05,21,17,24,11,14,30,,,,1.6,0.9,1.3*38,1
1778781269496804930,$GPRMC,175641.000,A,1205.8623,S,07701.4527,W,5.12,307.06,140526,,,A*6D,1
1778781270201976522,$GPGGA,175642.000,1205.8610,S,07701.4535,W,1,09,0.9,138.4,M,8.4,M,,0000*6D,1
1778781270332656688,$GPGSA,M,3,20,19,05,21,17,24,11,14,30,,,,1.6,0.9,1.3*38,1
1778781270497593911,$GPRMC,175642.000,A,1205.8610,S,07701.4535,W,5.53,339.85,140526,,,A*6E,1
1778781271202138892,$GPGGA,175643.000,1205.8591,S,07701.4535,W,1,09,0.9,138.2,M,8.4,M,,0000*60,1
1778781271332804373,$GPGSA,M,3,20,19,05,21,17,24,11,14,30,,,,1.6,0.9,1.3*38,1
1778781271493165910,$GPGSV,3,1,12,20,69,164,44,19,42,085,40,05,42,322,31,21,30,357,45*73,1
1778781271653579095,$GPGSV,3,2,12,17,27,115,42,24,23,221,40,11,08,012,21,14,08,143,26*7E,1
1778781271809391391,$GPGSV,3,3,12,30,06,105,33,06,01,048,12,44,42,284,28,13,61,127,*70,1
1778781271969810613,$GPRMC,175643.000,A,1205.8591,S,07701.4535,W,7.27,7.09,140526,,,A*6E,1
1778781272200838484,$GPGGA,175644.000,1205.8569,S,07701.4528,W,1,09,0.9,138.3,M,8.4,M,,0000*6D,1
1778781272331458872,$GPGSA,M,3,20,19,05,21,17,24,11,14,30,,,,1.6,0.9,1.3*38,1
1778781272494161724,$GPRMC,175644.000,A,1205.8569,S,07701.4528,W,9.08,18.91,140526,,,A*5E,1
1778781273200179261,$GPGGA,175645.000,1205.8545,S,07701.4522,W,1,09,0.9,138.2,M,8.4,M,,0000*69,1
1778781273330835964,$GPGSA,M,3,20,19,05,21,17,24,11,14,30,,,,1.6,0.9,1.3*38,1
1778781273493494242,$GPRMC,175645.000,A,1205.8545,S,07701.4522,W,8.58,14.13,140526,,,A*59,1
1778781274200967853,$GPGGA,175646.000,1205.8516,S,07701.4516,W,1,09,0.9,138.2,M,8.4,M,,0000*6B,1
1778781274331574556,$GPGSA,M,3,20,19,05,21,17,24,11,14,30,,,,1.6,0.9,1.3*38,1
1778781274496580075,$GPRMC,175646.000,A,1205.8516,S,07701.4516,W,10.72,13.08,140526,,,A*67,1
1778781275201749797,$GPGGA,175647.000,1205.8485,S,07701.4509,W,1,09,0.9,138.4,M,8.4,M,,0000*69,1
1778781275332409000,$GPGSA,M,3,20,19,05,21,17,24,11,14,30,,,,1.6,0.9,1.3*38,1
1778781275497441630,$GPRMC,175647.000,A,1205.8485,S,07701.4509,W,10.91,14.04,140526,,,A*65,1
1778781276201543852,$GPGGA,175648.000,1205.8454,S,07701.4503,W,1,09,0.9,138.6,M,8.4,M,,0000*62,1
1778781276332117629,$GPGSA,M,3,20,19,05,21,17,24,11,14,30,,,,1.6,0.9,1.3*38,1
1778781276492587648,$GPGSV,3,1,12,20,69,164,46,19,42,085,26,05,42,322,42,21,30,357,39*7E,1
1778781276652935185,$GPGSV,3,2,12,17,27,115,27,24,23,221,31,11,08,012,21,14,08,143,26*7B,1
1778781276808759611,$GPGSV,3,3,12,30,06,105,22,06,01,048,18,44,42,284,41,13,61,127,*75,1
1778781276973760277,$GPRMC,175648.000,A,1205.8454,S,07701.4503,W,10.23,13.48,140526,,,A*6A,1
1778781277201691258,$GPGGA,175649.000,1205.8426,S,07701.4495,W,1,09,0.9,138.6,M,8.4,M,,0000*68,1
1778781277332276962,$GPGSA,M,3,20,19,05,21,17,24,11,14,30,,,,1.6,0.9,1.3*38,1
1778781277497274592,$GPRMC,175649.000,A,1205.8426,S,07701.4495,W,10.09,16.97,140526,,,A*6F,1
1778781278200585665,$GPGGA,175650.000,1205.8397,S,07701.4484,W,1,09,0.9,138.9,M,8.4,M,,0000*62,1
1778781278331198702,$GPGSA,M,3,20,19,05,21,17,24,11,14,30,,,,1.6,0.9,1.3*38,1
1778781278496188017,$GPRMC,175650.000,A,1205.8397,S,07701.4484,W,11.41,24.07,140526,,,A*6F,1
1778781279205325609,$GPGGA,175651.000,1205.8367,S,07701.4470,W,1,09,0.9,139.0,M,8.4,M,,0000*6F,1
1778781279336049368,$GPGSA,M,3,20,19,05,21,17,24,11,14,30,,,,1.6,0.9,1.3*38,1
1778781279500922924,$GPRMC,175651.000,A,1205.8367,S,07701.4470,W,11.21,25.60,140526,,,A*6C,1
1778781280195477664,$GPGGA,175652.000,1205.8339,S,07701.4456,W,1,07,1.0,139.0,M,8.4,M,,0000*65,1
1778781280316934812,$GPGSA,M,3,20,19,05,17,24,11,14,,,,,,1.7,1.0,1.4*36,1
1778781280481937386,$GPRMC,175652.000,A,1205.8339,S,07701.4456,W,10.50,24.44,140526,,,A*60,1
1778781281198352775,$GPGGA,175653.000,1205.8312,S,07701.4443,W,1,07,1.0,138.9,M,8.4,M,,0000*61,1
1778781281319807534,$GPGSA,M,3,20,19,05,17,24,11,14,,,,,,1.7,1.0,1.4*36,1
1778781281480227349,$GPGSV,3,1,12,20,69,164,44,19,42,085,43,05,42,322,42,17,27,115,35*74,1
1778781281640653997,$GPGSV,3,2,12,24,23,221,23,11,08,012,20,14,08,143,17,06,01,048,14*76,1
1778781281791882237,$GPGSV,3,3,12,30,06,105,06,44,42,284,39,13,61,127,,26,48,095,*7A,1
1778781281954572756,$GPRMC,175653.000,A,1205.8312,S,07701.4443,W,9.50,23.09,140526,,,A*5A,1
1778781282192057052,$GPGGA,175654.000,1205.8289,S,07701.4433,W,1,06,1.5,138.9,M,8.4,M,,0000*66,1
1778781282308933626,$GPGSA,M,3,20,19,05,17,11,14,,,,,,,2.2,1.5,1.6*31,1
1778781282471641570,$GPRMC,175654.000,A,1205.8289,S,07701.4433,W,8.30,22.19,140526,,,A*5E,1
1778781283198681959,$GPGGA,175655.000,1205.8269,S,07701.4424,W,1,06,1.5,138.8,M,8.4,M,,0000*6E,1
1778781283315607829,$GPGSA,M,3,20,19,05,17,11,14,,,,,,,2.2,1.5,1.6*31,1
1778781283478266847,$GPRMC,175655.000,A,1205.8269,S,07701.4424,W,6.97,22.30,140526,,,A*5F,1
1778781284208666514,$GPGGA,175656.000,1205.8251,S,07701.4417,W,1,08,0.9,138.8,M,8.4,M,,0000*65,1
1778781284335151328,$GPGSA,M,3,20,19,05,21,17,24,11,14,,,,,1.7,0.9,1.4*3D,1
1778781284497374476,$GPRMC,175656.000,A,1205.8251,S,07701.4417,W,6.05,23.62,140526,,,A*5A,1
1778781285203398031,$GPGGA,175657.000,1205.8238,S,07701.4410,W,1,08,0.9,139.0,M,8.4,M,,0000*65,1
1778781285329437365,$GPGSA,M,3,20,19,05,21,17,24,11,14,,,,,1.7,0.9,1.4*3D,1
1778781285492122531,$GPRMC,175657.000,A,1205.8238,S,07701.4410,W,3.69,25.93,140526,,,A*54,1
1778781286205836549,$GPGGA,175658.000,1205.8231,S,07701.4405,W,1,09,0.9,139.3,M,8.4,M,,0000*65,1
1778781286336479679,$GPGSA,M,3,20,19,05,21,17,24,11,14,30,,,,1.6,0.9,1.3*38,1
1778781286496861086,$GPGSV,3,1,12,20,69,164,44,19,42,085,37,05,42,322,42,21,30,357,31*74,1
1778781286657264068,$GPGSV,3,2,12,17,27,115,28,24,23,221,24,11,08,012,24,14,08,143,25*76,1
1778781286813129049,$GPGSV,3,3,12,30,06,105,08,06,01,048,17,44,42,284,41,13,61,127,*72,1
1778781286975795345,$GPRMC,175658.000,A,1205.8231,S,07701.4405,W,2.03,30.94,140526,,,A*58,1
1778781287202865475,$GPGGA,175659.000,1205.8225,S,07701.4399,W,1,08,1.4,139.4,M,8.4,M,,0000*69,1
1778781287328907623,$GPGSA,M,3,20,19,05,21,17,11,14,30,,,,,2.1,1.4,1.5*30,1
1778781287491616160,$GPRMC,175659.000,A,1205.8225,S,07701.4399,W,3.26,40.08,140526,,,A*5A,1
1778781288200751345,$GPGGA,175700.000,1205.8218,S,07701.4389,W,1,09,0.9,139.5,M,8.4,M,,0000*67,1
1778781288331371456,$GPGSA,M,3,20,19,05,21,17,24,11,14,30,,,,1.6,0.9,1.3*38,1
1778781288494083937,$GPRMC,175700.000,A,1205.8218,S,07701.4389,W,5.33,55.47,140526,,,A*55,1
1778781289206957974,$GPGGA,175701.000,1205.8212,S,07701.4370,W,1,09,0.9,139.6,M,8.4,M,,0000*69,1
1778781289337618362,$GPGSA,M,3,20,19,05,21,17,24,11,14,30,,,,1.6,0.9,1.3*38,1
1778781289500273566,$GPRMC,175701.000,A,1205.8212,S,07701.4370,W,8.25,73.86,140526,,,A*5B,1
1778781290205880806,$GPGGA,175702.000,1205.8209,S,07701.4343,W,1,09,0.9,139.8,M,8.4,M,,0000*6E,1
1778781290336517565,$GPGSA,M,3,20,19,05,21,17,24,11,14,30,,,,1.6,0.9,1.3*38,1
1778781290501486010,$GPRMC,175702.000,A,1205.8209,S,07701.4343,W,10.41,83.73,140526,,,A*6C,1
1778781291205832287,$GPGGA,175703.000,1205.8206,S,07701.4311,W,1,09,0.9,140.0,M,8.4,M,,0000*61,1
1778781291336474694,$GPGSA,M,3,20,19,05,21,17,24,11,14,30,,,,1.6,0.9,1.3*38,1
1778781291496849472,$GPGSV,3,1,12,20,69,164,37,19,42,085,41,05,42,322,21,21,30,357,28*7C,1
1778781291657261324,$GPGSV,3,2,12,17,27,115,19,24,23,221,30,11,08,012,22,14,08,143,20*72,1
1778781291808512991,$GPGSV,3,3,12,30,06,105,13,44,42,284,42,13,61,127,,26,48,095,*72,1
1778781291973498916,$GPRMC,175703.000,A,1205.8206,S,07701.4311,W,11.12,86.18,140526,,,A*6A,1
1778781292205350416,$GPGGA,175704.000,1205.8208,S,07701.4277,W,1,09,0.9,140.2,M,8.4,M,,0000*6B,1
1778781292336024620,$GPGSA,M,3,20,19,05,21,17,24,11,14,30,,,,1.6,0.9,1.3*38,1
1778781292500994064,$GPRMC,175704.000,A,1205.8208,S,07701.4277,W,12.55,92.43,140526,,,A*69,1
1778781293205313008,$GPGGA,175705.000,1205.8213,S,07701.4236,W,1,09,0.9,140.7,M,8.4,M,,0000*60,1
1778781293335972619,$GPGSA,M,3,20,19,05,21,17,24,11,14,30,,,,1.6,0.9,1.3*38,1
1778781293500926360,$GPRMC,175705.000,A,1205.8213,S,07701.4236,W,14.76,97.64,140526,,,A*60,1
1778781294204859767,$GPGGA,175706.000,1205.8222,S,07701.4190,W,1,09,0.9,141.5,M,8.4,M,,0000*6D,1
1778781294335514248,$GPGSA,M,3,20,19,05,21,17,24,11,14,30,,,,1.6,0.9,1.3*38,1
1778781294500474304,$GPRMC,175706.000,A,1205.8222,S,07701.4190,W,15.83,97.76,140526,,,A*66,1
1778781295206905396,$GPGGA,175707.000,1205.8231,S,07701.4142,W,1,09,0.9,142.1,M,8.4,M,,0000*66,1
1778781295337549914,$GPGSA,M,3,20,19,05,21,17,24,11,14,30,,,,1.6,0.9,1.3*38,1
1778781295502504136,$GPRMC,175707.000,A,1205.8231,S,07701.4142,W,16.28,97.27,140526,,,A*6C,1
1778781296200385988,$GPGGA,175708.000,1205.8242,S,07701.4092,W,1,09,0.9,142.8,M,8.4,M,,0000*68,1
1778781296330998543,$GPGSA,M,3,20,19,05,21,17,24,11,14,30,,,,1.6,0.9,1.3*38,1
1778781296491428562,$GPGSV,3,1,12,20,69,164,40,19,42,085,39,05,42,322,38,21,30,357,37*75,1
1778781296651829210,$GPGSV,3,2,12,17,27,115,18,24,23,221,24,11,08,012,18,14,08,143,18*74,1
1778781296803056210,$GPGSV,3,3,12,30,06,105,12,44,42,284,43,13,61,127,,26,48,095,*72,1
1778781296968063617,$GPRMC,175708.000,A,1205.8242,S,07701.4092,W,16.80,96.94,140526,,,A*60,1
1778781297203247598,$GPGGA,175709.000,1205.8247,S,07701.4041,W,1,08,1.0,143.2,M,8.4,M,,0000*60,1
1778781297329295580,$GPGSA,M,3,20,19,05,21,17,24,14,30,,,,,1.8,1.0,1.5*38,1
1778781297494296543,$GPRMC,175709.000,A,1205.8247,S,07701.4041,W,17.23,95.75,140526,,,A*6E,1
1778781298205504635,$GPGGA,175710.000,1205.8252,S,07701.3991,W,1,09,0.9,143.4,M,8.4,M,,0000*60,1
1778781298336183579,$GPGSA,M,3,20,19,05,21,17,24,11,14,30,,,,1.6,0.9,1.3*38,1
1778781298501137301,$GPRMC,175710.000,A,1205.8252,S,07701.3991,W,17.65,94.79,140526,,,A*6E,1
1778781299204848579,$GPGGA,175711.000,1205.8258,S,07701.3940,W,1,09,0.9,143.9,M,8.4,M,,0000*6A,1
1778781299335496838,$GPGSA,M,3,20,19,05,21,17,24,11,14,30,,,,1.6,0.9,1.3*38,1
1778781299500447245,$GPRMC,175711.000,A,1205.8258,S,07701.3940,W,17.36,94.85,140526,,,A*6C,1
1778781300199385615,$GPGGA,175712.000,1205.8261,S,07701.3889,W,1,07,1.1,144.5,M,8.4,M,,0000*6B,1
1778781300320832485,$GPGSA,M,3,19,05,21,17,24,14,30,,,,,,2.7,1.1,2.4*35,1
1778781300485834096,$GPRMC,175712.000,A,1205.8261,S,07701.3889,W,16.87,95.73,140526,,,A*62,1
1778781301204330374,$GPGGA,175713.000,1205.8268,S,07701.3841,W,1,08,1.0,144.7,M,8.4,M,,0000*6B,1
1778781301330371466,$GPGSA,M,3,20,19,05,21,17,24,14,30,,,,,1.8,1.0,1.5*38,1
1778781301490782874,$GPGSV,3,1,12,20,69,164,23,19,42,085,41,05,42,322,39,21,30,357,35*7C,1
1778781301651197022,$GPGSV,3,2,12,17,27,115,19,24,23,221,25,14,08,143,15,30,06,105,11*7A,1
1778781301807019096,$GPGSV,3,3,12,06,01,048,18,11,08,012,10,44,42,284,43,13,61,127,*7C,1
1778781301972004484,$GPRMC,175713.000,A,1205.8268,S,07701.3841,W,16.37,97.62,140526,,,A*67,1
1778781302204490095,$GPGGA,175714.000,1205.8276,S,07701.3794,W,1,09,0.9,145.1,M,8.4,M,,0000*6A,1
1778781302335157206,$GPGSA,M,3,20,19,05,21,17,24,11,14,30,,,,1.6,0.9,1.3*38,1
1778781302500111521,$GPRMC,175714.000,A,1205.8276,S,07701.3794,W,16.38,98.82,140526,,,A*66,1
1778781303204038113,$GPGGA,175715.000,1205.8284,S,07701.3747,W,1,09,0.9,145.5,M,8.4,M,,0000*6C,1
1778781303335141132,$GPGSA,M,3,20,19,05,21,17,24,11,14,30,,,,1.6,0.9,1.3*38,1
1778781303501936484,$GPRMC,175715.000,A,1205.8284,S,07701.3747,W,16.28,101.09,140526,,,A*57,1
1778781304208572150,$GPGGA,175716.000,1205.8296,S,07701.3702,W,1,08,0.9,145.7,M,8.4,M,,0000*6E,1
1778781304334663483,$GPGSA,M,3,20,19,05,21,24,11,14,30,,,,,1.6,0.9,1.3*3E,1
1778781304501892668,$GPRMC,175716.000,A,1205.8296,S,07701.3702,W,15.57,101.31,140526,,,A*56,1
1778781305205413205,$GPGGA,175717.000,1205.8296,S,07701.3655,W,1,09,0.9,146.8,M,8.4,M,,0000*61,1
1778781305336052482,$GPGSA,M,3,20,19,05,21,17,24,11,14,30,,,,1.6,0.9,1.3*38,1
1778781305501019779,$GPRMC,175717.000,A,1205.8296,S,07701.3655,W,14.91,98.30,140526,,,A*6F,1
1778781306197857500,$GPGGA,175718.000,1205.8302,S,07701.3615,W,1,08,1.4,147.1,M,8.4,M,,0000*63,1
1778781306323886445,$GPGSA,M,3,20,19,05,21,17,11,14,30,,,,,2.1,1.4,1.5*30,1
1778781306484312630,$GPGSV,3,1,12,20,69,164,44,19,42,085,43,05,42,322,40,21,30,357,29*7C,1
1778781306644708426,$GPGSV,3,2,12,17,27,115,32,11,08,012,17,14,08,143,24,30,06,105,09*74,1
1778781306800536204,$GPGSV,3,3,12,06,01,048,04,24,23,221,18,44,42,284,45,13,61,127,*72,1
1778781306965542111,$GPRMC,175718.000,A,1205.8302,S,07701.3615,W,13.19,98.58,140526,,,A*61,1
1778781307211974778,$GPGGA,175719.000,1205.8304,S,07701.3579,W,1,09,0.9,148.1,M,8.4,M,,0000*6F,1
1778781307342616000,$GPGSA,M,3,20,19,05,21,17,24,11,14,30,,,,1.6,0.9,1.3*38,1
1778781307509883222,$GPRMC,175719.000,A,1205.8304,S,07701.3579,W,12.18,100.65,140526,,,A*51,1
1778781308204656833,$GPGGA,175720.000,1205.8311,S,07701.3546,W,1,09,0.9,148.4,M,8.4,M,,0000*68,1
1778781308335300647,$GPGSA,M,3,20,19,05,21,17,24,11,14,30,,,,1.6,0.9,1.3*38,1
1778781308502547925,$GPRMC,175720.000,A,1205.8311,S,07701.3546,W,11.39,105.34,140526,,,A*52,1
1778781309204394017,$GPGGA,175721.000,1205.8321,S,07701.3518,W,1,09,0.9,148.5,M,8.4,M,,0000*60,1
1778781309335113962,$GPGSA,M,3,20,19,05,21,17,24,11,14,30,,,,1.6,0.9,1.3*38,1
1778781309500009924,$GPRMC,175721.000,A,1205.8321,S,07701.3518,W,8.93,106.70,140526,,,A*60,1
1778781310206009202,$GPGGA,175722.000,1205.8327,S,07701.3499,W,1,09,0.9,149.0,M,8.4,M,,0000*69,1
1778781310336711739,$GPGSA,M,3,20,19,05,21,17,24,11,14,30,,,,1.6,0.9,1.3*38,1
1778781310501712924,$GPRMC,175722.000,A,1205.8327,S,07701.3499,W,6.02,104.54,140526,,,A*6F,1
1778781311205134794,$GPGGA,175723.000,1205.8333,S,07701.3487,W,1,09,0.9,149.1,M,8.4,M,,0000*63,1
1778781311335794831,$GPGSA,M,3,20,19,05,21,17,24,11,14,30,,,,1.6,0.9,1.3*38,1
1778781311496177997,$GPGSV,3,1,12,20,69,164,45,19,42,085,43,05,42,322,40,21,30,357,36*73,1
1778781311656567368,$GPGSV,3,2,12,17,27,115,42,24,23,221,24,11,08,012,21,14,08,143,24*7E,1
1778781311807805534,$GPGSV,3,3,12,30,06,105,09,44,42,284,47,13,61,127,,26,48,095,*7C,1
1778781311972819756,$GPRMC,175723.000,A,1205.8333,S,07701.3487,W,3.02,104.31,140526,,,A*62,1
1778781312201967367,$GPGGA,175724.000,1205.8338,S,07701.3482,W,1,09,0.9,149.5,M,8.4,M,,0000*6E,1
1778781312332575200,$GPGSA,M,3,20,19,05,21,17,24,11,14,30,,,,1.6,0.9,1.3*38,1
1778781312497586571,$GPRMC,175724.000,A,1205.8338,S,07701.3482,W,0.99,104.31,140526,,,A*6A,1
1778781313204419533,$GPGGA,175725.000,1205.8337,S,07701.3483,W,1,08,0.9,149.4,M,8.4,M,,0000*61,1
1778781313330458811,$GPGSA,M,3,20,19,05,21,17,24,11,14,,,,,1.7,0.9,1.4*3D,1
1778781313495452941,$GPRMC,175725.000,A,1205.8337,S,07701.3483,W,0.02,104.31,140526,,,A*67,1
1778781314205276051,$GPGGA,175726.000,1205.8337,S,07701.3483,W,1,08,0.9,149.4,M,8.4,M,,0000*62,1
1778781314331278792,$GPGSA,M,3,20,19,05,21,17,24,11,14,,,,,1.7,0.9,1.4*3D,1
1778781314496316125,$GPRMC,175726.000,A,1205.8337,S,07701.3483,W,0.00,104.31,140526,,,A*66,1
1778781315207074273,$GPGGA,175727.000,1205.8337,S,07701.3483,W,1,08,0.9,149.4,M,8.4,M,,0000*63,1
1778781315333068902,$GPGSA,M,3,20,19,05,21,17,24,11,14,,,,,1.7,0.9,1.4*3D,1
1778781315498078995,$GPRMC,175727.000,A,1205.8337,S,07701.3483,W,0.00,104.31,140526,,,A*67,1
1778781316203658569,$GPGGA,175728.000,1205.8337,S,07701.3483,W,1,08,0.9,149.5,M,8.4,M,,0000*6D,1
1778781316329694531,$GPGSA,M,3,20,19,05,21,17,24,11,14,,,,,1.7,0.9,1.4*3D,1
1778781316490120680,$GPGSV,3,1,12,20,70,161,45,19,42,088,45,05,41,323,38,21,29,358,30*79,1
1778781316650515291,$GPGSV,3,2,12,17,26,117,40,24,23,220,25,11,08,013,19,14,07,142,15*79,1
1778781316801761420,$GPGSV,3,3,12,13,61,124,44,44,42,284,47,26,48,092,,28,31,154,*78,1
1778781316966748735,$GPRMC,175728.000,A,1205.8337,S,07701.3483,W,0.00,104.31,140526,,,A*68,1
1778781317202984049,$GPGGA,175729.000,1205.8337,S,07701.3483,W,1,08,0.9,149.5,M,8.4,M,,0000*6C,1
1778781317329025494,$GPGSA,M,3,20,19,05,21,17,24,11,14,,,,,1.7,0.9,1.4*3D,1
1778781317494026827,$GPRMC,175729.000,A,1205.8337,S,07701.3483,W,0.00,104.31,140526,,,A*69,1
1778781318203574753,$GPGGA,175730.000,1205.8337,S,07701.3483,W,1,08,0.9,149.5,M,8.4,M,,0000*64,1
1778781318329615419,$GPGSA,M,3,20,19,05,21,17,24,11,14,,,,,1.7,0.9,1.4*3D,1
1778781318494604123,$GPRMC,175730.000,A,1205.8337,S,07701.3483,W,0.00,104.31,140526,,,A*61,1
1778781319202063196,$GPGGA,175731.000,1205.8337,S,07701.3483,W,1,07,1.0,149.5,M,8.4,M,,0000*62,1
1778781319323517993,$GPGSA,M,3,20,19,05,21,17,24,14,,,,,,2.0,1.0,1.7*32,1
1778781319488523067,$GPRMC,175731.000,A,1205.8337,S,07701.3483,W,0.00,104.31,140526,,,A*60,1
1778781320197234714,$GPGGA,175732.000,1205.8337,S,07701.3482,W,1,07,1.0,149.5,M,8.4,M,,0000*60,1
1778781320318680603,$GPGSA,M,3,20,19,05,21,17,24,14,,,,,,2.0,1.0,1.7*32,1
1778781320483689825,$GPRMC,175732.000,A,1205.8337,S,07701.3482,W,0.00,104.31,140526,,,A*62,1
1778781321198319066,$GPGGA,175733.000,1205.8337,S,07701.3482,W,1,06,1.6,149.5,M,8.4,M,,0000*66,1
1778781321315089491,$GPGSA,M,3,20,19,05,21,17,14,,,,,,,2.4,1.6,1.8*39,1
1778781321475524658,$GPGSV,3,1,12,20,70,161,45,19,42,088,46,05,41,323,39,21,29,358,31*7A,1
1778781321635921047,$GPGSV,3,2,12,17,26,117,40,14,07,142,15,11,08,013,05,13,61,124,44*76,1
1778781321782577380,$GPGSV,3,3,12,44,42,284,47,26,48,092,,28,31,154,,24,23,220,*7D,1
1778781321947570213,$GPRMC,175733.000,A,1205.8337,S,07701.3482,W,0.00,104.31,140526,,,A*63,1
1778781322204651213,$GPGGA,175734.000,1205.8337,S,07701.3482,W,1,07,1.0,149.5,M,8.4,M,,0000*66,1
1778781322326091417,$GPGSA,M,3,20,19,05,21,17,24,14,,,,,,2.0,1.0,1.7*32,1
1778781322491096343,$GPRMC,175734.000,A,1205.8337,S,07701.3482,W,0.00,104.31,140526,,,A*64,1
1778781323200235453,$GPGGA,175735.000,1205.8337,S,07701.3482,W,1,07,1.0,149.5,M,8.4,M,,0000*67,1
1778781323321666879,$GPGSA,M,3,20,19,05,21,17,24,14,,,,,,2.0,1.0,1.7*32,1
1778781323486681879,$GPRMC,175735.000,A,1205.8337,S,07701.3482,W,0.00,104.31,140526,,,A*65,1
1778781324206215397,$GPGGA,175736.000,1205.8337,S,07701.3482,W,1,07,1.0,149.5,M,8.4,M,,0000*64,1
1778781324327665971,$GPGSA,M,3,20,19,05,21,17,24,14,,,,,,2.0,1.0,1.7*32,1
1778781324492692508,$GPRMC,175736.000,A,1205.8337,S,07701.3482,W,0.00,104.31,140526,,,A*66,1
1778781325208468804,$GPGGA,175737.000,1205.8337,S,07701.3482,W,1,07,1.0,149.6,M,8.4,M,,0000*66,1
1778781325329947341,$GPGSA,M,3,20,19,05,21,17,24,14,,,,,,2.0,1.0,1.7*32,1
1778781325494983341,$GPRMC,175737.000,A,1205.8337,S,07701.3482,W,0.00,104.31,140526,,,A*67,1
1778781326201139340,$GPGGA,175738.000,1205.8337,S,07701.3482,W,1,07,1.0,149.6,M,8.4,M,,0000*69,1
1778781326322583396,$GPGSA,M,3,20,19,05,21,17,24,14,,,,,,2.0,1.0,1.7*32,1
1778781326483010451,$GPGSV,3,1,12,20,70,161,44,19,42,088,46,05,41,323,40,21,29,358,31*75,1
1778781326643394099,$GPGSV,3,2,12,17,26,117,40,24,23,220,27,14,07,142,17,11,08,013,14*74,1
1778781326794644692,$GPGSV,3,3,12,13,61,124,44,44,42,284,47,26,48,092,,28,31,154,*78,1
1778781326959634247,$GPRMC,175738.000,A,1205.8337,S,07701.3482,W,0.00,104.31,140526,,,A*68,1
1778781327201500229,$GPGGA,175739.000,1205.8337,S,07701.3482,W,1,07,1.0,149.6,M,8.4,M,,0000*68,1
1778781327322944784,$GPGSA,M,3,20,19,05,21,17,24,14,,,,,,2.0,1.0,1.7*32,1
1778781327487957284,$GPRMC,175739.000,A,1205.8337,S,07701.3482,W,0.00,104.31,140526,,,A*69,1
1778781328201453987,$GPGGA,175740.000,1205.8337,S,07701.3482,W,1,07,1.0,149.6,M,8.4,M,,0000*66,1
1778781328322908117,$GPGSA,M,3,20,19,05,21,17,24,14,,,,,,2.0,1.0,1.7*32,1
1778781328487912469,$GPRMC,175740.000,A,1205.8337,S,07701.3482,W,0.00,104.31,140526,,,A*67,1
1778781329203910320,$GPGGA,175741.000,1205.8337,S,07701.3482,W,1,08,0.9,149.6,M,8.4,M,,0000*60,1
1778781329329945209,$GPGSA,M,3,20,19,05,21,17,24,11,14,,,,,1.7,0.9,1.4*3D,1
1778781329494960283,$GPRMC,175741.000,A,1205.8337,S,07701.3482,W,0.00,104.31,140526,,,A*66,1
1778781330203239838,$GPGGA,175742.000,1205.8336,S,07701.3482,W,1,08,0.9,149.6,M,8.4,M,,0000*62,1
1778781330329279671,$GPGSA,M,3,20,19,05,21,17,24,11,14,,,,,1.7,0.9,1.4*3D,1
1778781330494282079,$GPRMC,175742.000,A,1205.8336,S,07701.3482,W,0.00,104.31,140526,,,A*64,1
1778781331207582115,$GPGGA,175743.000,1205.8336,S,07701.3482,W,1,07,1.0,149.6,M,8.4,M,,0000*64,1
