Unix_time,GPS_data,flagStop
1778781431484335370,$GPGSV,3,1,12,20,70,161,45,19,42,088,35,05,41,323,37,21,29,358,26*76,0
1778781452483247339,$GPGSV,3,2,12,17,26,117,45,24,23,220,16,14,07,142,16,11,08,013,04*73,0
1778781452483378728,$GPGSV,3,3,12,13,61,124,45,30,06,104,17,44,42,284,47,26,48,092,*77,0
1778781452483506265,$GPRMC,175923.000,A,1205.8841,S,07701.2874,W,0.00,276.52,140526,,,A*61,0
1778781452483641191,$GPGGA,175924.000,1205.8841,S,07701.2874,W,1,07,1.0,156.3,M,8.4,M,,0000*6F,0
1778781452483783784,$GPGSA,M,3,20,19,05,21,17,24,14,,,,,,2.0,1.0,1.7*32,0
1778781452483883321,$GPRMC,175924.000,A,1205.8841,S,07701.2874,W,0.00,276.52,140526,,,A*66,0
1778781452484018080,$GPGGA,175925.000,1205.8841,S,07701.2874,W,1,07,1.0,156.3,M,8.4,M,,0000*6E,0
1778781452484160376,$GPGSA,M,3,20,19,05,21,17,24,14,,,,,,2.0,1.0,1.7*32,0
1778781452484259932,$GPRMC,175925.000,A,1205.8841,S,07701.2874,W,0.00,276.52,140526,,,A*67,0
1778781452484394821,$GPGGA,175926.000,1205.8841,S,07701.2874,W,1,07,1.0,156.3,M,8.4,M,,0000*6D,0
1778781452484537080,$GPGSA,M,3,20,19,05,21,17,24,14,,,,,,2.0,1.0,1.7*32,0
1778781452484648506,$GPRMC,175926.000,A,1205.8841,S,07701.2874,W,0.00,276.52,140526,,,A*64,0
1778781452484795858,$GPGGA,175927.000,1205.8841,S,07701.2874,W,1,07,1.0,156.3,M,8.4,M,,0000*6C,0
1778781452484960098,$GPGSA,M,3,20,19,05,21,17,24,14,,,,,,2.0,1.0,1.7*32,0
1778781452485067969,$GPRMC,175927.000,A,1205.8841,S,07701.2874,W,0.00,276.52,140526,,,A*65,0
1778781452485658895,$GPGGA,175928.000,1205.8841,S,07701.2874,W,1,07,1.0,156.3,M,8.4,M,,0000*63,0
1778781452486386617,$GPGSA,M,3,20,19,05,21,17,24,14,,,,,,2.0,1.0,1.7*32,0
1778781452486890543,$GPGSV,3,1,12,20,70,161,45,19,42,088,35,05,41,323,37,21,29,358,26*76,0
1778781452487091358,$GPGSV,3,2,12,17,26,117,45,24,23,220,20,14,07,142,14,06,01,050,18*71,0
1778781452487223710,$GPGSV,3,3,12,11,08,013,04,13,61,124,46,44,42,284,47,26,48,092,*7C,0
1778781452487351895,$GPRMC,175928.000,A,1205.8841,S,07701.2874,W,0.00,276.52,140526,,,A*6A,0
1778781452487486839,$GPGGA,175929.000,1205.8841,S,07701.2874,W,1,07,1.0,156.3,M,8.4,M,,0000*62,0
1778781452487628765,$GPGSA,M,3,20,19,05,21,17,24,14,,,,,,2.0,1.0,1.7*32,0
1778781452487727932,$GPRMC,175929.000,A,1205.8841,S,07701.2874,W,0.00,276.52,140526,,,A*6B,0
1778781452487862747,$GPGGA,175930.000,1205.8841,S,07701.2874,W,1,07,1.0,156.3,M,8.4,M,,0000*6A,0
1778781452488004561,$GPGSA,M,3,20,19,05,21,17,24,14,,,,,,2.0,1.0,1.7*32,0
1778781452488103765,$GPRMC,175930.000,A,1205.8841,S,07701.2874,W,0.00,276.52,140526,,,A*63,0
1778781452488238284,$GPGGA,175931.000,1205.8841,S,07701.2874,W,1,07,1.0,156.3,M,8.4,M,,0000*6B,0
1778781452488380487,$GPGSA,M,3,20,19,05,21,17,24,14,,,,,,2.0,1.0,1.7*32,0
1778781452488480487,$GPRMC,175931.000,A,1205.8841,S,07701.2874,W,0.00,276.52,140526,,,A*62,0
1778781452488615950,$GPGGA,175932.000,1205.8841,S,07701.2874,W,1,07,1.0,156.3,M,8.4,M,,0000*68,0
1778781452488766228,$GPGSA,M,3,20,19,05,21,17,24,14,,,,,,2.0,1.0,1.7*32,0
1778781452488866561,$GPRMC,175932.000,A,1205.8841,S,07701.2874,W,0.00,276.52,140526,,,A*61,0
1778781452489002469,$GPGGA,175933.000,1205.8841,S,07701.2874,W,1,07,1.0,156.4,M,8.4,M,,0000*6E,0
1778781452489146173,$GPGSA,M,3,20,19,05,21,17,24,14,,,,,,2.0,1.0,1.7*32,0
1778781452489246469,$GPGSV,3,1,12,20,70,161,45,19,42,088,36,05,41,323,37,21,29,358,25*76,0
1778781452489378543,$GPGSV,3,2,12,17,26,117,45,24,23,220,25,14,07,142,15,11,08,013,04*70,0
1778781452489510673,$GPGSV,3,3,12,13,61,124,46,44,42,284,47,26,48,092,,28,31,154,*7A,0
1778781452489635024,$GPRMC,175933.000,A,1205.8841,S,07701.2874,W,0.00,276.52,140526,,,A*60,0
1778781452489770191,$GPGGA,175934.000,1205.8840,S,07701.2874,W,1,07,1.0,156.4,M,8.4,M,,0000*68,0
1778781452489912839,$GPGSA,M,3,20,19,05,21,17,24,14,,,,,,2.0,1.0,1.7*32,0
1778781452490012969,$GPRMC,175934.000,A,1205.8840,S,07701.2874,W,0.00,276.52,140526,,,A*66,0
1778781452490148580,$GPGGA,175935.000,1205.8840,S,07701.2874,W,1,07,1.0,156.4,M,8.4,M,,0000*69,0
1778781452490291061,$GPGSA,M,3,20,19,05,21,17,24,14,,,,,,2.0,1.0,1.7*32,0
1778781452490391154,$GPRMC,175935.000,A,1205.8840,S,07701.2874,W,0.00,276.52,140526,,,A*67,0
1778781452490611339,$GPGGA,175936.000,1205.8840,S,07701.2874,W,1,06,1.7,156.4,M,8.4,M,,0000*6C,0
1778781452490756302,$GPGSA,M,3,20,19,05,21,17,14,,,,,,,2.4,1.7,1.7*37,0
1778781452490852969,$GPRMC,175936.000,A,1205.8840,S,07701.2874,W,0.00,276.52,140526,,,A*64,0
1778781452490989173,$GPGGA,175937.000,1205.8840,S,07701.2874,W,1,06,1.3,156.4,M,8.4,M,,0000*69,0
1778781452491132932,$GPGSA,M,3,20,19,05,17,24,14,,,,,,,2.3,1.3,1.9*3F,0
1778781452491229765,$GPRMC,175937.000,A,1205.8840,S,07701.2874,W,0.00,276.52,140526,,,A*65,0
1778781452491366080,$GPGGA,175938.000,1205.8840,S,07701.2873,W,1,06,1.3,156.5,M,8.4,M,,0000*60,0
1778781452491510043,$GPGSA,M,3,20,19,05,17,24,14,,,,,,,2.3,1.3,1.9*3F,0
1778781452491606895,$GPGSV,3,1,12,20,70,161,45,19,42,088,36,05,41,323,37,17,26,117,45*73,0
1778781452491739543,$GPGSV,3,2,12,24,23,220,26,14,07,142,16,06,01,050,13,11,08,013,04*74,0
1778781452491872876,$GPGSV,3,3,12,13,61,124,46,21,29,358,21,44,42,284,47,26,48,092,*77,0
1778781452492001784,$GPRMC,175938.000,A,1205.8840,S,07701.2873,W,0.00,276.52,140526,,,A*6D,0
1778781452492137969,$GPGGA,175939.000,1205.8840,S,07701.2873,W,1,06,1.3,156.5,M,8.4,M,,0000*61,0
1778781452492281969,$GPGSA,M,3,20,19,05,17,24,14,,,,,,,2.3,1.3,1.9*3F,0
1778781452492378728,$GPRMC,175939.000,A,1205.8840,S,07701.2873,W,0.00,276.52,140526,,,A*6C,0
1778781452492515154,$GPGGA,175940.000,1205.8840,S,07701.2873,W,1,06,1.3,156.6,M,8.4,M,,0000*6C,0
1778781452492665710,$GPGSA,M,3,20,19,05,17,24,14,,,,,,,2.3,1.3,1.9*3F,0
1778781452492761895,$GPRMC,175940.000,A,1205.8840,S,07701.2873,W,0.00,276.52,140526,,,A*62,0
1778781452492896691,$GPGGA,175941.000,1205.8840,S,07701.2873,W,1,07,1.0,156.6,M,8.4,M,,0000*6F,0
1778781452493041117,$GPGSA,M,3,20,19,05,21,17,24,14,,,,,,2.0,1.0,1.7*32,0
1778781452493141228,$GPRMC,175941.000,A,1205.8840,S,07701.2873,W,0.00,276.52,140526,,,A*63,0
1778781452493276747,$GPGGA,175942.000,1205.8840,S,07701.2873,W,1,07,1.0,156.6,M,8.4,M,,0000*6C,0
1778781452493419654,$GPGSA,M,3,20,19,05,21,17,24,14,,,,,,2.0,1.0,1.7*32,0
1778781452493519895,$GPRMC,175942.000,A,1205.8840,S,07701.2873,W,0.00,276.52,140526,,,A*60,0
1778781452493655339,$GPGGA,175943.000,1205.8840,S,07701.2873,W,1,06,1.3,156.6,M,8.4,M,,0000*6F,0
1778781452493798506,$GPGSA,M,3,20,19,05,17,24,14,,,,,,,2.3,1.3,1.9*3F,0
1778781452493894635,$GPGSV,3,1,12,20,70,161,45,19,42,088,37,05,41,323,37,17,26,117,45*72,0
1778781452494026339,$GPGSV,3,2,12,24,23,220,25,14,07,142,17,06,01,050,18,11,08,013,05*7C,0
1778781452494158098,$GPGSV,3,3,12,13,61,124,46,21,29,358,18,44,42,284,47,26,48,092,*7D,0
1778781452494286228,$GPRMC,175943.000,A,1205.8840,S,07701.2873,W,0.00,276.52,140526,,,A*61,0
1778781452494421839,$GPGGA,175944.000,1205.8840,S,07701.2873,W,1,06,1.3,156.6,M,8.4,M,,0000*68,0
1778781452494566006,$GPGSA,M,3,20,19,05,17,24,14,,,,,,,2.3,1.3,1.9*3F,0
1778781452494665191,$GPRMC,175944.000,A,1205.8840,S,07701.2873,W,0.00,276.52,140526,,,A*66,0
1778781453199415561,$GPGGA,175945.000,1205.8840,S,07701.2873,W,1,06,1.3,156.6,M,8.4,M,,0000*69,0
1778781453316251857,$GPGSA,M,3,20,19,05,17,24,14,,,,,,,2.3,1.3,1.9*3F,0
1778781453481270709,$GPRMC,175945.000,A,1205.8840,S,07701.2873,W,0.00,276.52,140526,,,A*67,0
1778781454199795801,$GPGGA,175946.000,1205.8840,S,07701.2873,W,1,06,1.3,156.6,M,8.4,M,,0000*6A,0
1778781454316651727,$GPGSA,M,3,20,19,05,17,24,14,,,,,,,2.3,1.3,1.9*3F,0
1778781454481670634,$GPRMC,175946.000,A,1205.8840,S,07701.2873,W,0.00,276.52,140526,,,A*64,1
1778781455200595393,$GPGGA,175947.000,1205.8840,S,07701.2873,W,1,06,1.3,156.6,M,8.4,M,,0000*6B,1
1778781455317459430,$GPGSA,M,3,20,19,05,17,24,14,,,,,,,2.3,1.3,1.9*3F,1
1778781455482436967,$GPRMC,175947.000,A,1205.8840,S,07701.2873,W,0.00,276.52,140526,,,A*65,1
1778781456195710078,$GPGGA,175948.000,1205.8840,S,07701.2873,W,1,06,1.3,156.6,M,8.4,M,,0000*64,1
1778781456312579041,$GPGSA,M,3,20,19,05,17,24,14,,,,,,,2.3,1.3,1.9*3F,1
1778781456472991855,$GPGSV,3,1,12,20,71,159,45,19,42,089,37,05,40,324,37,17,26,118,46*73,1
1778781456633404726,$GPGSV,3,2,12,24,24,219,24,14,06,142,18,06,08,009,17,11,08,014,07*71,1
1778781456784641485,$GPGSV,3,3,12,13,62,121,46,44,42,284,47,26,48,091,,28,30,154,*7E,1
1778781456949653799,$GPRMC,175948.000,A,1205.8840,S,07701.2873,W,0.00,276.52,140526,,,A*6A,1
1778781457200246799,$GPGGA,175949.000,1205.8840,S,07701.2873,W,1,06,1.3,156.6,M,8.4,M,,0000*65,1
1778781457317114873,$GPGSA,M,3,20,19,05,17,24,14,,,,,,,2.3,1.3,1.9*3F,1
1778781457482129577,$GPRMC,175949.000,A,1205.8840,S,07701.2873,W,0.00,276.52,140526,,,A*6B,1
1778781458199799262,$GPGGA,175950.000,1205.8840,S,07701.2873,W,1,06,1.3,156.6,M,8.4,M,,0000*6D,1
1778781458316659225,$GPGSA,M,3,20,19,05,17,24,14,,,,,,,2.3,1.3,1.9*3F,1
1778781458481656521,$GPRMC,175950.000,A,1205.8840,S,07701.2873,W,0.00,276.52,140526,,,A*63,1
1778781459198703854,$GPGGA,175951.000,1205.8840,S,07701.2873,W,1,06,1.3,156.6,M,8.4,M,,0000*6C,1
1778781459315572891,$GPGSA,M,3,20,19,05,17,24,14,,,,,,,2.3,1.3,1.9*3F,1
1778781459480565891,$GPRMC,175951.000,A,1205.8840,S,07701.2873,W,0.00,276.52,140526,,,A*62,1
1778781460202281186,$GPGGA,175952.000,1205.8839,S,07701.2873,W,1,06,1.3,156.6,M,8.4,M,,0000*61,1
1778781460319076538,$GPGSA,M,3,20,19,05,17,24,14,,,,,,,2.3,1.3,1.9*3F,1
1778781460484059390,$GPRMC,175952.000,A,1205.8839,S,07701.2873,W,0.00,276.52,140526,,,A*6F,1
1778781461200063390,$GPGGA,175953.000,1205.8839,S,07701.2873,W,1,06,1.3,156.6,M,8.4,M,,0000*60,1
1778781461316955519,$GPGSA,M,3,20,19,05,17,24,14,,,,,,,2.3,1.3,1.9*3F,1
1778781461477353815,$GPGSV,3,1,12,20,71,159,45,19,42,089,37,05,40,324,37,17,26,118,46*73,1
1778781461637756500,$GPGSV,3,2,12,24,24,219,24,14,06,142,18,11,08,014,08,13,62,121,46*79,1
1778781461789009019,$GPGSV,3,3,12,21,28,358,18,44,42,284,47,26,48,091,,28,30,154,*76,0
1778781461953995241,$GPRMC,175953.000,A,1205.8839,S,07701.2873,W,0.00,276.52,140526,,,A*6E,0
1778781462199604148,$GPGGA,175954.000,1205.8839,S,07701.2873,W,1,06,1.6,156.6,M,8.4,M,,0000*62,0
1778781462316485944,$GPGSA,M,3,20,19,05,17,11,14,,,,,,,2.2,1.6,1.5*31,0
1778781462481473389,$GPRMC,175954.000,A,1205.8839,S,07701.2873,W,0.00,276.52,140526,,,A*69,0
1778781463202297499,$GPGGA,175955.000,1205.8839,S,07701.2875,W,1,07,1.0,155.9,M,8.4,M,,0000*6E,0
1778781463323764629,$GPGSA,M,3,20,19,05,17,24,11,14,,,,,,1.7,1.0,1.4*36,0
1778781463488781166,$GPRMC,175955.000,A,1205.8839,S,07701.2875,W,0.43,276.52,140526,,,A*69,0
1778781464201808314,$GPGGA,175956.000,1205.8836,S,07701.2884,W,1,07,1.0,155.0,M,8.4,M,,0000*65,0
1778781464323273851,$GPGSA,M,3,20,19,05,17,24,11,14,,,,,,1.7,1.0,1.4*36,0
1778781464488268425,$GPRMC,175956.000,A,1205.8836,S,07701.2884,W,1.83,281.30,140526,,,A*6A,0
1778781465203047276,$GPGGA,175957.000,1205.8836,S,07701.2900,W,1,07,1.0,153.4,M,8.4,M,,0000*6B,0
1778781465324469998,$GPGSA,M,3,20,19,05,17,24,11,14,,,,,,1.7,1.0,1.4*36,0
1778781465489465054,$GPRMC,175957.000,A,1205.8836,S,07701.2900,W,4.12,277.56,140526,,,A*62,0
1778781466202563850,$GPGGA,175958.000,1205.8836,S,07701.2922,W,1,07,1.0,152.1,M,8.4,M,,0000*60,0
1778781466324009442,$GPGSA,M,3,20,19,05,17,24,11,14,,,,,,1.7,1.0,1.4*36,0
1778781466484424609,$GPGSV,3,1,12,20,71,159,45,19,42,089,46,05,40,324,45,17,26,118,45*73,0
1778781466644821460,$GPGSV,3,2,12,24,24,219,35,11,08,014,17,14,06,142,17,13,62,121,47*79,0
1778781466791483405,$GPGSV,3,3,12,44,42,284,47,26,48,091,,28,30,154,,21,28,358,*7F,0
1778781466956475331,$GPRMC,175958.000,A,1205.8836,S,07701.2922,W,6.69,275.67,140526,,,A*63,0
1778781467203135886,$GPGGA,175959.000,1205.8835,S,07701.2947,W,1,07,1.0,151.0,M,8.4,M,,0000*63,0
1778781467324600775,$GPGSA,M,3,20,19,05,17,24,11,14,,,,,,1.7,1.0,1.4*36,0
1778781467489585404,$GPRMC,175959.000,A,1205.8835,S,07701.2947,W,7.90,275.34,140526,,,A*63,0
1778781468201226534,$GPGGA,180000.000,1205.8834,S,07701.2975,W,1,07,1.0,149.9,M,8.4,M,,0000*6C,0
1778781468322668033,$GPGSA,M,3,20,19,05,17,24,11,14,,,,,,1.7,1.0,1.4*36,0
1778781468487663015,$GPRMC,180000.000,A,1205.8834,S,07701.2975,W,8.36,275.97,140526,,,A*66,0
1778781469202215200,$GPGGA,180001.000,1205.8833,S,07701.2999,W,1,07,1.0,149.6,M,8.4,M,,0000*67,0
1778781469323656625,$GPGSA,M,3,20,19,05,17,24,11,14,,,,,,1.7,1.0,1.4*36,0
1778781469488686292,$GPRMC,180001.000,A,1205.8833,S,07701.2999,W,8.49,275.14,140526,,,A*61,0
1778781470196962032,$GPGGA,180002.000,1205.8833,S,07701.3022,W,1,07,1.5,149.8,M,8.4,M,,0000*67,0
1778781470318414792,$GPGSA,M,3,20,19,05,21,17,11,14,,,,,,2.2,1.5,1.5*31,0
1778781470483414088,$GPRMC,180002.000,A,1205.8833,S,07701.3022,W,8.19,272.61,140526,,,A*6A,0
1778781471200451384,$GPGGA,180003.000,1205.8832,S,07701.3045,W,1,07,1.0,149.7,M,8.4,M,,0000*6C,0
1778781471321958495,$GPGSA,M,3,20,19,21,17,24,11,14,,,,,,1.7,1.0,1.4*30,0
1778781471482324235,$GPGSV,3,1,12,20,71,159,38,19,42,089,48,21,28,358,35,17,26,118,36*77,0
1778781471642741069,$GPGSV,3,2,12,24,24,219,35,11,08,014,16,14,06,142,18,13,62,121,46*76,0
1778781471789387513,$GPGSV,3,3,12,44,42,284,46,26,48,091,,05,40,324,,28,30,154,*7D,0
1778781471954381994,$GPRMC,180003.000,A,1205.8832,S,07701.3045,W,7.70,274.36,140526,,,A*6F,0
1778781472199788809,$GPGGA,180004.000,1205.8825,S,07701.3062,W,1,07,1.0,150.4,M,8.4,M,,0000*63,0
1778781472321231605,$GPGSA,M,3,20,19,21,17,24,11,14,,,,,,1.7,1.0,1.4*30,0
1778781472486251068,$GPRMC,180004.000,A,1205.8825,S,07701.3062,W,7.00,280.21,140526,,,A*61,0
1778781473209330271,$GPGGA,180005.000,1205.8821,S,07701.3083,W,1,07,1.0,150.4,M,8.4,M,,0000*69,0
1778781473330774642,$GPGSA,M,3,20,19,21,17,24,11,14,,,,,,1.7,1.0,1.4*30,0
1778781473495776790,$GPRMC,180005.000,A,1205.8821,S,07701.3083,W,7.11,281.88,140526,,,A*69,0
1778781474199904308,$GPGGA,180006.000,1205.8812,S,07701.3109,W,1,07,1.0,149.7,M,8.4,M,,0000*62,0
1778781474321426178,$GPGSA,M,3,20,19,21,17,24,11,14,,,,,,1.7,1.0,1.4*30,0
1778781474486355733,$GPRMC,180006.000,A,1205.8812,S,07701.3109,W,7.43,279.22,140526,,,A*69,0
1778781475201550807,$GPGGA,180007.000,1205.8807,S,07701.3128,W,1,07,1.0,150.3,M,8.4,M,,0000*68,0
1778781475322969918,$GPGSA,M,3,20,19,21,17,24,11,14,,,,,,1.7,1.0,1.4*30,0
1778781475487972418,$GPRMC,180007.000,A,1205.8807,S,07701.3128,W,6.41,279.38,140526,,,A*67,0
1778781476200855510,$GPGGA,180008.000,1205.8803,S,07701.3143,W,1,07,1.0,151.4,M,8.4,M,,0000*68,0
1778781476322308325,$GPGSA,M,3,20,19,21,17,24,11,14,,,,,,1.7,1.0,1.4*30,0
1778781476482748955,$GPGSV,3,1,12,20,71,159,42,19,42,089,48,21,28,358,30,17,26,118,29*71,0
1778781476643144362,$GPGSV,3,2,12,24,24,219,37,11,08,014,26,14,06,142,19,13,62,121,47*77,0
1778781476794369843,$GPGSV,3,3,12,30,06,103,08,44,42,284,47,26,48,091,,05,40,324,*7A,0
1778781476959362399,$GPRMC,180008.000,A,1205.8803,S,07701.3143,W,5.32,277.68,140526,,,A*6D,0
1778781477200851139,$GPGGA,180009.000,1205.8799,S,07701.3160,W,1,07,1.0,152.0,M,8.4,M,,0000*63,0
1778781477322270343,$GPGSA,M,3,20,19,21,17,24,11,14,,,,,,1.7,1.0,1.4*30,0
1778781477487264509,$GPRMC,180009.000,A,1205.8799,S,07701.3160,W,6.17,277.58,140526,,,A*66,0
1778781478205149657,$GPGGA,180010.000,1205.8803,S,07701.3179,W,1,08,0.9,152.4,M,8.4,M,,0000*6C,0
1778781478331176065,$GPGSA,M,3,20,19,05,21,17,24,11,14,,,,,1.7,0.9,1.4*3D,0
1778781478496175805,$GPRMC,180010.000,A,1205.8803,S,07701.3179,W,6.68,269.00,140526,,,A*60,0
1778781479205929712,$GPGGA,180011.000,1205.8808,S,07701.3202,W,1,08,0.9,152.2,M,8.4,M,,0000*6F,0
1778781479331963453,$GPGSA,M,3,20,19,05,21,17,24,11,14,,,,,1.7,0.9,1.4*3D,0
1778781479496975082,$GPRMC,180011.000,A,1205.8808,S,07701.3202,W,8.39,267.15,140526,,,A*65,0
1778781480199014878,$GPGGA,180012.000,1205.8806,S,07701.3230,W,1,08,0.9,152.3,M,8.4,M,,0000*62,0
1778781480325050341,$GPGSA,M,3,20,19,05,21,17,24,11,14,,,,,1.7,0.9,1.4*3D,0
1778781480492354304,$GPRMC,180012.000,A,1205.8806,S,07701.3230,W,10.02,273.75,140526,,,A*5B,0
1778781481204450470,$GPGGA,180013.000,1205.8809,S,07701.3259,W,1,08,0.9,151.7,M,8.4,M,,0000*64,0
1778781481330469989,$GPGSA,M,3,20,19,05,21,17,24,11,14,,,,,1.7,0.9,1.4*3D,0
1778781481490824489,$GPGSV,3,1,12,20,71,159,44,19,42,089,47,05,40,324,39,21,28,358,21*77,0
1778781481651236174,$GPGSV,3,2,12,17,26,118,40,24,24,219,35,11,08,014,18,14,06,142,23*78,0
1778781481807070211,$GPGSV,3,3,12,13,62,121,39,30,06,103,24,44,42,284,43,26,48,091,*7A,0
1778781481974352507,$GPRMC,180013.000,A,1205.8809,S,07701.3259,W,10.16,272.00,140526,,,A*5C,0
1778781482202254377,$GPGGA,180014.000,1205.8807,S,07701.3292,W,1,09,0.9,151.1,M,8.4,M,,0000*6D,0
1778781482332880803,$GPGSA,M,3,20,19,05,21,17,24,11,30,14,,,,1.6,0.9,1.3*38,0
1778781482500166155,$GPRMC,180014.000,A,1205.8807,S,07701.3292,W,10.41,275.74,140526,,,A*54,0
1778781483206380599,$GPGGA,180015.000,1205.8802,S,07701.3324,W,1,09,0.9,150.4,M,8.4,M,,0000*61,0
1778781483336999987,$GPGSA,M,3,20,19,05,21,17,24,11,30,14,,,,1.6,0.9,1.3*38,0
1778781483504294061,$GPRMC,180015.000,A,1205.8802,S,07701.3324,W,10.15,278.67,140526,,,A*52,0
1778781484208415246,$GPGGA,180016.000,1205.8798,S,07701.3354,W,1,09,0.9,149.9,M,8.4,M,,0000*6C,0
1778781484339061450,$GPGSA,M,3,20,19,05,21,17,24,11,30,14,,,,1.6,0.9,1.3*38,0
1778781484506330950,$GPRMC,180016.000,A,1205.8798,S,07701.3354,W,10.05,278.56,140526,,,A*59,0
1778781485207755153,$GPGGA,180017.000,1205.8794,S,07701.3384,W,1,09,0.9,149.3,M,8.4,M,,0000*66,0
1778781485338391116,$GPGSA,M,3,20,19,05,21,17,24,11,30,14,,,,1.6,0.9,1.3*38,0
1778781485505661912,$GPRMC,180017.000,A,1205.8794,S,07701.3384,W,10.03,277.59,140526,,,A*5F,0
1778781486202087986,$GPGGA,180018.000,1205.8790,S,07701.3415,W,1,09,0.9,148.8,M,8.4,M,,0000*68,0
1778781486332708486,$GPGSA,M,3,20,19,05,21,17,24,11,30,14,,,,1.6,0.9,1.3*38,0
1778781486493122134,$GPGSV,3,1,12,20,71,159,44,19,42,089,47,05,40,324,39,21,28,358,37*70,0
1778781486653530763,$GPGSV,3,2,12,17,26,118,44,24,24,219,39,11,08,014,16,30,06,103,21*7F,0
1778781486809339134,$GPGSV,3,3,12,14,06,142,22,13,62,121,44,44,42,284,44,26,48,091,*72,0
1778781486976627208,$GPRMC,180018.000,A,1205.8790,S,07701.3415,W,10.26,276.72,140526,,,A*54,0
1778781487208490633,$GPGGA,180019.000,1205.8786,S,07701.3445,W,1,09,0.9,148.3,M,8.4,M,,0000*60,0
1778781487339136892,$GPGSA,M,3,20,19,05,21,17,24,11,30,14,,,,1.6,0.9,1.3*38,0
1778781487506411337,$GPRMC,180019.000,A,1205.8786,S,07701.3445,W,10.01,277.19,140526,,,A*5E,0
1778781488202621355,$GPGGA,180020.000,1205.8780,S,07701.3473,W,1,09,0.9,147.9,M,8.4,M,,0000*6C,0
1778781488333227003,$GPGSA,M,3,20,19,05,21,17,24,11,30,14,,,,1.6,0.9,1.3*38,0
1778781488498251207,$GPRMC,180020.000,A,1205.8780,S,07701.3473,W,9.55,277.46,140526,,,A*64,0
1778781489206951558,$GPGGA,180021.000,1205.8775,S,07701.3499,W,1,09,0.9,147.9,M,8.4,M,,0000*63,0
1778781489337584465,$GPGSA,M,3,20,19,05,21,17,24,11,30,14,,,,1.6,0.9,1.3*38,0
1778781489502567336,$GPRMC,180021.000,A,1205.8775,S,07701.3499,W,9.64,275.85,140526,,,A*64,0
1778781490207106206,$GPGGA,180022.000,1205.8773,S,07701.3526,W,1,09,0.9,148.0,M,8.4,M,,0000*65,0
1778781490337745631,$GPGSA,M,3,20,19,05,21,17,24,11,30,14,,,,1.6,0.9,1.3*38,0
1778781490502736817,$GPRMC,180022.000,A,1205.8773,S,07701.3526,W,9.88,276.15,140526,,,A*6C,0
1778781491199359316,$GPGGA,180023.000,1205.8770,S,07701.3554,W,1,06,2.8,147.9,M,8.4,M,,0000*68,0
1778781491316233890,$GPGSA,M,3,20,19,17,24,30,14,,,,,,,3.6,2.8,2.2*3D,0
1778781491476680353,$GPGSV,3,1,12,20,71,159,44,19,42,089,47,17,26,118,45,24,24,219,32*7D,0
1778781491637045594,$GPGSV,3,2,12,30,06,103,20,14,06,142,22,05,40,324,19,11,08,014,04*7F,0
1778781491792867612,$GPGSV,3,3,12,13,62,121,43,21,28,358,14,44,42,284,46,26,48,091,*71,0
1778781491960162834,$GPRMC,180023.000,A,1205.8770,S,07701.3554,W,10.24,276.50,140526,,,A*54,0
1778781492203114056,$GPGGA,180024.000,1205.8766,S,07701.3582,W,1,07,1.2,148.1,M,8.4,M,,0000*6C,0
1778781492324513556,$GPGSA,M,3,20,19,05,17,24,30,14,,,,,,2.0,1.2,1.6*31,0
1778781492491805538,$GPRMC,180024.000,A,1205.8766,S,07701.3582,W,10.45,277.86,140526,,,A*52,0
1778781493199883815,$GPGGA,180025.000,1205.8763,S,07701.3610,W,1,06,1.1,148.1,M,8.4,M,,0000*62,0
1778781493316751593,$GPGSA,M,3,20,19,21,17,24,30,,,,,,,2.0,1.1,1.6*31,0
1778781493484051259,$GPRMC,180025.000,A,1205.8763,S,07701.3610,W,10.05,277.71,140526,,,A*52,0
1778781494195466185,$GPGGA,180026.000,1205.8757,S,07701.3640,W,1,07,1.0,147.7,M,8.4,M,,0000*6A,0
1778781494316926999,$GPGSA,M,3,20,19,21,17,24,11,30,,,,,,1.8,1.0,1.5*38,0
1778781494484215370,$GPRMC,180026.000,A,1205.8757,S,07701.3640,W,10.57,278.47,140526,,,A*5E,0
1778781495204176795,$GPGGA,180027.000,1205.8754,S,07701.3669,W,1,08,0.9,147.7,M,8.4,M,,0000*64,0
1778781495330209962,$GPGSA,M,3,20,19,05,21,17,24,11,30,,,,,1.7,0.9,1.5*3A,0
1778781495497491777,$GPRMC,180027.000,A,1205.8754,S,07701.3669,W,10.62,276.67,140526,,,A*5D,0
1778781496206629776,$GPGGA,180028.000,1205.8752,S,07701.3699,W,1,08,0.9,147.7,M,8.4,M,,0000*62,0
1778781496332734887,$GPGSA,M,3,20,19,05,21,17,24,11,30,,,,,1.7,0.9,1.5*3A,0
1778781496493075628,$GPGSV,3,1,12,20,71,159,44,19,42,089,46,05,40,324,30,21,28,358,34*7B,0
1778781496653483313,$GPGSV,3,2,12,17,26,118,45,24,24,219,39,11,08,014,30,30,06,103,23*78,0
1778781496804728016,$GPGSV,3,3,12,13,62,121,45,44,42,284,46,26,48,091,,28,30,154,*7C,0
1778781496972002590,$GPRMC,180028.000,A,1205.8752,S,07701.3699,W,10.49,276.80,140526,,,A*5B,0
1778781497204706924,$GPGGA,180029.000,1205.8749,S,07701.3730,W,1,08,0.9,147.6,M,8.4,M,,0000*6A,0
1778781497330761072,$GPGSA,M,3,20,19,05,21,17,24,11,30,,,,,1.7,0.9,1.5*3A,0
1778781497498040127,$GPRMC,180029.000,A,1205.8749,S,07701.3730,W,10.32,277.99,140526,,,A*57,0
1778781498200076516,$GPGGA,180030.000,1205.8741,S,07701.3762,W,1,08,0.9,147.0,M,8.4,M,,0000*6B,0
1778781498326122367,$GPGSA,M,3,20,19,05,21,17,24,11,30,,,,,1.7,0.9,1.5*3A,0
1778781498493402367,$GPRMC,180030.000,A,1205.8741,S,07701.3762,W,10.31,280.46,140526,,,A*59,0
1778781499222551830,$GPGGA,180031.000,1205.8733,S,07701.3795,W,1,07,1.0,146.4,M,8.4,M,,0000*65,0
1778781499343986145,$GPGSA,M,3,20,19,05,17,24,11,30,,,,,,1.8,1.0,1.5*3E,0
1778781499511270163,$GPRMC,180031.000,A,1205.8733,S,07701.3795,W,10.79,280.81,140526,,,A*52,0
1778781500207704570,$GPGGA,180032.000,1205.8726,S,07701.3828,W,1,07,1.0,145.9,M,8.4,M,,0000*65,0
1778781500329154644,$GPGSA,M,3,20,19,05,17,24,11,30,,,,,,1.8,1.0,1.5*3E,0
1778781500496453885,$GPRMC,180032.000,A,1205.8726,S,07701.3828,W,11.25,279.28,140526,,,A*51,0
1778781501208079255,$GPGGA,180033.000,1205.8721,S,07701.3861,W,1,09,0.9,145.5,M,8.4,M,,0000*64,0
1778781501338695940,$GPGSA,M,3,20,19,05,21,17,24,11,30,14,,,,1.6,0.9,1.3*38,0
1778781501499113199,$GPGSV,3,1,12,20,72,159,44,19,42,090,47,05,40,325,42,21,28,358,17*74,0
1778781501659543940,$GPGSV,3,2,12,17,26,118,46,24,24,219,39,11,08,014,15,30,06,103,33*7D,0
1778781501815330532,$GPGSV,3,3,12,14,06,142,21,13,62,120,45,44,42,284,47,26,47,090,*7C,0
1778781501982629124,$GPRMC,180033.000,A,1205.8721,S,07701.3861,W,11.54,277.78,140526,,,A*57,0
1778781502207823921,$GPGGA,180034.000,1205.8718,S,07701.3893,W,1,09,0.9,145.4,M,8.4,M,,0000*65,0
1778781502338466161,$GPGSA,M,3,20,19,05,21,17,24,11,30,14,,,,1.6,0.9,1.3*38,0
1778781502505728402,$GPRMC,180034.000,A,1205.8718,S,07701.3893,W,11.11,277.40,140526,,,A*5D,0
1778781503205482402,$GPGGA,180035.000,1205.8714,S,07701.3924,W,1,08,1.0,145.2,M,8.4,M,,0000*6A,0
1778781503331524105,$GPGSA,M,3,20,19,05,21,17,24,30,14,,,,,1.8,1.0,1.5*38,0
1778781503498828605,$GPRMC,180035.000,A,1205.8714,S,07701.3924,W,10.34,276.25,140526,,,A*59,0
1778781504202946642,$GPGGA,180036.000,1205.8712,S,07701.3952,W,1,08,1.0,145.1,M,8.4,M,,0000*6D,0
1778781504328973845,$GPGSA,M,3,20,19,05,21,17,24,30,14,,,,,1.8,1.0,1.5*38,0
1778781504493975438,$GPRMC,180036.000,A,1205.8712,S,07701.3952,W,9.85,275.45,140526,,,A*6A,0
1778781505210202678,$GPGGA,180037.000,1205.8709,S,07701.3978,W,1,08,1.0,145.6,M,8.4,M,,0000*69,0
1778781505336254808,$GPGSA,M,3,20,19,05,21,17,24,30,14,,,,,1.8,1.0,1.5*38,0
1778781505501211122,$GPRMC,180037.000,A,1205.8709,S,07701.3978,W,9.21,276.40,140526,,,A*61,0
1778781506205142066,$GPGGA,180038.000,1205.8706,S,07701.4003,W,1,08,1.0,145.7,M,8.4,M,,0000*6A,0
1778781506331248733,$GPGSA,M,3,20,19,05,21,17,24,30,14,,,,,1.8,1.0,1.5*38,0
1778781506491595974,$GPGSV,3,1,12,20,72,159,44,19,42,090,47,05,40,325,40,21,28,358,21*73,0
1778781506651989788,$GPGSV,3,2,12,17,26,118,45,24,24,219,28,30,06,103,28,14,06,142,28*73,0
1778781506807821918,$GPGSV,3,3,12,11,08,014,04,13,62,120,46,44,42,284,46,26,47,090,*70,0
1778781506972826177,$GPRMC,180038.000,A,1205.8706,S,07701.4003,W,9.13,278.68,140526,,,A*66,0
1778781507205091936,$GPGGA,180039.000,1205.8700,S,07701.4030,W,1,08,1.0,145.4,M,8.4,M,,0000*6E,0
1778781507331143158,$GPGSA,M,3,20,19,05,21,17,24,30,14,,,,,1.8,1.0,1.5*38,0
1778781507496122380,$GPRMC,180039.000,A,1205.8700,S,07701.4030,W,9.35,277.44,140526,,,A*64,0
1778781508204015510,$GPGGA,180040.000,1205.8695,S,07701.4058,W,1,08,1.0,145.2,M,8.4,M,,0000*65,0
1778781508330042250,$GPGSA,M,3,20,19,05,21,17,24,30,14,,,,,1.8,1.0,1.5*38,0
1778781508497329732,$GPRMC,180040.000,A,1205.8695,S,07701.4058,W,10.10,278.45,140526,,,A*58,0
1778781509206051972,$GPGGA,180041.000,1205.8689,S,07701.4088,W,1,08,1.0,144.9,M,8.4,M,,0000*6E,0
1778781509332077824,$GPGSA,M,3,20,19,05,21,17,24,30,14,,,,,1.8,1.0,1.5*38,0
1778781509499378027,$GPRMC,180041.000,A,1205.8689,S,07701.4088,W,10.76,278.72,140526,,,A*5D,0
1778781510204546175,$GPGGA,180042.000,1205.8684,S,07701.4119,W,1,07,1.0,144.6,M,8.4,M,,0000*69,0
1778781510325998675,$GPGSA,M,3,20,19,05,21,17,24,30,,,,,,1.9,1.0,1.6*3F,0
1778781510493292656,$GPRMC,180042.000,A,1205.8684,S,07701.4119,W,10.40,279.04,140526,,,A*5F,0
1778781511201376804,$GPGGA,180043.000,1205.8678,S,07701.4149,W,1,08,0.9,144.3,M,8.4,M,,0000*6C,0
1778781511327410174,$GPGSA,M,3,20,19,05,21,17,24,11,30,,,,,1.7,0.9,1.5*3A,0
1778781511487819952,$GPGSV,3,1,12,20,72,159,44,19,42,090,47,05,40,325,43,21,28,358,37*77,0
1778781511648240434,$GPGSV,3,2,12,17,26,118,45,24,24,219,38,11,08,014,11,30,06,103,28*71,0
1778781511799485156,$GPGSV,3,3,12,13,62,120,46,44,42,284,46,26,47,090,,28,29,153,*7F,0
1778781511966757841,$GPRMC,180043.000,A,1205.8678,S,07701.4149,W,10.10,279.27,140526,,,A*5C,0
1778781512200131433,$GPGGA,180044.000,1205.8673,S,07701.4177,W,1,08,0.9,143.9,M,8.4,M,,0000*60,0
1778781512326150026,$GPGSA,M,3,20,19,05,21,17,24,11,30,,,,,1.7,0.9,1.5*3A,0
1778781512491175896,$GPRMC,180044.000,A,1205.8673,S,07701.4177,W,9.84,279.00,140526,,,A*6D,0
1778781513211289581,$GPGGA,180045.000,1205.8668,S,07701.4205,W,1,08,0.9,143.6,M,8.4,M,,0000*62,0
1778781513337345840,$GPGSA,M,3,20,19,05,21,17,24,11,30,,,,,1.7,0.9,1.5*3A,0
1778781513502336451,$GPRMC,180045.000,A,1205.8668,S,07701.4205,W,9.46,279.09,140526,,,A*67,0
1778781514210202339,$GPGGA,180046.000,1205.8664,S,07701.4232,W,1,09,0.9,143.4,M,8.4,M,,0000*6A,0
1778781514340840802,$GPGSA,M,3,20,19,05,21,17,24,11,30,14,,,,1.6,0.9,1.3*38,0
1778781514505807784,$GPRMC,180046.000,A,1205.8664,S,07701.4232,W,8.90,279.00,140526,,,A*6F,0
1778781515207655450,$GPGGA,180047.000,1205.8660,S,07701.4257,W,1,09,0.9,143.2,M,8.4,M,,0000*6A,0
1778781515338302857,$GPGSA,M,3,20,19,05,21,17,24,11,30,14,,,,1.6,0.9,1.3*38,0
1778781515503268913,$GPRMC,180047.000,A,1205.8660,S,07701.4257,W,9.09,278.25,140526,,,A*6E,0
1778781516208861375,$GPGGA,180048.000,1205.8656,S,07701.4284,W,1,09,0.9,142.9,M,8.4,M,,0000*64,0
1778781516339487357,$GPGSA,M,3,20,19,05,21,17,24,11,30,14,,,,1.6,0.9,1.3*38,0
1778781516499894671,$GPGSV,3,1,12,20,72,159,44,19,42,090,47,05,40,325,43,21,28,358,30*70,0
1778781516660297819,$GPGSV,3,2,12,17,26,118,45,24,24,219,38,11,08,014,11,30,06,103,34*7C,0
1778781516816124116,$GPGSV,3,3,12,14,06,142,27,13,62,120,46,44,42,284,46,26,47,090,*78,0
1778781516981107097,$GPRMC,180048.000,A,1205.8656,S,07701.4284,W,9.75,277.96,140526,,,A*66,0
1778781517208193227,$GPGGA,180049.000,1205.8652,S,07701.4313,W,1,09,0.9,142.7,M,8.4,M,,0000*60,0
1778781517338837875,$GPGSA,M,3,20,19,05,21,17,24,11,30,14,,,,1.6,0.9,1.3*38,0
1778781517506089800,$GPRMC,180049.000,A,1205.8652,S,07701.4313,W,10.08,278.46,140526,,,A*5C,0
1778781518204191781,$GPGGA,180050.000,1205.8649,S,07701.4340,W,1,09,0.9,142.8,M,8.4,M,,0000*6B,0
1778781518334849504,$GPGSA,M,3,20,19,05,21,17,24,11,30,14,,,,1.6,0.9,1.3*38,0
1778781518499792337,$GPRMC,180050.000,A,1205.8649,S,07701.4340,W,9.47,276.72,140526,,,A*62,0
1778781519208936836,$GPGGA,180051.000,1205.8647,S,07701.4365,W,1,09,0.9,143.0,M,8.4,M,,0000*6A,0
1778781519339626022,$GPGSA,M,3,20,19,05,21,17,24,11,30,14,,,,1.6,0.9,1.3*38,0
1778781519504550558,$GPRMC,180051.000,A,1205.8647,S,07701.4365,W,9.14,278.75,140526,,,A*65,0
1778781520208468040,$GPGGA,180052.000,1205.8643,S,07701.4389,W,1,09,0.9,143.0,M,8.4,M,,0000*6F,0
1778781520339114780,$GPGSA,M,3,20,19,05,21,17,24,11,30,14,,,,1.6,0.9,1.3*38,0
1778781520504075706,$GPRMC,180052.000,A,1205.8643,S,07701.4389,W,8.15,281.51,140526,,,A*60,0
1778781521208006317,$GPGGA,180053.000,1205.8641,S,07701.4407,W,1,09,0.9,143.0,M,8.4,M,,0000*6D,0
1778781521338665928,$GPGSA,M,3,20,19,05,21,17,24,11,30,14,,,,1.6,0.9,1.3*38,0
1778781521499046742,$GPGSV,3,1,12,20,72,159,44,19,42,090,48,05,40,325,32,21,28,358,22*7A,0
1778781521659448465,$GPGSV,3,2,12,17,26,118,46,24,24,219,41,11,08,014,23,30,06,103,35*71,0
1778781521815275168,$GPGSV,3,3,12,14,06,142,26,13,62,120,46,44,42,284,46,26,47,090,*79,0
1778781521980265650,$GPRMC,180053.000,A,1205.8641,S,07701.4407,W,5.45,280.25,140526,,,A*68,0
1778781522208650131,$GPGGA,180054.000,1205.8643,S,07701.4416,W,1,09,0.9,143.1,M,8.4,M,,0000*69,0
1778781522339233075,$GPGSA,M,3,20,19,05,21,17,24,11,30,14,,,,1.6,0.9,1.3*38,0
1778781522504203464,$GPRMC,180054.000,A,1205.8643,S,07701.4416,W,2.13,281.02,140526,,,A*6D,0
1778781523204383334,$GPGGA,180055.000,1205.8643,S,07701.4418,W,1,09,0.9,143.1,M,8.4,M,,0000*66,1
1778781523335046223,$GPGSA,M,3,20,19,05,21,17,24,11,30,14,,,,1.6,0.9,1.3*38,1
1778781523499997019,$GPRMC,180055.000,A,1205.8643,S,07701.4418,W,0.26,281.02,140526,,,A*66,1
1778781524208507389,$GPGGA,180056.000,1205.8643,S,07701.4419,W,1,09,0.9,143.1,M,8.4,M,,0000*64,1
1778781524339139463,$GPGSA,M,3,20,19,05,21,17,24,11,30,14,,,,1.6,0.9,1.3*38,1
1778781524504112963,$GPRMC,180056.000,A,1205.8643,S,07701.4419,W,0.02,281.02,140526,,,A*62,1
1778781525208467925,$GPGGA,180057.000,1205.8643,S,07701.4419,W,1,09,0.9,143.1,M,8.4,M,,0000*65,1
1778781525339142777,$GPGSA,M,3,20,19,05,21,17,24,11,30,14,,,,1.6,0.9,1.3*38,1
1778781525504144203,$GPRMC,180057.000,A,1205.8643,S,07701.4419,W,0.00,281.02,140526,,,A*61,1
1778781526205911055,$GPGGA,180058.000,1205.8643,S,07701.4419,W,1,08,0.9,143.0,M,8.4,M,,0000*6A,1
1778781526331935777,$GPGSA,M,3,20,19,05,17,24,11,30,14,,,,,1.6,0.9,1.3*3B,1
1778781526492357388,$GPGSV,3,1,12,20,72,159,43,19,42,090,47,05,40,325,41,17,26,118,45*7A,1
1778781526652764313,$GPGSV,3,2,12,24,24,219,42,11,08,014,22,30,06,103,37,14,06,142,26*79,1
1778781526804006017,$GPGSV,3,3,12,13,62,120,46,44,42,284,47,26,47,090,,28,29,153,*7E,1
1778781526969008573,$GPRMC,180058.000,A,1205.8643,S,07701.4419,W,0.00,281.02,140526,,,A*6E,1
1778781527206698202,$GPGGA,180059.000,1205.8643,S,07701.4419,W,1,08,0.9,143.0,M,8.4,M,,0000*6B,1
1778781527332737313,$GPGSA,M,3,20,19,05,17,24,11,30,14,,,,,1.6,0.9,1.3*3B,1
1778781527497731313,$GPRMC,180059.000,A,1205.8643,S,07701.4419,W,0.00,281.02,140526,,,A*6F,1
1778781528200823609,$GPGGA,180100.000,1205.8643,S,07701.4419,W,1,08,0.9,143.0,M,8.4,M,,0000*66,1
1778781528326865461,$GPGSA,M,3,20,19,05,17,24,11,30,14,,,,,1.6,0.9,1.3*3B,1
1778781528491849979,$GPRMC,180100.000,A,1205.8643,S,07701.4419,W,0.00,281.02,140526,,,A*62,1
1778781529210147793,$GPGGA,180101.000,1205.8639,S,07701.4419,W,1,09,0.9,142.9,M,8.4,M,,0000*63,1
1778781529340768664,$GPGSA,M,3,20,19,05,21,17,24,11,30,14,,,,1.6,0.9,1.3*38,1
1778781529505764886,$GPRMC,180101.000,A,1205.8639,S,07701.4419,W,0.24,281.02,140526,,,A*68,1
1778781530204911774,$GPGGA,180102.000,1205.8634,S,07701.4421,W,1,09,0.9,142.8,M,8.4,M,,0000*67,1
1778781530335551385,$GPGSA,M,3,20,19,05,21,17,24,11,30,14,,,,1.6,0.9,1.3*38,1
1778781530500517348,$GPRMC,180102.000,A,1205.8634,S,07701.4421,W,1.10,281.02,140526,,,A*6B,1
1778781531209446403,$GPGGA,180103.000,1205.8629,S,07701.4424,W,1,09,0.9,142.7,M,8.4,M,,0000*60,1
1778781531340053181,$GPGSA,M,3,20,19,05,21,17,24,11,30,14,,,,1.6,0.9,1.3*38,1
1778781531500455755,$GPGSV,3,1,12,20,72,159,43,19,42,090,47,05,40,325,45,21,28,358,21*71,1
1778781531660871348,$GPGSV,3,2,12,17,26,118,45,24,24,219,42,11,08,014,17,30,06,103,38*7B,1
1778781531816700236,$GPGSV,3,3,12,14,06,142,29,13,62,120,46,44,42,284,46,26,47,090,*76,1
1778781531981701273,$GPRMC,180103.000,A,1205.8629,S,07701.4424,W,1.35,282.68,140526,,,A*6B,1
1778781532209177736,$GPGGA,180104.000,1205.8625,S,07701.4428,W,1,09,0.9,142.6,M,8.4,M,,0000*66,1
1778781532339809440,$GPGSA,M,3,20,19,05,21,17,24,11,30,14,,,,1.6,0.9,1.3*38,1
1778781532504805606,$GPRMC,180104.000,A,1205.8625,S,07701.4428,W,1.60,282.84,140526,,,A*6E,1
1778781533208928402,$GPGGA,180105.000,1205.8622,S,07701.4435,W,1,09,0.9,142.4,M,8.4,M,,0000*6E,1
1778781533339569902,$GPGSA,M,3,20,19,05,21,17,24,11,30,14,,,,1.6,0.9,1.3*38,1
1778781533504535235,$GPRMC,180105.000,A,1205.8622,S,07701.4435,W,2.84,279.33,140526,,,A*65,1
1778781534208669290,$GPGGA,180106.000,1205.8619,S,07701.4445,W,1,09,0.9,142.3,M,8.4,M,,0000*65,1
1778781534339307179,$GPGSA,M,3,20,19,05,21,17,24,11,30,14,,,,1.6,0.9,1.3*38,1
1778781534504300364,$GPRMC,180106.000,A,1205.8619,S,07701.4445,W,3.68,277.62,140526,,,A*60,1
1778781535210302994,$GPGGA,180107.000,1205.8616,S,07701.4457,W,1,09,0.9,142.1,M,8.4,M,,0000*6A,1
1778781535340929808,$GPGSA,M,3,20,19,05,21,17,24,11,30,14,,,,1.6,0.9,1.3*38,1
1778781535505919234,$GPRMC,180107.000,A,1205.8616,S,07701.4457,W,4.63,277.34,140526,,,A*62,1
1778781536204422178,$GPGGA,180108.000,1205.8613,S,07701.4472,W,1,09,0.9,142.0,M,8.4,M,,0000*66,1
1778781536335072104,$GPGSA,M,3,20,19,05,21,17,24,11,30,14,,,,1.6,0.9,1.3*38,1
1778781536495445234,$GPGSV,3,1,12,20,72,159,44,19,42,090,47,05,40,325,44,21,28,358,21*77,1
1778781536655862104,$GPGSV,3,2,12,17,26,118,46,24,24,219,41,11,08,014,19,30,06,103,40*7A,1
1778781536811683530,$GPGSV,3,3,12,14,06,142,27,13,62,120,45,44,42,284,46,26,47,090,*7B,1
1778781536976685085,$GPRMC,180108.000,A,1205.8613,S,07701.4472,W,5.76,277.03,140526,,,A*6E,1
1778781537208545900,$GPGGA,180109.000,1205.8611,S,07701.4489,W,1,09,0.9,141.9,M,8.4,M,,0000*6B,1
1778781537339198474,$GPGSA,M,3,20,19,05,21,17,24,11,30,14,,,,1.6,0.9,1.3*38,1
1778781537504147992,$GPRMC,180109.000,A,1205.8611,S,07701.4489,W,5.63,276.85,140526,,,A*62,1
1778781538209369177,$GPGGA,180110.000,1205.8609,S,07701.4504,W,1,09,0.9,141.8,M,8.4,M,,0000*6F,1
1778781538339964973,$GPGSA,M,3,20,19,05,21,17,24,11,30,14,,,,1.6,0.9,1.3*38,1
1778781538504944751,$GPRMC,180110.000,A,1205.8609,S,07701.4504,W,4.64,278.00,140526,,,A*62,1
1778781539207618102,$GPGGA,180111.000,1205.8608,S,07701.4515,W,1,09,0.9,141.8,M,8.4,M,,0000*6F,1
1778781539338252250,$GPGSA,M,3,20,19,05,21,17,24,11,30,14,,,,1.6,0.9,1.3*38,1
1778781539503253232,$GPRMC,180111.000,A,1205.8608,S,07701.4515,W,3.72,282.51,140526,,,A*63,1
1778781540208830065,$GPGGA,180112.000,1205.8607,S,07701.4524,W,1,09,0.9,142.0,M,8.4,M,,0000*6A,1
1778781540339457120,$GPGSA,M,3,20,19,05,21,17,24,11,30,14,,,,1.6,0.9,1.3*38,1
1778781540504434250,$GPRMC,180112.000,A,1205.8607,S,07701.4524,W,2.85,285.51,140526,,,A*63,1
1778781541203993638,$GPGGA,180113.000,1205.8603,S,07701.4531,W,1,09,0.9,142.0,M,8.4,M,,0000*6B,1
1778781541334652916,$GPGSA,M,3,20,19,05,21,17,24,11,30,14,,,,1.6,0.9,1.3*38,1
1778781541495018823,$GPGSV,3,1,12,20,72,159,44,19,42,090,48,05,40,325,36,21,28,358,44*7E,1
1778781541655450786,$GPGSV,3,2,12,17,26,118,46,24,24,219,40,11,08,014,28,30,06,103,39*77,1
1778781541811254027,$GPGSV,3,3,12,14,06,142,26,13,62,120,28,44,42,284,30,26,47,090,*70,1
1778781541976248990,$GPRMC,180113.000,A,1205.8603,S,07701.4531,W,3.30,311.27,140526,,,A*60,1
1778781542203313749,$GPGGA,180114.000,1205.8594,S,07701.4536,W,1,09,0.9,141.9,M,8.4,M,,0000*6C,1
1778781542333950971,$GPGSA,M,3,20,19,05,21,17,24,11,30,14,,,,1.6,0.9,1.3*38,1
1778781542498940415,$GPRMC,180114.000,A,1205.8594,S,07701.4536,W,4.31,334.65,140526,,,A*6A,1
1778781543203896433,$GPGGA,180115.000,1205.8580,S,07701.4538,W,1,09,0.9,141.9,M,8.4,M,,0000*66,1
1778781543334556192,$GPGSA,M,3,20,19,05,21,17,24,11,30,14,,,,1.6,0.9,1.3*38,1
1778781543499514396,$GPRMC,180115.000,A,1205.8580,S,07701.4538,W,5.73,359.78,140526,,,A*60,1
1778781544203013044,$GPGGA,180116.000,1205.8562,S,07701.4534,W,1,09,0.9,141.9,M,8.4,M,,0000*65,1
1778781544333649303,$GPGSA,M,3,20,19,05,21,17,24,11,30,14,,,,1.6,0.9,1.3*38,1
1778781544496340988,$GPRMC,180116.000,A,1205.8562,S,07701.4534,W,7.45,18.09,140526,,,A*54,1
1778781545201736080,$GPGGA,180117.000,1205.8540,S,07701.4525,W,1,09,0.9,141.9,M,8.4,M,,0000*64,1
1778781545332361580,$GPGSA,M,3,20,19,05,21,17,24,11,30,14,,,,1.6,0.9,1.3*38,1
1778781545495045654,$GPRMC,180117.000,A,1205.8540,S,07701.4525,W,8.84,20.52,140526,,,A*52,1
1778781546204384969,$GPGGA,180118.000,1205.8516,S,07701.4516,W,1,09,0.9,142.1,M,8.4,M,,0000*63,1
1778781546335057580,$GPGSA,M,3,20,19,05,21,17,24,11,30,14,,,,1.6,0.9,1.3*38,1
1778781546495430228,$GPGSV,3,1,12,20,72,159,45,19,42,090,31,05,40,325,44,21,28,358,39*7E,1
1778781546655825135,$GPGSV,3,2,12,17,26,118,27,24,24,219,41,11,08,014,31,30,06,103,24*75,1
1778781546811657394,$GPGSV,3,3,12,14,06,142,26,13,62,120,28,44,42,284,30,26,47,090,*70,1
1778781546974381987,$GPRMC,180118.000,A,1205.8516,S,07701.4516,W,9.31,21.22,140526,,,A*57,1
1778781547204757746,$GPGGA,180119.000,1205.8491,S,07701.4507,W,1,09,0.9,142.3,M,8.4,M,,0000*6E,1
1778781547335465875,$GPGSA,M,3,20,19,05,21,17,24,11,30,14,,,,1.6,0.9,1.3*38,1
1778781547498083820,$GPRMC,180119.000,A,1205.8491,S,07701.4507,W,9.71,18.73,140526,,,A*52,1
1778781548203694467,$GPGGA,180120.000,1205.8465,S,07701.4500,W,1,09,0.9,142.6,M,8.4,M,,0000*6D,1
1778781548334326689,$GPGSA,M,3,20,19,05,21,17,24,11,30,14,,,,1.6,0.9,1.3*38,1
1778781548496992523,$GPRMC,180120.000,A,1205.8465,S,07701.4500,W,9.61,17.24,140526,,,A*58,1
1778781549208848170,$GPGGA,180121.000,1205.8439,S,07701.4495,W,1,09,0.9,142.9,M,8.4,M,,0000*67,1
1778781549339469670,$GPGSA,M,3,20,19,05,21,17,24,11,30,14,,,,1.6,0.9,1.3*38,1
1778781549502162874,$GPRMC,180121.000,A,1205.8439,S,07701.4495,W,8.88,12.61,140526,,,A*5F,1
1778781550203997614,$GPGGA,180122.000,1205.8414,S,07701.4489,W,1,09,0.9,143.0,M,8.4,M,,0000*6E,1
1778781550334677781,$GPGSA,M,3,20,19,05,21,17,24,11,30,14,,,,1.6,0.9,1.3*38,1
1778781550497325910,$GPRMC,180122.000,A,1205.8414,S,07701.4489,W,9.06,14.39,140526,,,A*52,1
1778781551208541169,$GPGGA,180123.000,1205.8389,S,07701.4482,W,1,09,0.9,143.3,M,8.4,M,,0000*64,1
1778781551339184151,$GPGSA,M,3,20,19,05,21,17,24,11,30,14,,,,1.6,0.9,1.3*38,1
1778781551499565725,$GPGSV,3,1,12,20,72,159,45,19,42,090,43,05,40,325,43,21,28,358,28*7C,1
1778781551659973243,$GPGSV,3,2,12,17,26,118,25,24,24,219,33,11,08,014,22,30,06,103,16*71,1
1778781551815800261,$GPGSV,3,3,12,14,06,142,19,13,62,120,38,44,42,284,40,26,47,090,*7A,1
1778781551980800335,$GPRMC,180123.000,A,1205.8389,S,07701.4482,W,10.13,21.73,140526,,,A*6F,1
1778781552203297558,$GPGGA,180124.000,1205.8362,S,07701.4469,W,1,09,0.9,143.4,M,8.4,M,,0000*64,1
1778781552333922298,$GPGSA,M,3,20,19,05,21,17,24,11,30,14,,,,1.6,0.9,1.3*38,1
1778781552498900243,$GPRMC,180124.000,A,1205.8362,S,07701.4469,W,10.61,24.64,140526,,,A*6E,1
1778781553206156705,$GPGGA,180125.000,1205.8336,S,07701.4457,W,1,08,0.9,143.5,M,8.4,M,,0000*69,1
1778781553332212112,$GPGSA,M,3,20,19,05,21,17,24,11,14,,,,,1.7,0.9,1.4*3D,1
1778781553494892409,$GPRMC,180125.000,A,1205.8336,S,07701.4457,W,9.89,24.44,140526,,,A*5F,1
1778781554205726760,$GPGGA,180126.000,1205.8312,S,07701.4446,W,1,08,0.9,143.5,M,8.4,M,,0000*6C,1
1778781554331742278,$GPGSA,M,3,20,19,05,21,17,24,11,14,,,,,1.7,0.9,1.4*3D,1
1778781554494514871,$GPRMC,180126.000,A,1205.8312,S,07701.4446,W,8.77,23.30,140526,,,A*5E,1
1778781555206282963,$GPGGA,180127.000,1205.8290,S,07701.4436,W,1,08,0.9,143.6,M,8.4,M,,0000*62,1
1778781555332316852,$GPGSA,M,3,20,19,05,21,17,24,11,14,,,,,1.7,0.9,1.4*3D,1
1778781555495025389,$GPRMC,180127.000,A,1205.8290,S,07701.4436,W,8.06,22.37,140526,,,A*53,1
1778781556202061444,$GPGGA,180128.000,1205.8269,S,07701.4427,W,1,08,0.9,143.7,M,8.4,M,,0000*6A,1
1778781556328104222,$GPGSA,M,3,20,19,05,21,17,24,11,14,,,,,1.7,0.9,1.4*3D,1
1778781556488513870,$GPGSV,3,1,12,20,72,159,44,19,42,090,42,05,40,325,42,21,28,358,30*74,1
1778781556648914851,$GPGSV,3,2,12,17,26,118,40,24,24,219,26,11,08,014,20,14,06,142,17*76,1
1778781556804738796,$GPGSV,3,3,12,13,62,120,33,30,06,103,05,44,42,284,40,26,47,090,*7F,1
1778781556967438629,$GPRMC,180128.000,A,1205.8269,S,07701.4427,W,7.92,21.57,140526,,,A*5D,1
1778781557207031703,$GPGGA,180129.000,1205.8249,S,07701.4418,W,1,08,0.9,143.7,M,8.4,M,,0000*65,1
1778781557333067795,$GPGSA,M,3,20,19,05,21,17,24,11,14,,,,,1.7,0.9,1.4*3D,1
1778781557495764258,$GPRMC,180129.000,A,1205.8249,S,07701.4418,W,7.04,22.44,140526,,,A*5C,1
1778781558205722517,$GPGGA,180130.000,1205.8232,S,07701.4410,W,1,08,0.9,143.8,M,8.4,M,,0000*66,1
1778781558331762369,$GPGSA,M,3,20,19,05,21,17,24,11,14,,,,,1.7,0.9,1.4*3D,1
1778781558494475646,$GPRMC,180130.000,A,1205.8232,S,07701.4410,W,6.25,26.13,140526,,,A*54,1
1778781559205887979,$GPGGA,180131.000,1205.8218,S,07701.4401,W,1,08,0.9,143.6,M,8.4,M,,0000*61,1
1778781559331928905,$GPGSA,M,3,20,19,05,21,17,24,11,14,,,,,1.7,0.9,1.4*3D,1
1778781559494649868,$GPRMC,180131.000,A,1205.8218,S,07701.4401,W,5.93,34.45,140526,,,A*53,1
1778781560201461923,$GPGGA,180132.000,1205.8207,S,07701.4383,W,1,08,0.9,143.6,M,8.4,M,,0000*61,1
1778781560327516645,$GPGSA,M,3,20,19,05,21,17,24,11,14,,,,,1.7,0.9,1.4*3D,1
1778781560490213275,$GPRMC,180132.000,A,1205.8207,S,07701.4383,W,7.15,51.62,140526,,,A*59,1
1778781561205805700,$GPGGA,180133.000,1205.8198,S,07701.4359,W,1,08,0.9,143.7,M,8.4,M,,0000*63,1
1778781561331844015,$GPGSA,M,3,20,19,05,21,17,24,11,14,,,,,1.7,0.9,1.4*3D,1
1778781561492249163,$GPGSV,3,1,12,20,72,159,43,19,42,090,41,05,40,325,35,21,28,358,21*70,1
1778781561652658311,$GPGSV,3,2,12,17,26,118,18,24,24,219,29,11,08,014,21,14,06,142,31*71,1
1778781561808492959,$GPGSV,3,3,12,13,62,120,39,30,06,103,04,44,42,284,40,26,47,090,*74,1
1778781561971181107,$GPRMC,180133.000,A,1205.8198,S,07701.4359,W,8.59,70.80,140526,,,A*52,1
1778781562210136552,$GPGGA,180134.000,1205.8194,S,07701.4331,W,1,09,0.9,144.0,M,8.4,M,,0000*67,1
1778781562340755700,$GPGSA,M,3,20,19,05,21,17,24,11,30,14,,,,1.6,0.9,1.3*38,1
1778781562503466107,$GPRMC,180134.000,A,1205.8194,S,07701.4331,W,9.59,82.55,140526,,,A*53,1
1778781563206957255,$GPGGA,180135.000,1205.8194,S,07701.4301,W,1,08,1.0,144.0,M,8.4,M,,0000*6C,1
1778781563332998995,$GPGSA,M,3,20,19,05,21,17,24,30,14,,,,,1.8,1.0,1.5*38,1
1778781563497993347,$GPRMC,180135.000,A,1205.8194,S,07701.4301,W,11.01,86.95,140526,,,A*6D,1
1778781564205671532,$GPGGA,180136.000,1205.8198,S,07701.4264,W,1,08,1.0,143.9,M,8.4,M,,0000*6F,1
1778781564331707810,$GPGSA,M,3,20,19,05,21,17,24,30,14,,,,,1.8,1.0,1.5*38,1
1778781564496704587,$GPRMC,180136.000,A,1205.8198,S,07701.4264,W,13.04,94.94,140526,,,A*65,1
1778781565201271068,$GPGGA,180137.000,1205.8206,S,07701.4221,W,1,08,1.0,143.9,M,8.4,M,,0000*6B,1
1778781565327283716,$GPGSA,M,3,20,19,05,21,17,24,30,14,,,,,1.8,1.0,1.5*38,1
1778781565492281846,$GPRMC,180137.000,A,1205.8206,S,07701.4221,W,14.16,98.19,140526,,,A*6C,1
1778781566208287586,$GPGGA,180138.000,1205.8218,S,07701.4175,W,1,08,1.0,144.1,M,8.4,M,,0000*66,1
1778781566334358790,$GPGSA,M,3,20,19,05,21,17,24,30,14,,,,,1.8,1.0,1.5*38,1
1778781566494728568,$GPGSV,3,1,12,20,72,159,41,19,42,090,41,05,40,325,18,21,28,358,39*74,1
1778781566655136660,$GPGSV,3,2,12,17,26,118,16,24,24,219,34,30,06,103,12,14,06,142,17*7D,1
1778781566810965549,$GPGSV,3,3,12,11,08,014,04,13,62,120,39,44,42,284,43,26,47,090,*7D,1
1778781566975960715,$GPRMC,180138.000,A,1205.8218,S,07701.4175,W,14.68,98.22,140526,,,A*6F,1
1778781567205742104,$GPGGA,180139.000,1205.8231,S,07701.4128,W,1,08,1.0,144.4,M,8.4,M,,0000*61,1
1778781567331767160,$GPGSA,M,3,20,19,05,21,17,24,30,14,,,,,1.8,1.0,1.5*38,1
1778781567496765993,$GPRMC,180139.000,A,1205.8231,S,07701.4128,W,14.59,99.25,140526,,,A*69,1
1778781568204859400,$GPGGA,180140.000,1205.8242,S,07701.4082,W,1,08,1.0,144.7,M,8.4,M,,0000*69,1
1778781568330898233,$GPGSA,M,3,20,19,05,21,17,24,30,14,,,,,1.8,1.0,1.5*38,1
1778781568495882900,$GPRMC,180140.000,A,1205.8242,S,07701.4082,W,15.35,97.52,140526,,,A*67,1
1778781569203569547,$GPGGA,180141.000,1205.8246,S,07701.4038,W,1,08,1.0,144.9,M,8.4,M,,0000*63,1
1778781569329625158,$GPGSA,M,3,20,19,05,21,17,24,30,14,,,,,1.8,1.0,1.5*38,1
1778781569494591047,$GPRMC,180141.000,A,1205.8246,S,07701.4038,W,15.67,97.13,140526,,,A*61,1
1778781570207683399,$GPGGA,180142.000,1205.8251,S,07701.3992,W,1,09,0.9,144.8,M,8.4,M,,0000*60,1
1778781570338328324,$GPGSA,M,3,20,19,05,21,17,24,11,30,14,,,,1.6,0.9,1.3*38,1
1778781570503300898,$GPRMC,180142.000,A,1205.8251,S,07701.3992,W,15.88,96.61,140526,,,A*6F,1
1778781571208289028,$GPGGA,180143.000,1205.8255,S,07701.3945,W,1,09,0.9,145.0,M,8.4,M,,0000*66,1
1778781571338918361,$GPGSA,M,3,20,19,05,21,17,24,11,30,14,,,,1.6,0.9,1.3*38,1
1778781571499311231,$GPGSV,3,1,12,20,72,159,41,19,42,090,42,05,40,325,37,21,28,358,37*74,1
1778781571659706713,$GPGSV,3,2,12,17,26,118,19,24,24,219,32,11,08,014,23,30,06,103,12*7A,1
1778781571815529175,$GPGSV,3,3,12,14,06,142,15,13,62,120,39,44,42,284,43,26,47,090,*74,1
1778781571980528786,$GPRMC,180143.000,A,1205.8255,S,07701.3945,W,16.44,95.55,140526,,,A*67,1
1778781572206765749,$GPGGA,180144.000,1205.8259,S,07701.3898,W,1,09,0.9,144.9,M,8.4,M,,0000*64,1
1778781572337406397,$GPGSA,M,3,20,19,05,21,17,24,11,30,14,,,,1.6,0.9,1.3*38,1
1778781572502374879,$GPRMC,180144.000,A,1205.8259,S,07701.3898,W,16.62,95.04,140526,,,A*6D,1
1778781573207965378,$GPGGA,180145.000,1205.8264,S,07701.3849,W,1,09,0.9,145.0,M,8.4,M,,0000*6F,1
1778781573338630212,$GPGSA,M,3,20,19,05,21,17,24,11,30,14,,,,1.6,0.9,1.3*38,1
1778781573503581471,$GPRMC,180145.000,A,1205.8264,S,07701.3849,W,17.05,94.67,140526,,,A*6A,1
1778781574206889359,$GPGGA,180146.000,1205.8270,S,07701.3800,W,1,08,0.9,145.3,M,8.4,M,,0000*66,1
1778781574332928804,$GPGSA,M,3,20,19,05,21,17,24,11,14,,,,,1.7,0.9,1.4*3D,1
1778781574497905785,$GPRMC,180146.000,A,1205.8270,S,07701.3800,W,17.11,96.15,140526,,,A*63,1
1778781575205797303,$GPGGA,180147.000,1205.8279,S,07701.3751,W,1,08,0.9,145.8,M,8.4,M,,0000*6E,1
1778781575331830340,$GPGSA,M,3,20,19,05,21,17,24,11,14,,,,,1.7,0.9,1.4*3D,1
1778781575496825692,$GPRMC,180147.000,A,1205.8279,S,07701.3751,W,17.03,98.01,140526,,,A*68,1
1778781576205791432,$GPGGA,180148.000,1205.8287,S,07701.3702,W,1,08,0.9,146.1,M,8.4,M,,0000*6C,1
1778781576331804858,$GPGSA,M,3,20,19,05,21,17,24,11,14,,,,,1.7,0.9,1.4*3D,1
1778781576492209506,$GPGSV,3,1,12,20,72,159,37,19,42,090,42,05,40,325,40,21,28,358,26*75,1
1778781576652605173,$GPGSV,3,2,12,17,26,118,22,24,24,219,20,11,08,014,18,14,06,142,14*7C,1
1778781576808425895,$GPGSV,3,3,12,13,62,120,40,30,06,103,04,44,42,284,45,26,47,090,*7F,1
1778781576973424228,$GPRMC,180148.000,A,1205.8287,S,07701.3702,W,16.93,98.63,140526,,,A*6C,1
1778781577205942765,$GPGGA,180149.000,1205.8291,S,07701.3653,W,1,08,0.9,147.3,M,8.4,M,,0000*6C,1
1778781577331954617,$GPGSA,M,3,20,19,05,21,17,24,11,14,,,,,1.7,0.9,1.4*3D,1
1778781577496985172,$GPRMC,180149.000,A,1205.8291,S,07701.3653,W,16.68,99.47,140526,,,A*6C,1
1778781578205658283,$GPGGA,180150.000,1205.8295,S,07701.3605,W,1,08,0.9,148.5,M,8.4,M,,0000*6A,1
1778781578331699542,$GPGSA,M,3,20,19,05,21,17,24,11,14,,,,,1.7,0.9,1.4*3D,1
1778781578496689579,$GPRMC,180150.000,A,1205.8295,S,07701.3605,W,16.56,99.45,140526,,,A*6C,1
1778781579206238893,$GPGGA,180151.000,1205.8301,S,07701.3557,W,1,08,0.9,149.6,M,8.4,M,,0000*61,1
1778781579332288301,$GPGSA,M,3,20,19,05,21,17,24,11,14,,,,,1.7,0.9,1.4*3D,1
1778781579497293226,$GPRMC,180151.000,A,1205.8301,S,07701.3557,W,16.95,99.96,140526,,,A*64,1
1778781580205164670,$GPGGA,180152.000,1205.8310,S,07701.3509,W,1,08,0.9,150.2,M,8.4,M,,0000*65,1
1778781580331199356,$GPGSA,M,3,20,19,05,21,17,24,11,14,,,,,1.7,0.9,1.4*3D,1
1778781580498477707,$GPRMC,180152.000,A,1205.8310,S,07701.3509,W,17.21,100.32,140526,,,A*5D,1
1778781581205322281,$GPGGA,180153.000,1205.8319,S,07701.3461,W,1,08,0.9,150.5,M,8.4,M,,0000*65,1
1778781581331360059,$GPGSA,M,3,20,19,05,21,17,24,11,14,,,,,1.7,0.9,1.4*3D,1
1778781581491759447,$GPGSV,3,1,12,20,72,159,44,19,42,090,44,05,40,325,38,21,28,358,27*79,1
1778781581652181966,$GPGSV,3,2,12,17,26,118,46,24,24,219,21,11,08,014,18,14,06,142,15*7E,1
1778781581808007762,$GPGSV,3,3,12,13,62,120,42,30,06,103,04,44,42,284,46,26,47,090,*7E,1
1778781581972994947,$GPRMC,180153.000,A,1205.8319,S,07701.3461,W,17.22,98.67,140526,,,A*69,1
1778781582206953151,$GPGGA,180154.000,1205.8325,S,07701.3412,W,1,08,0.9,151.1,M,8.4,M,,0000*6C,1
1778781582332977780,$GPGSA,M,3,20,19,05,21,17,24,11,14,,,,,1.7,0.9,1.4*3D,1
1778781582497983262,$GPRMC,180154.000,A,1205.8325,S,07701.3412,W,16.41,95.12,140526,,,A*6E,1
1778781583204201150,$GPGGA,180155.000,1205.8330,S,07701.3365,W,1,07,1.0,151.5,M,8.4,M,,0000*6D,1
1778781583325635113,$GPGSA,M,3,20,19,05,21,17,24,14,,,,,,1.9,1.0,1.7*38,1
1778781583490631761,$GPRMC,180155.000,A,1205.8330,S,07701.3365,W,16.73,96.08,140526,,,A*65,1
1778781584199158650,$GPGGA,180156.000,1205.8333,S,07701.3317,W,1,07,1.0,152.0,M,8.4,M,,0000*6E,1
1778781584320616131,$GPGSA,M,3,20,19,05,21,17,24,14,,,,,,1.9,1.0,1.7*38,1
1778781584485592575,$GPRMC,180156.000,A,1205.8333,S,07701.3317,W,16.72,94.68,140526,,,A*65,1
1778781585198275408,$GPGGA,180157.000,1205.8338,S,07701.3272,W,1,07,1.0,152.2,M,8.4,M,,0000*64,1
1778781585319714649,$GPGSA,M,3,20,19,05,21,17,24,14,,,,,,1.9,1.0,1.7*38,1
1778781585484719890,$GPRMC,180157.000,A,1205.8338,S,07701.3272,W,15.97,95.20,140526,,,A*68,1
1778781586206142352,$GPGGA,180158.000,1205.8346,S,07701.3230,W,1,07,1.0,153.3,M,8.4,M,,0000*64,1
1778781586327585648,$GPGSA,M,3,20,19,05,21,17,24,14,,,,,,1.9,1.0,1.7*38,1
1778781586487993463,$GPGSV,3,1,12,20,72,159,43,19,42,090,44,05,40,325,41,21,28,358,35*73,1
1778781586648423667,$GPGSV,3,2,12,17,26,118,29,24,24,219,19,14,06,142,18,11,08,014,24*7E,1
1778781586804249926,$GPGSV,3,3,12,13,62,120,42,30,06,103,04,44,42,284,46,26,47,090,*7E,1
1778781586969225148,$GPRMC,180158.000,A,1205.8346,S,07701.3230,W,14.45,98.16,140526,,,A*6E,1
1778781587208599055,$GPGGA,180159.000,1205.8349,S,07701.3192,W,1,07,1.0,154.5,M,8.4,M,,0000*60,1
1778781587330046537,$GPGSA,M,3,20,19,05,21,17,24,14,,,,,,1.9,1.0,1.7*38,1
1778781587495045462,$GPRMC,180159.000,A,1205.8349,S,07701.3192,W,13.19,97.66,140526,,,A*6D,1
1778781588201890610,$GPGGA,180200.000,1205.8349,S,07701.3155,W,1,07,1.0,155.7,M,8.4,M,,0000*67,1
1778781588323333277,$GPGSA,M,3,20,19,05,21,17,24,14,,,,,,1.9,1.0,1.6*39,1
1778781588488329980,$GPRMC,180200.000,A,1205.8349,S,07701.3155,W,12.46,96.69,140526,,,A*6C,1
1778781589208919443,$GPGGA,180201.000,1205.8349,S,07701.3121,W,1,09,0.9,157.5,M,8.4,M,,0000*63,1
1778781589339560924,$GPGSA,M,3,20,19,05,21,17,24,11,30,14,,,,1.6,0.9,1.3*38,1
1778781589504537498,$GPRMC,180201.000,A,1205.8349,S,07701.3121,W,11.53,95.69,140526,,,A*6A,1
1778781590208672609,$GPGGA,180202.000,1205.8351,S,07701.3091,W,1,09,0.9,158.4,M,8.4,M,,0000*6D,1
1778781590339309664,$GPGSA,M,3,20,19,05,21,17,24,11,30,14,,,,1.6,0.9,1.3*38,1
1778781590501986553,$GPRMC,180202.000,A,1205.8351,S,07701.3091,W,9.82,99.62,140526,,,A*58,1
1778781591209247182,$GPGGA,180203.000,1205.8354,S,07701.3062,W,1,09,0.9,158.8,M,8.4,M,,0000*69,1
1778781591339875256,$GPGSA,M,3,20,19,05,21,17,24,11,30,14,,,,1.6,0.9,1.3*38,1
1778781591500271979,$GPGSV,3,1,12,20,72,159,42,19,42,090,39,05,40,325,42,21,28,358,26*79,1
1778781591660690015,$GPGSV,3,2,12,17,26,118,27,24,24,219,27,11,08,014,26,30,06,103,26*71,1
1778781591816509923,$GPGSV,3,3,12,14,06,142,10,13,62,120,42,44,42,284,42,26,47,090,*7C,1
1778781591981543978,$GPRMC,180203.000,A,1205.8354,S,07701.3062,W,9.85,100.09,140526,,,A*6B,1
1778781592203196052,$GPGGA,180204.000,1205.8358,S,07701.3035,W,1,09,0.9,159.0,M,8.4,M,,0000*69,1
1778781592333805960,$GPGSA,M,3,20,19,05,21,17,24,11,30,14,,,,1.6,0.9,1.3*38,1
1778781592498770737,$GPRMC,180204.000,A,1205.8358,S,07701.3035,W,10.08,98.21,140526,,,A*65,1
1778781593202710885,$GPGGA,180205.000,1205.8366,S,07701.3012,W,1,09,0.9,159.5,M,8.4,M,,0000*65,1
1778781593333370052,$GPGSA,M,3,20,19,05,21,17,24,11,30,14,,,,1.6,0.9,1.3*38,1
1778781593498315977,$GPRMC,180205.000,A,1205.8366,S,07701.3012,W,8.82,102.64,140526,,,A*64,1
1778781594203070810,$GPGGA,180206.000,1205.8372,S,07701.2988,W,1,09,0.9,159.8,M,8.4,M,,0000*65,1
1778781594333694199,$GPGSA,M,3,20,19,05,21,17,24,11,30,14,,,,1.6,0.9,1.3*38,1
1778781594496419458,$GPRMC,180206.000,A,1205.8372,S,07701.2988,W,9.41,99.79,140526,,,A*58,1
1778781595207824180,$GPGGA,180207.000,1205.8375,S,07701.2960,W,1,08,0.9,160.2,M,8.4,M,,0000*64,1
1778781595333865254,$GPGSA,M,3,20,19,05,21,17,24,11,30,,,,,1.7,0.9,1.5*3A,1
1778781595496571587,$GPRMC,180207.000,A,1205.8375,S,07701.2960,W,9.82,95.25,140526,,,A*52,1
1778781596203397050,$GPGGA,180208.000,1205.8373,S,07701.2929,W,1,09,0.9,160.5,M,8.4,M,,0000*66,1
1778781596334044828,$GPGSA,M,3,20,19,05,21,17,24,11,30,14,,,,1.6,0.9,1.3*38,1
1778781596494423290,$GPGSV,3,1,12,20,72,159,31,19,42,090,47,05,40,325,34,21,28,358,39*7B,1
1778781596654872420,$GPGSV,3,2,12,17,26,118,25,24,24,219,31,11,08,014,33,30,06,103,20*76,1
1778781596810663142,$GPGSV,3,3,12,14,06,142,09,13,62,120,40,44,42,284,38,26,47,090,*7B,1
1778781596973355235,$GPRMC,180208.000,A,1205.8373,S,07701.2929,W,9.88,90.30,140526,,,A*5D,1
1778781597203768642,$GPGGA,180209.000,1205.8359,S,07701.2895,W,1,07,1.0,162.5,M,8.4,M,,0000*6D,1
1778781597325227012,$GPGSA,M,3,19,21,17,24,11,30,14,,,,,,2.1,1.0,1.9*39,1
1778781597487922308,$GPRMC,180209.000,A,1205.8359,S,07701.2895,W,8.34,85.71,140526,,,A*55,1
1778781598203929734,$GPGGA,180210.000,1205.8361,S,07701.2875,W,1,09,0.9,163.1,M,8.4,M,,0000*63,1
1778781598334600345,$GPGSA,M,3,20,19,05,21,17,24,11,30,14,,,,1.6,0.9,1.3*38,1
1778781598497259956,$GPRMC,180210.000,A,1205.8361,S,07701.2875,W,6.39,88.92,140526,,,A*5B,1
1778781599205136659,$GPGGA,180211.000,1205.8364,S,07701.2861,W,1,09,0.9,163.1,M,8.4,M,,0000*62,1
1778781599335802085,$GPGSA,M,3,20,19,05,21,17,24,11,30,14,,,,1.6,0.9,1.3*38,1
1778781599498456918,$GPRMC,180211.000,A,1205.8364,S,07701.2861,W,5.60,85.64,140526,,,A*51,1
1778781600205525751,$GPGGA,180212.000,1205.8370,S,07701.2844,W,1,09,0.9,162.8,M,8.4,M,,0000*6B,1
1778781600336161640,$GPGSA,M,3,20,19,05,21,17,24,11,30,14,,,,1.6,0.9,1.3*38,1
1778781600498826140,$GPRMC,180212.000,A,1205.8370,S,07701.2844,W,6.73,85.00,140526,,,A*53,1
1778781601209847973,$GPGGA,180213.000,1205.8373,S,07701.2824,W,1,09,0.9,163.3,M,8.4,M,,0000*65,1
1778781601340467787,$GPGSA,M,3,20,19,05,21,17,24,11,30,14,,,,1.6,0.9,1.3*38,1
1778781601500868102,$GPGSV,3,1,12,20,72,159,28,19,42,090,47,05,40,325,32,21,28,358,31*7D,1
1778781601661275102,$GPGSV,3,2,12,17,26,118,25,24,24,219,24,11,08,014,29,30,06,103,22*7B,1
1778781601817107769,$GPGSV,3,3,12,14,06,142,10,13,62,120,40,44,42,284,45,26,47,090,*79,1
1778781601979851509,$GPRMC,180213.000,A,1205.8373,S,07701.2824,W,6.70,84.55,140526,,,A*55,1
1778781602210208120,$GPGGA,180214.000,1205.8375,S,07701.2801,W,1,09,0.9,164.4,M,8.4,M,,0000*63,1
1778781602340841546,$GPGSA,M,3,20,19,05,21,17,24,11,30,14,,,,1.6,0.9,1.3*38,1
1778781602503525694,$GPRMC,180214.000,A,1205.8375,S,07701.2801,W,7.92,88.80,140526,,,A*5A,1
1778781603208922009,$GPGGA,180215.000,1205.8378,S,07701.2783,W,1,09,0.9,165.1,M,8.4,M,,0000*6E,1
1778781603339554564,$GPGSA,M,3,20,19,05,21,17,24,11,30,14,,,,1.6,0.9,1.3*38,1
1778781603502238175,$GPRMC,180215.000,A,1205.8378,S,07701.2783,W,5.54,92.03,140526,,,A*5B,1
1778781604208459989,$GPGGA,180216.000,1205.8379,S,07701.2775,W,1,09,0.9,165.9,M,8.4,M,,0000*6D,1
1778781604339094212,$GPGSA,M,3,20,19,05,21,17,24,11,30,14,,,,1.6,0.9,1.3*38,1
1778781604501784841,$GPRMC,180216.000,A,1205.8379,S,07701.2775,W,2.60,94.87,140526,,,A*5A,1
1778781605205297285,$GPGGA,180217.000,1205.8381,S,07701.2768,W,1,08,0.9,166.3,M,8.4,M,,0000*6F,1
1778781605331321711,$GPGSA,M,3,20,19,05,21,17,24,11,30,,,,,1.7,0.9,1.5*3A,1
1778781605494020952,$GPRMC,180217.000,A,1205.8381,S,07701.2768,W,2.55,97.66,140526,,,A*5A,1
1778781606205860470,$GPGGA,180218.000,1205.8386,S,07701.2760,W,1,08,0.9,166.6,M,8.4,M,,0000*6A,1
1778781606331903859,$GPGSA,M,3,20,19,05,21,17,24,11,30,,,,,1.7,0.9,1.5*3A,1
1778781606492359266,$GPGSV,3,1,12,20,72,159,42,19,42,090,45,05,40,325,40,21,28,358,36*71,1
1778781606652712321,$GPGSV,3,2,12,17,26,118,19,24,24,219,21,11,08,014,30,30,06,103,22*79,1
1778781606808547618,$GPGSV,3,3,12,13,62,120,41,14,06,142,04,44,42,284,45,26,47,090,*7D,1
1778781606973536766,$GPRMC,180218.000,A,1205.8386,S,07701.2760,W,4.02,101.86,140526,,,A*6E,1
1778781607203985821,$GPGGA,180219.000,1205.8389,S,07701.2749,W,1,08,0.9,166.8,M,8.4,M,,0000*61,1
1778781607329983043,$GPGSA,M,3,20,19,05,21,17,24,11,30,,,,,1.7,0.9,1.5*3A,1
1778781607492682413,$GPRMC,180219.000,A,1205.8389,S,07701.2749,W,3.97,99.02,140526,,,A*5C,1
1778781608202856302,$GPGGA,180220.000,1205.8391,S,07701.2736,W,1,08,0.9,167.4,M,8.4,M,,0000*67,1
1778781608328906135,$GPGSA,M,3,20,19,05,21,17,24,11,30,,,,,1.7,0.9,1.5*3A,1
1778781608491660042,$GPRMC,180220.000,A,1205.8391,S,07701.2736,W,4.17,99.45,140526,,,A*5B,1
1778781609205312579,$GPGGA,180221.000,1205.8393,S,07701.2724,W,1,08,0.9,168.4,M,8.4,M,,0000*68,1
1778781609331355986,$GPGSA,M,3,20,19,05,21,17,24,11,30,,,,,1.7,0.9,1.5*3A,1
1778781609496352153,$GPRMC,180221.000,A,1205.8393,S,07701.2724,W,4.51,100.80,140526,,,A*61,1
1778781610206103504,$GPGGA,180222.000,1205.8396,S,07701.2711,W,1,08,0.9,168.8,M,8.4,M,,0000*64,1
1778781610332132838,$GPGSA,M,3,20,19,05,21,17,24,11,30,,,,,1.7,0.9,1.5*3A,1
1778781610497126986,$GPRMC,180222.000,A,1205.8396,S,07701.2711,W,4.21,104.67,140526,,,A*6B,1
1778781611206475485,$GPGGA,180223.000,1205.8400,S,07701.2700,W,1,08,0.9,169.1,M,8.4,M,,0000*65,1
1778781611332519411,$GPGSA,M,3,20,19,05,21,17,24,11,30,,,,,1.7,0.9,1.5*3A,1
1778781611492920244,$GPGSV,3,1,12,20,72,159,42,19,42,090,43,05,40,325,40,21,28,358,37*76,1
1778781611653330411,$GPGSV,3,2,12,17,26,118,18,24,24,219,33,11,08,014,27,30,06,103,21*7E,1
1778781611809162003,$GPGSV,3,3,12,13,62,120,41,14,06,142,05,44,42,284,44,26,47,090,*7D,1
1778781611974175670,$GPRMC,180223.000,A,1205.8400,S,07701.2700,W,4.25,111.96,140526,,,A*6C,1
1778781612206227003,$GPGGA,180224.000,1205.8408,S,07701.2692,W,1,08,0.9,169.0,M,8.4,M,,0000*61,1
1778781612332251929,$GPGSA,M,3,20,19,05,21,17,24,11,30,,,,,1.7,0.9,1.5*3A,1
1778781612497269373,$GPRMC,180224.000,A,1205.8408,S,07701.2692,W,4.14,128.88,140526,,,A*6E,1
1778781613208050651,$GPGGA,180225.000,1205.8420,S,07701.2687,W,1,08,0.9,168.6,M,8.4,M,,0000*69,1
1778781613334126169,$GPGSA,M,3,20,19,05,21,17,24,11,30,,,,,1.7,0.9,1.5*3A,1
1778781613499082965,$GPRMC,180225.000,A,1205.8420,S,07701.2687,W,4.79,149.28,140526,,,A*67,1
1778781614209521595,$GPGGA,180226.000,1205.8436,S,07701.2685,W,1,09,0.9,167.9,M,8.4,M,,0000*6E,1
1778781614340088706,$GPGSA,M,3,20,19,05,21,17,24,11,30,14,,,,1.6,0.9,1.3*38,1
1778781614505096687,$GPRMC,180226.000,A,1205.8436,S,07701.2685,W,5.35,169.77,140526,,,A*60,1
1778781615210061353,$GPGGA,180227.000,1205.8453,S,07701.2686,W,1,09,0.9,167.3,M,8.4,M,,0000*65,1
1778781615340706112,$GPGSA,M,3,20,19,05,21,17,24,11,30,14,,,,1.6,0.9,1.3*38,1
1778781615505711779,$GPRMC,180227.000,A,1205.8453,S,07701.2686,W,6.42,177.66,140526,,,A*6D,1
1778781616202707797,$GPGGA,180228.000,1205.8474,S,07701.2688,W,1,08,0.9,166.9,M,8.4,M,,0000*6B,1
1778781616328736167,$GPGSA,M,3,20,19,05,21,17,24,11,30,,,,,1.7,0.9,1.5*3A,1
1778781616489152408,$GPGSV,3,1,12,20,72,159,42,19,42,090,40,05,40,325,42,21,28,358,44*73,1
1778781616649568723,$GPGSV,3,2,12,17,26,118,18,24,24,219,23,11,08,014,35,30,06,103,20*7D,1
1778781616805400945,$GPGSV,3,3,12,13,62,120,41,14,06,142,08,44,42,284,41,26,47,090,*75,1
1778781616970387797,$GPRMC,180228.000,A,1205.8474,S,07701.2688,W,7.53,183.19,140526,,,A*6B,1
1778781617208493815,$GPGGA,180229.000,1205.8497,S,07701.2691,W,1,09,0.9,166.6,M,8.4,M,,0000*61,1
1778781617339142278,$GPGSA,M,3,20,19,05,21,17,24,11,30,14,,,,1.6,0.9,1.3*38,1
1778781617504101519,$GPRMC,180229.000,A,1205.8497,S,07701.2691,W,8.46,187.20,140526,,,A*6A,1
1778781618202412944,$GPGGA,180230.000,1205.8521,S,07701.2696,W,1,08,0.9,166.3,M,8.4,M,,0000*66,1
