Unix_time,GPS_data,flagStop
1778781899208536591,$GPGGA,180711.000,1205.8833,S,07701.2849,W,1,07,1.0,153.5,M,8.4,M,,0000*65,0
1778781917906858580,$GPGSA,M,3,20,19,05,21,24,17,11,,,,,,2.0,1.0,1.7*37,0
1778781917907381525,$GPRMC,180711.000,A,1205.8833,S,07701.2849,W,2.10,276.01,140526,,,A*6A,0
1778781917908099006,$GPGGA,180712.000,1205.8835,S,07701.2852,W,1,07,1.0,153.0,M,8.4,M,,0000*6F,0
1778781917908858321,$GPGSA,M,3,20,19,05,21,24,17,11,,,,,,2.0,1.0,1.7*37,0
1778781917909368228,$GPRMC,180712.000,A,1205.8835,S,07701.2852,W,0.40,276.01,140526,,,A*62,0
1778781917910058099,$GPGGA,180713.000,1205.8835,S,07701.2852,W,1,07,1.0,153.1,M,8.4,M,,0000*6F,0
1778781917910788062,$GPGSA,M,3,20,19,05,21,24,17,11,,,,,,2.0,1.0,1.7*37,0
1778781917911297414,$GPGSV,3,1,12,20,74,152,45,19,42,094,46,05,38,327,31,21,25,000,22*71,0
1778781917911590821,$GPGSV,3,2,12,24,24,217,28,17,24,121,44,11,08,017,24,13,63,114,45*7D,0
1778781917911722136,$GPGSV,3,3,12,30,05,100,16,44,42,284,45,26,47,086,,28,27,153,*72,0
1778781917911846025,$GPRMC,180713.000,A,1205.8835,S,07701.2852,W,0.00,276.01,140526,,,A*67,0
1778781917911981006,$GPGGA,180714.000,1205.8835,S,07701.2851,W,1,07,1.0,153.1,M,8.4,M,,0000*6B,0
1778781917912123432,$GPGSA,M,3,20,19,05,21,24,17,11,,,,,,2.0,1.0,1.7*37,0
1778781917912222877,$GPRMC,180714.000,A,1205.8835,S,07701.2851,W,0.00,276.01,140526,,,A*63,0
1778781917912357191,$GPGGA,180715.000,1205.8835,S,07701.2851,W,1,07,1.0,153.1,M,8.4,M,,0000*6A,0
1778781917912500080,$GPGSA,M,3,20,19,05,21,24,17,11,,,,,,2.0,1.0,1.7*37,0
1778781917912600210,$GPRMC,180715.000,A,1205.8835,S,07701.2851,W,0.00,276.01,140526,,,A*62,0
1778781917912744099,$GPGGA,180716.000,1205.8835,S,07701.2851,W,1,07,1.0,153.1,M,8.4,M,,0000*69,0
1778781917912888228,$GPGSA,M,3,20,19,05,21,24,17,11,,,,,,2.0,1.0,1.7*37,0
1778781917912989080,$GPRMC,180716.000,A,1205.8835,S,07701.2851,W,0.00,276.01,140526,,,A*61,0
1778781917913125543,$GPGGA,180717.000,1205.8835,S,07701.2851,W,1,07,1.0,153.1,M,8.4,M,,0000*68,0
1778781917913269599,$GPGSA,M,3,20,19,05,21,24,17,11,,,,,,2.0,1.0,1.7*37,0
1778781917913369858,$GPRMC,180717.000,A,1205.8835,S,07701.2851,W,0.00,276.01,140526,,,A*60,0
1778781917913505747,$GPGGA,180718.000,1205.8835,S,07701.2851,W,1,07,1.0,153.1,M,8.4,M,,0000*67,0
1778781917913649358,$GPGSA,M,3,20,19,05,21,24,17,11,,,,,,2.0,1.0,1.7*37,0
1778781917913749599,$GPGSV,3,1,12,20,74,152,46,19,42,094,45,05,38,327,33,21,25,000,15*77,0
1778781917913881617,$GPGSV,3,2,12,24,24,217,31,17,24,121,43,11,08,017,25,13,63,114,47*71,0
1778781917914013932,$GPGSV,3,3,12,30,05,100,18,44,42,284,45,26,47,086,,28,27,153,*7C,0
1778781917914138340,$GPRMC,180718.000,A,1205.8835,S,07701.2851,W,0.00,276.01,140526,,,A*6F,0
1778781917914274506,$GPGGA,180719.000,1205.8835,S,07701.2851,W,1,07,1.0,153.2,M,8.4,M,,0000*65,0
1778781917914418173,$GPGSA,M,3,20,19,05,21,24,17,11,,,,,,2.0,1.0,1.7*37,0
1778781917914518747,$GPRMC,180719.000,A,1205.8835,S,07701.2851,W,0.00,276.01,140526,,,A*6E,0
1778781917914654914,$GPGGA,180720.000,1205.8835,S,07701.2851,W,1,08,1.0,153.2,M,8.4,M,,0000*60,0
1778781917914798599,$GPGSA,M,3,20,19,05,21,24,17,11,30,,,,,1.7,1.0,1.5*32,0
1778781917914902895,$GPRMC,180720.000,A,1205.8835,S,07701.2851,W,0.00,276.01,140526,,,A*64,0
1778781917915038951,$GPGGA,180721.000,1205.8835,S,07701.2851,W,1,08,1.0,153.2,M,8.4,M,,0000*61,0
1778781917915182506,$GPGSA,M,3,20,19,05,21,24,17,11,30,,,,,1.7,1.0,1.5*32,0
1778781917915286599,$GPRMC,180721.000,A,1205.8835,S,07701.2851,W,0.00,276.01,140526,,,A*65,0
1778781917915422673,$GPGGA,180722.000,1205.8835,S,07701.2851,W,1,08,1.0,153.2,M,8.4,M,,0000*62,0
1778781917915566136,$GPGSA,M,3,20,19,05,21,24,17,11,30,,,,,1.7,1.0,1.5*32,0
1778781917915670154,$GPRMC,180722.000,A,1205.8835,S,07701.2851,W,0.00,276.01,140526,,,A*66,0
1778781917915806228,$GPGGA,180723.000,1205.8835,S,07701.2851,W,1,08,1.0,153.2,M,8.4,M,,0000*63,0
1778781917915950025,$GPGSA,M,3,20,19,05,21,24,17,11,30,,,,,1.7,1.0,1.5*32,0
1778781917916053951,$GPGSV,3,1,12,20,74,152,46,19,42,094,45,05,38,327,34,21,25,000,14*71,0
1778781917916186451,$GPGSV,3,2,12,24,24,217,31,17,24,121,43,11,08,017,18,30,05,100,17*7E,0
1778781917916318877,$GPGSV,3,3,12,13,63,114,47,44,42,284,45,26,47,086,,28,27,153,*72,0
1778781917916526895,$GPRMC,180723.000,A,1205.8835,S,07701.2851,W,0.00,276.01,140526,,,A*67,0
1778781917916672525,$GPGGA,180724.000,1205.8835,S,07701.2851,W,1,08,1.0,153.2,M,8.4,M,,0000*64,0
1778781917916815765,$GPGSA,M,3,20,19,05,21,24,17,11,30,,,,,1.7,1.0,1.5*32,0
1778781917916919654,$GPRMC,180724.000,A,1205.8835,S,07701.2851,W,0.00,276.01,140526,,,A*60,0
1778781917917055117,$GPGGA,180725.000,1205.8835,S,07701.2851,W,1,07,1.0,153.2,M,8.4,M,,0000*6A,0
1778781917917198099,$GPGSA,M,3,20,19,05,24,17,11,30,,,,,,1.8,1.0,1.5*3E,0
1778781917917297636,$GPRMC,180725.000,A,1205.8835,S,07701.2851,W,0.00,276.01,140526,,,A*61,0
1778781917917432432,$GPGGA,180726.000,1205.8835,S,07701.2851,W,1,07,1.0,153.2,M,8.4,M,,0000*69,0
1778781917917574951,$GPGSA,M,3,20,19,05,24,17,11,30,,,,,,1.8,1.0,1.5*3E,0
1778781917917674451,$GPRMC,180726.000,A,1205.8835,S,07701.2851,W,0.00,276.01,140526,,,A*62,0
1778781917917809432,$GPGGA,180727.000,1205.8835,S,07701.2851,W,1,06,1.2,153.2,M,8.4,M,,0000*6B,0
1778781917917951765,$GPGSA,M,3,20,19,05,24,17,30,,,,,,,2.1,1.2,1.7*34,0
1778781917918047617,$GPRMC,180727.000,A,1205.8835,S,07701.2851,W,0.00,276.01,140526,,,A*63,0
1778781917918182506,$GPGGA,180728.000,1205.8835,S,07701.2851,W,1,06,1.2,153.2,M,8.4,M,,0000*64,0
1778781917918324765,$GPGSA,M,3,20,19,05,24,17,30,,,,,,,2.1,1.2,1.7*34,0
1778781917918420469,$GPGSV,3,1,12,20,74,152,46,19,42,094,44,05,38,327,33,24,24,217,30*71,0
1778781917918551636,$GPGSV,3,2,12,17,24,121,43,30,05,100,14,13,63,114,47,21,25,000,04*7C,0
1778781917918682765,$GPGSV,3,3,12,44,42,284,45,26,47,086,,28,27,153,,29,15,348,*72,0
1778781917918802654,$GPRMC,180728.000,A,1205.8835,S,07701.2851,W,0.00,276.01,140526,,,A*6C,0
1778781917918937765,$GPGGA,180729.000,1205.8835,S,07701.2851,W,1,07,1.0,153.2,M,8.4,M,,0000*66,0
1778781917919080784,$GPGSA,M,3,20,19,05,21,24,17,30,,,,,,1.9,1.0,1.6*3F,0
1778781917919183099,$GPRMC,180729.000,A,1205.8835,S,07701.2851,W,0.00,276.01,140526,,,A*6D,0
1778781918203519654,$GPGGA,180730.000,1205.8835,S,07701.2851,W,1,06,1.1,153.2,M,8.4,M,,0000*6E,0
1778781918320414580,$GPGSA,M,3,20,19,05,21,24,17,,,,,,,2.4,1.1,2.1*37,0
1778781918485434043,$GPRMC,180730.000,A,1205.8835,S,07701.2851,W,0.00,276.01,140526,,,A*65,0
1778781919204317876,$GPGGA,180731.000,1205.8835,S,07701.2851,W,1,06,1.1,153.2,M,8.4,M,,0000*6F,0
1778781919321172524,$GPGSA,M,3,20,19,05,21,24,17,,,,,,,2.4,1.1,2.1*37,0
1778781919486174820,$GPRMC,180731.000,A,1205.8835,S,07701.2851,W,0.00,276.01,140526,,,A*64,0
1778781920198222783,$GPGGA,180732.000,1205.8835,S,07701.2851,W,1,06,1.1,153.2,M,8.4,M,,0000*6C,0
1778781920315098023,$GPGSA,M,3,20,19,05,21,24,17,,,,,,,2.4,1.1,2.1*37,1
1778781920480083264,$GPRMC,180732.000,A,1205.8835,S,07701.2851,W,0.00,276.01,140526,,,A*67,1
1778781921203801486,$GPGGA,180733.000,1205.8835,S,07701.2851,W,1,06,1.1,153.2,M,8.4,M,,0000*6D,1
1778781921320677300,$GPGSA,M,3,20,19,05,21,24,17,,,,,,,2.4,1.1,2.1*37,1
1778781921481091300,$GPGSV,3,1,12,20,74,152,46,19,42,094,44,05,38,327,33,21,25,000,17*74,1
1778781921641487689,$GPGSV,3,2,12,24,24,217,30,17,24,121,43,13,63,114,47,44,42,284,45*70,1
1778781921783565874,$GPGSV,3,3,12,26,47,086,,28,27,153,,29,15,348,,23,14,046,*7D,1
1778781921948559263,$GPRMC,180733.000,A,1205.8835,S,07701.2851,W,0.00,276.01,140526,,,A*66,1
1778781922210010541,$GPGGA,180734.000,1205.8835,S,07701.2850,W,1,07,1.0,153.2,M,8.4,M,,0000*6B,1
1778781922331464633,$GPGSA,M,3,20,19,05,21,24,17,11,,,,,,2.0,1.0,1.7*37,1
1778781922496446892,$GPRMC,180734.000,A,1205.8835,S,07701.2850,W,0.00,276.01,140526,,,A*60,1
1778781923208719225,$GPGGA,180735.000,1205.8835,S,07701.2850,W,1,07,1.0,153.2,M,8.4,M,,0000*6A,1
1778781923330168540,$GPGSA,M,3,20,19,05,21,24,17,11,,,,,,2.0,1.0,1.7*37,1
1778781923495152873,$GPRMC,180735.000,A,1205.8835,S,07701.2850,W,0.00,276.01,140526,,,A*61,1
1778781924208454595,$GPGGA,180736.000,1205.8835,S,07701.2850,W,1,07,1.0,153.2,M,8.4,M,,0000*69,1
1778781924329903743,$GPGSA,M,3,20,19,05,21,24,17,11,,,,,,2.0,1.0,1.7*37,1
1778781924494938447,$GPRMC,180736.000,A,1205.8835,S,07701.2850,W,0.00,276.01,140526,,,A*62,1
1778781925211400039,$GPGGA,180737.000,1205.8835,S,07701.2850,W,1,08,1.0,153.2,M,8.4,M,,0000*67,1
1778781925337437446,$GPGSA,M,3,20,19,05,21,24,17,11,30,,,,,1.7,1.0,1.5*32,1
1778781925502354317,$GPRMC,180737.000,A,1205.8835,S,07701.2850,W,0.00,276.01,140526,,,A*63,1
1778781926209615872,$GPGGA,180738.000,1205.8835,S,07701.2850,W,1,08,1.0,153.2,M,8.4,M,,0000*68,0
1778781926335694260,$GPGSA,M,3,20,19,05,21,24,17,11,30,,,,,1.7,1.0,1.5*32,0
1778781926496075538,$GPGSV,3,1,12,20,74,152,46,19,42,094,44,05,38,327,33,21,25,000,16*75,0
1778781926656477686,$GPGSV,3,2,12,24,24,217,31,17,24,121,43,11,08,017,25,30,05,100,15*72,0
1778781926807711927,$GPGSV,3,3,12,13,63,114,46,44,42,284,45,26,47,086,,28,27,153,*73,0
1778781926972704464,$GPRMC,180738.000,A,1205.8835,S,07701.2850,W,0.00,276.01,140526,,,A*6C,0
1778781927209991778,$GPGGA,180739.000,1205.8835,S,07701.2850,W,1,08,1.0,153.1,M,8.4,M,,0000*6A,0
1778781927336063260,$GPGSA,M,3,20,19,05,21,24,17,11,30,,,,,1.7,1.0,1.5*32,0
1778781927501022000,$GPRMC,180739.000,A,1205.8835,S,07701.2850,W,0.00,276.01,140526,,,A*6D,0
1778781928207859833,$GPGGA,180740.000,1205.8835,S,07701.2850,W,1,07,1.0,153.1,M,8.4,M,,0000*6B,0
1778781928329311815,$GPGSA,M,3,20,19,05,24,17,11,30,,,,,,1.8,1.0,1.5*3E,0
1778781928494302130,$GPRMC,180740.000,A,1205.8835,S,07701.2850,W,0.00,276.01,140526,,,A*63,0
1778781929207399481,$GPGGA,180741.000,1205.8837,S,07701.2853,W,1,07,1.0,152.3,M,8.4,M,,0000*68,0
1778781929328872055,$GPGSA,M,3,20,19,05,24,17,11,30,,,,,,1.8,1.0,1.5*3E,0
1778781929493849888,$GPRMC,180741.000,A,1205.8837,S,07701.2853,W,0.60,276.01,140526,,,A*65,0
1778781930206978980,$GPGGA,180742.000,1205.8840,S,07701.2861,W,1,06,1.1,151.8,M,8.4,M,,0000*62,0
1778781930323802536,$GPGSA,M,3,20,19,05,24,17,11,,,,,,,2.0,1.1,1.7*35,0
1778781930488816017,$GPRMC,180742.000,A,1205.8840,S,07701.2861,W,4.47,271.05,140526,,,A*65,0
1778781931210442406,$GPGGA,180743.000,1205.8841,S,07701.2880,W,1,06,1.1,151.3,M,8.4,M,,0000*66,0
1778781931327313128,$GPGSA,M,3,20,19,05,24,17,11,,,,,,,2.0,1.1,1.7*35,0
1778781931487715535,$GPGSV,3,1,12,20,74,152,45,19,42,094,44,05,38,327,37,24,24,217,30*76,0
1778781931648119942,$GPGSV,3,2,12,17,24,121,43,11,08,017,14,13,63,114,46,21,25,000,24*76,0
1778781931794784461,$GPGSV,3,3,12,44,42,284,46,26,47,086,,28,27,153,,29,15,348,*71,0
1778781931959773757,$GPRMC,180743.000,A,1205.8841,S,07701.2880,W,7.91,275.47,140526,,,A*60,0
1778781932203505053,$GPGGA,180744.000,1205.8836,S,07701.2914,W,1,06,1.1,150.4,M,8.4,M,,0000*6B,0
1778781932320381498,$GPGSA,M,3,20,19,05,24,17,11,,,,,,,2.0,1.1,1.7*35,0
1778781932487675183,$GPRMC,180744.000,A,1205.8836,S,07701.2914,W,10.97,278.09,140526,,,A*5C,0
1778781933203052293,$GPGGA,180745.000,1205.8831,S,07701.2951,W,1,06,1.1,149.8,M,8.4,M,,0000*68,0
1778781933319918904,$GPGSA,M,3,20,19,05,24,17,11,,,,,,,2.0,1.1,1.7*35,0
1778781933487222293,$GPRMC,180745.000,A,1205.8831,S,07701.2951,W,11.81,277.32,140526,,,A*5A,0
1778781934209261441,$GPGGA,180746.000,1205.8825,S,07701.2988,W,1,06,1.1,149.4,M,8.4,M,,0000*66,0
1778781934326131237,$GPGSA,M,3,20,19,05,24,17,11,,,,,,,2.0,1.1,1.7*35,0
1778781934493414700,$GPRMC,180746.000,A,1205.8825,S,07701.2988,W,12.01,277.83,140526,,,A*59,0
1778781935206089514,$GPGGA,180747.000,1205.8822,S,07701.3022,W,1,07,1.0,149.2,M,8.4,M,,0000*6E,0
1778781935327537848,$GPGSA,M,3,20,19,05,21,24,17,11,,,,,,2.0,1.0,1.7*37,0
1778781935494821366,$GPRMC,180747.000,A,1205.8822,S,07701.3022,W,10.80,277.39,140526,,,A*5D,0
1778781936200840643,$GPGGA,180748.000,1205.8822,S,07701.3049,W,1,07,1.0,149.2,M,8.4,M,,0000*6C,0
1778781936322291736,$GPGSA,M,3,20,19,05,21,24,17,11,,,,,,2.0,1.0,1.7*37,0
1778781936482712921,$GPGSV,3,1,12,20,74,152,37,19,42,094,46,05,38,327,24,21,25,000,35*76,0
1778781936643109032,$GPGSV,3,2,12,24,24,217,36,17,24,121,30,11,08,017,18,13,63,114,46*7D,0
1778781936789767310,$GPGSV,3,3,12,44,42,284,46,26,47,086,,28,27,153,,29,15,348,*71,0
1778781936954783717,$GPRMC,180748.000,A,1205.8822,S,07701.3049,W,7.84,274.97,140526,,,A*6A,0
1778781937214550976,$GPGGA,180749.000,1205.8817,S,07701.3066,W,1,07,1.0,149.6,M,8.4,M,,0000*62,0
1778781937336027309,$GPGSA,M,3,20,19,05,21,24,17,11,,,,,,2.0,1.0,1.7*37,0
1778781937500989680,$GPRMC,180749.000,A,1205.8817,S,07701.3066,W,6.06,276.55,140526,,,A*67,0
1778781938206170290,$GPGGA,180750.000,1205.8815,S,07701.3088,W,1,07,1.0,149.1,M,8.4,M,,0000*6F,0
1778781938327620050,$GPGSA,M,3,20,19,05,21,24,17,11,,,,,,2.0,1.0,1.7*37,0
1778781938492609457,$GPRMC,180750.000,A,1205.8815,S,07701.3088,W,6.93,277.94,140526,,,A*6D,0
1778781939208834494,$GPGGA,180751.000,1205.8815,S,07701.3111,W,1,07,1.0,149.1,M,8.4,M,,0000*6F,0
1778781939330281493,$GPGSA,M,3,20,19,05,21,24,17,11,,,,,,2.0,1.0,1.7*37,0
1778781939495290530,$GPRMC,180751.000,A,1205.8815,S,07701.3111,W,8.12,273.89,140526,,,A*62,0
1778781940210453697,$GPGGA,180752.000,1205.8816,S,07701.3133,W,1,08,1.0,149.2,M,8.4,M,,0000*63,0
1778781940336509419,$GPGSA,M,3,20,19,05,21,24,17,11,30,,,,,1.7,1.0,1.5*32,0
1778781940501475159,$GPRMC,180752.000,A,1205.8816,S,07701.3133,W,5.80,271.45,140526,,,A*66,0
1778781941209359974,$GPGGA,180753.000,1205.8815,S,07701.3147,W,1,08,1.0,149.6,M,8.4,M,,0000*66,0
1778781941335420159,$GPGSA,M,3,20,19,05,21,24,17,11,30,,,,,1.7,1.0,1.5*32,0
1778781941495850418,$GPGSV,3,1,12,20,74,152,42,19,42,094,46,05,38,327,24,21,25,000,25*75,0
1778781941656220288,$GPGSV,3,2,12,24,24,217,37,17,24,121,29,11,08,017,27,30,05,100,23*7F,0
1778781941807461585,$GPGSV,3,3,12,13,63,114,46,44,42,284,47,26,47,086,,28,27,153,*71,0
1778781941972445214,$GPRMC,180753.000,A,1205.8815,S,07701.3147,W,3.96,268.45,140526,,,A*6E,0
1778781942209946436,$GPGGA,180754.000,1205.8817,S,07701.3159,W,1,08,1.0,150.4,M,8.4,M,,0000*66,0
1778781942336012806,$GPGSA,M,3,20,19,05,21,24,17,11,30,,,,,1.7,1.0,1.5*32,0
1778781942501000288,$GPRMC,180754.000,A,1205.8817,S,07701.3159,W,5.66,261.42,140526,,,A*63,0
1778781943209891454,$GPGGA,180755.000,1205.8824,S,07701.3182,W,1,08,1.0,150.7,M,8.4,M,,0000*62,0
1778781943335963065,$GPGSA,M,3,20,19,05,21,24,17,11,30,,,,,1.7,1.0,1.5*32,0
1778781943500924732,$GPRMC,180755.000,A,1205.8824,S,07701.3182,W,9.38,258.08,140526,,,A*67,0
1778781944205067416,$GPGGA,180756.000,1205.8833,S,07701.3212,W,1,08,1.0,151.2,M,8.4,M,,0000*69,0
1778781944331103953,$GPGSA,M,3,20,19,05,21,24,17,11,30,,,,,1.7,1.0,1.5*32,0
1778781944498382509,$GPRMC,180756.000,A,1205.8833,S,07701.3212,W,12.00,261.43,140526,,,A*5C,0
1778781945208563231,$GPGGA,180757.000,1205.8819,S,07701.3266,W,1,08,1.0,151.6,M,8.4,M,,0000*67,0
1778781945334640268,$GPGSA,M,3,20,19,05,21,24,17,11,30,,,,,1.7,1.0,1.5*32,0
1778781945501876008,$GPRMC,180757.000,A,1205.8819,S,07701.3266,W,16.48,273.28,140526,,,A*50,0
1778781946215179637,$GPGGA,180758.000,1205.8805,S,07701.3326,W,1,07,1.0,151.3,M,8.4,M,,0000*6A,0
1778781946336683452,$GPGSA,M,3,20,19,05,24,17,11,30,,,,,,1.8,1.0,1.5*3E,0
1778781946497035397,$GPGSV,3,1,12,20,74,152,44,19,42,094,47,05,38,327,39,24,24,217,38*72,0
1778781946657447378,$GPGSV,3,2,12,17,24,121,42,11,08,017,18,30,05,100,26,13,63,114,46*7A,0
1778781946808694378,$GPGSV,3,3,12,21,25,000,08,44,42,284,46,26,47,086,,28,27,153,*7D,0
1778781946975979767,$GPRMC,180758.000,A,1205.8805,S,07701.3326,W,19.22,277.65,140526,,,A*59,0
1778781947212228489,$GPGGA,180759.000,1205.8798,S,07701.3388,W,1,06,1.1,151.1,M,8.4,M,,0000*66,0
1778781947329098544,$GPGSA,M,3,20,19,05,24,17,11,,,,,,,2.0,1.1,1.7*35,0
1778781947496371989,$GPRMC,180759.000,A,1205.8798,S,07701.3388,W,21.85,277.02,140526,,,A*50,0
1778781948204875840,$GPGGA,180800.000,1205.8788,S,07701.3455,W,1,06,1.1,150.8,M,8.4,M,,0000*6B,0
1778781948321745877,$GPGSA,M,3,20,19,05,21,24,17,,,,,,,2.4,1.1,2.1*37,0
1778781948489045803,$GPRMC,180800.000,A,1205.8788,S,07701.3455,W,24.13,278.03,140526,,,A*51,0
1778781949209635932,$GPGGA,180801.000,1205.8779,S,07701.3525,W,1,08,1.0,151.0,M,8.4,M,,0000*64,0
1778781949335702487,$GPGSA,M,3,20,19,05,21,24,17,11,30,,,,,1.7,1.0,1.5*32,0
1778781949502953117,$GPRMC,180801.000,A,1205.8779,S,07701.3525,W,25.75,278.29,140526,,,A*51,0
1778781950209162154,$GPGGA,180802.000,1205.8769,S,07701.3602,W,1,08,1.0,151.1,M,8.4,M,,0000*61,0
1778781950335222413,$GPGSA,M,3,20,19,05,21,24,17,11,30,,,,,1.7,1.0,1.5*32,0
1778781950502490468,$GPRMC,180802.000,A,1205.8769,S,07701.3602,W,27.85,278.53,140526,,,A*55,0
1778781951207304338,$GPGGA,180803.000,1205.8761,S,07701.3683,W,1,07,1.0,150.9,M,8.4,M,,0000*67,0
1778781951328703542,$GPGSA,M,3,20,19,05,21,24,17,30,,,,,,1.9,1.0,1.6*3F,0
1778781951489112394,$GPGSV,3,1,12,20,74,152,44,19,42,094,46,05,38,327,24,21,25,000,34*73,0
1778781951649514875,$GPGSV,3,2,12,24,24,217,35,17,24,121,43,30,05,100,33,11,08,017,06*73,0
1778781951800771505,$GPGSV,3,3,12,13,63,114,46,44,42,284,47,26,47,086,,28,27,153,*71,0
1778781951968050227,$GPRMC,180803.000,A,1205.8761,S,07701.3683,W,27.97,277.50,140526,,,A*5A,0
1778781952204903615,$GPGGA,180804.000,1205.8750,S,07701.3761,W,1,06,1.2,150.4,M,8.4,M,,0000*61,0
1778781952321776782,$GPGSA,M,3,20,19,05,24,17,30,,,,,,,2.1,1.2,1.7*34,0
1778781952489067541,$GPRMC,180804.000,A,1205.8750,S,07701.3761,W,26.67,277.61,140526,,,A*5E,0
1778781953204446337,$GPGGA,180805.000,1205.8740,S,07701.3836,W,1,06,1.2,150.1,M,8.4,M,,0000*69,0
1778781953321319707,$GPGSA,M,3,20,19,05,24,17,30,,,,,,,2.1,1.2,1.7*34,0
1778781953488658855,$GPRMC,180805.000,A,1205.8740,S,07701.3836,W,25.34,277.96,140526,,,A*5E,0
1778781954207757299,$GPGGA,180806.000,1205.8731,S,07701.3908,W,1,07,1.0,149.5,M,8.4,M,,0000*6F,0
1778781954329197540,$GPGSA,M,3,20,19,05,21,24,17,30,,,,,,1.9,1.0,1.6*3F,0
1778781954496473096,$GPRMC,180806.000,A,1205.8731,S,07701.3908,W,24.50,277.87,140526,,,A*54,0
1778781955203956669,$GPGGA,180807.000,1205.8719,S,07701.3976,W,1,07,1.0,149.2,M,8.4,M,,0000*6A,0
1778781955325394502,$GPGSA,M,3,20,19,05,21,24,17,30,,,,,,1.9,1.0,1.6*3F,0
1778781955492675039,$GPRMC,180807.000,A,1205.8719,S,07701.3976,W,23.37,278.23,140526,,,A*51,0
1778781956206606909,$GPGGA,180808.000,1205.8708,S,07701.4040,W,1,07,1.0,149.1,M,8.4,M,,0000*6D,0
1778781956328084631,$GPGSA,M,3,20,19,05,21,24,17,30,,,,,,1.9,1.0,1.6*3F,0
1778781956488483020,$GPGSV,3,1,12,20,74,152,44,19,42,094,47,05,38,327,36,21,25,000,19*7E,0
1778781956648873520,$GPGSV,3,2,12,24,24,217,31,17,24,121,41,30,05,100,34,13,63,114,46*7B,0
1778781956795545520,$GPGSV,3,3,12,44,42,284,46,26,47,086,,28,27,153,,29,15,348,*71,0
1778781956962815557,$GPRMC,180808.000,A,1205.8708,S,07701.4040,W,22.55,278.94,140526,,,A*5C,0
1778781957205510112,$GPGGA,180809.000,1205.8686,S,07701.4110,W,1,07,1.0,147.3,M,8.4,M,,0000*63,0
1778781957326975223,$GPGSA,M,3,20,19,05,21,24,17,30,,,,,,1.9,1.0,1.6*3F,0
1778781957494258557,$GPRMC,180809.000,A,1205.8686,S,07701.4110,W,22.11,278.31,140526,,,A*51,0
1778781958206741093,$GPGGA,180810.000,1205.8671,S,07701.4174,W,1,07,1.0,146.2,M,8.4,M,,0000*61,0
1778781958328174241,$GPGSA,M,3,20,19,05,21,24,17,30,,,,,,1.9,1.0,1.6*3F,0
1778781958495470834,$GPRMC,180810.000,A,1205.8671,S,07701.4174,W,20.82,278.60,140526,,,A*5F,0
1778781959207938370,$GPGGA,180811.000,1205.8660,S,07701.4231,W,1,07,1.0,145.5,M,8.4,M,,0000*66,0
1778781959329395574,$GPGSA,M,3,20,19,05,21,24,17,30,,,,,,1.9,1.0,1.6*3F,0
1778781959496682037,$GPRMC,180811.000,A,1205.8660,S,07701.4231,W,18.84,278.86,140526,,,A*59,0
1778781960203715703,$GPGGA,180812.000,1205.8651,S,07701.4282,W,1,07,1.0,145.0,M,8.4,M,,0000*6A,0
1778781960325180870,$GPGSA,M,3,20,19,05,21,24,17,30,,,,,,1.9,1.0,1.6*3F,0
1778781960492464907,$GPRMC,180812.000,A,1205.8651,S,07701.4282,W,16.81,278.78,140526,,,A*5A,0
1778781961203463795,$GPGGA,180813.000,1205.8645,S,07701.4326,W,1,06,1.2,144.8,M,8.4,M,,0000*6B,0
1778781961320335962,$GPGSA,M,3,20,19,05,24,17,30,,,,,,,2.1,1.2,1.7*34,0
1778781961480757758,$GPGSV,3,1,12,20,74,152,44,19,42,094,47,05,38,327,42,24,24,217,39*7F,0
1778781961641153017,$GPGSV,3,2,12,17,24,121,44,30,05,100,30,11,08,017,15,13,63,114,46*76,0
1778781961787810999,$GPGSV,3,3,12,44,42,284,47,26,47,086,,28,27,153,,21,25,000,*74,0
1778781961955093869,$GPRMC,180813.000,A,1205.8645,S,07701.4326,W,14.91,278.15,140526,,,A*59,0
1778781962204464258,$GPGGA,180814.000,1205.8640,S,07701.4365,W,1,06,1.2,144.6,M,8.4,M,,0000*60,0
1778781962321338850,$GPGSA,M,3,20,19,05,24,17,30,,,,,,,2.1,1.2,1.7*34,0
1778781962488650924,$GPRMC,180814.000,A,1205.8640,S,07701.4365,W,13.52,277.36,140526,,,A*5A,0
1778781963205458127,$GPGGA,180815.000,1205.8635,S,07701.4400,W,1,06,1.2,144.4,M,8.4,M,,0000*65,0
1778781963322322331,$GPGSA,M,3,20,19,05,24,17,30,,,,,,,2.1,1.2,1.7*34,0
1778781963489611572,$GPRMC,180815.000,A,1205.8635,S,07701.4400,W,11.50,277.98,140526,,,A*59,0
1778781964206891849,$GPGGA,180816.000,1205.8631,S,07701.4429,W,1,07,1.0,144.1,M,8.4,M,,0000*6F,0
1778781964328331812,$GPGSA,M,3,20,19,05,21,24,17,30,,,,,,1.9,1.0,1.6*3F,0
1778781964493331015,$GPRMC,180816.000,A,1205.8631,S,07701.4429,W,9.61,279.69,140526,,,A*6E,0
1778781965204115219,$GPGGA,180817.000,1205.8630,S,07701.4452,W,1,06,1.2,144.0,M,8.4,M,,0000*61,0
1778781965320982756,$GPGSA,M,3,20,19,05,24,17,30,,,,,,,2.1,1.2,1.7*34,0
1778781965485983515,$GPRMC,180817.000,A,1205.8630,S,07701.4452,W,8.12,279.94,140526,,,A*65,0
1778781966208868163,$GPGGA,180818.000,1205.8628,S,07701.4470,W,1,07,1.0,143.8,M,8.4,M,,0000*6B,0
1778781966330333033,$GPGSA,M,3,20,19,05,21,24,17,30,,,,,,1.9,1.0,1.6*3F,0
1778781966490738774,$GPGSV,3,1,12,20,74,152,44,19,42,094,47,05,38,327,44,21,25,000,17*75,0
1778781966651138310,$GPGSV,3,2,12,24,24,217,41,17,24,121,44,30,05,100,30,11,08,017,20*70,0
1778781966802386070,$GPGSV,3,3,12,13,63,114,46,44,42,284,46,26,47,086,,28,27,153,*70,0
1778781966967370421,$GPRMC,180818.000,A,1205.8628,S,07701.4470,W,5.16,280.24,140526,,,A*67,0
1778781967202790069,$GPGGA,180819.000,1205.8628,S,07701.4479,W,1,07,1.0,143.5,M,8.4,M,,0000*6E,1
1778781967324236940,$GPGSA,M,3,20,19,05,21,24,17,30,,,,,,1.9,1.0,1.6*3F,1
1778781967489229514,$GPRMC,180819.000,A,1205.8628,S,07701.4479,W,1.85,280.80,140526,,,A*6F,1
1778781968207526680,$GPGGA,180820.000,1205.8627,S,07701.4480,W,1,07,1.0,143.5,M,8.4,M,,0000*6D,1
1778781968328976143,$GPGSA,M,3,20,19,05,21,24,17,30,,,,,,1.9,1.0,1.6*3F,1
1778781968493968828,$GPRMC,180820.000,A,1205.8627,S,07701.4480,W,0.13,280.80,140526,,,A*62,1
1778781969210610105,$GPGGA,180821.000,1205.8627,S,07701.4480,W,1,08,1.0,143.5,M,8.4,M,,0000*63,1
1778781969336671513,$GPGSA,M,3,20,19,05,21,24,17,11,30,,,,,1.7,1.0,1.5*32,1
1778781969501626253,$GPRMC,180821.000,A,1205.8627,S,07701.4480,W,0.01,280.80,140526,,,A*60,1
1778781970210168494,$GPGGA,180822.000,1205.8627,S,07701.4480,W,1,08,1.0,143.5,M,8.4,M,,0000*60,1
1778781970336216160,$GPGSA,M,3,20,19,05,21,24,17,11,30,,,,,1.7,1.0,1.5*32,1
1778781970501223327,$GPRMC,180822.000,A,1205.8627,S,07701.4480,W,0.00,280.80,140526,,,A*62,1
1778781971210106289,$GPGGA,180823.000,1205.8626,S,07701.4483,W,1,08,1.0,143.2,M,8.4,M,,0000*64,1
1778781971336162604,$GPGSA,M,3,20,19,05,21,24,17,11,30,,,,,1.7,1.0,1.5*32,1
1778781971496545993,$GPGSV,3,1,12,20,74,152,44,19,42,094,48,05,38,327,43,21,25,000,24*7D,1
1778781971656956530,$GPGSV,3,2,12,24,24,217,40,17,24,121,46,11,08,017,22,30,05,100,31*70,1
1778781971808192419,$GPGSV,3,3,12,13,63,114,46,44,42,284,47,26,47,086,,28,27,153,*71,1
1778781971973194900,$GPRMC,180823.000,A,1205.8626,S,07701.4483,W,1.55,282.06,140526,,,A*6C,1
1778781972210675826,$GPGGA,180824.000,1205.8625,S,07701.4491,W,1,08,1.0,143.0,M,8.4,M,,0000*61,1
1778781972336745603,$GPGSA,M,3,20,19,05,21,24,17,11,30,,,,,1.7,1.0,1.5*32,1
1778781972501710085,$GPRMC,180824.000,A,1205.8625,S,07701.4491,W,4.25,279.55,140526,,,A*6B,1
1778781973211048473,$GPGGA,180825.000,1205.8623,S,07701.4504,W,1,08,1.0,142.7,M,8.4,M,,0000*6D,1
1778781973337094436,$GPGSA,M,3,20,19,05,21,24,17,11,30,,,,,1.7,1.0,1.5*32,1
1778781973502084232,$GPRMC,180825.000,A,1205.8623,S,07701.4504,W,4.52,277.50,140526,,,A*6A,1
1778781974209335954,$GPGGA,180826.000,1205.8623,S,07701.4514,W,1,08,1.0,142.7,M,8.4,M,,0000*6F,1
1778781974335406732,$GPGSA,M,3,20,19,05,21,24,17,11,30,,,,,1.7,1.0,1.5*32,1
1778781974500371547,$GPRMC,180826.000,A,1205.8623,S,07701.4514,W,2.65,268.23,140526,,,A*60,1
1778781975209300268,$GPGGA,180827.000,1205.8623,S,07701.4521,W,1,08,1.0,142.5,M,8.4,M,,0000*6A,1
1778781975335349491,$GPGSA,M,3,20,19,05,21,24,17,11,30,,,,,1.7,1.0,1.5*32,1
1778781975500327657,$GPRMC,180827.000,A,1205.8623,S,07701.4521,W,2.27,283.75,140526,,,A*67,1
1778781975546150842,$PSRF156,23,1,0*09,1
1778781976205916860,$GPGGA,180828.000,1205.8620,S,07701.4526,W,1,08,1.0,142.2,M,8.4,M,,0000*66,1
1778781976331967934,$GPGSA,M,3,20,19,05,24,21,17,11,30,,,,,1.7,1.0,1.5*32,1
1778781976492364508,$GPGSV,3,1,12,20,75,149,44,19,42,095,47,05,37,328,31,24,25,216,40*7F,1
1778781976652767527,$GPGSV,3,2,12,21,25,000,38,17,24,121,46,11,09,017,32,30,05,099,34*7B,1
1778781976804036990,$GPGSV,3,3,12,13,63,112,27,44,42,284,32,26,46,084,,28,26,153,*70,1
1778781976969007508,$GPRMC,180828.000,A,1205.8620,S,07701.4526,W,1.89,296.99,140526,,,A*6D,1
1778781977207954415,$GPGGA,180829.000,1205.8617,S,07701.4530,W,1,08,1.0,142.0,M,8.4,M,,0000*66,1
1778781977334018526,$GPGSA,M,3,20,19,05,24,21,17,11,30,,,,,1.7,1.0,1.5*32,1
1778781977498993082,$GPRMC,180829.000,A,1205.8617,S,07701.4530,W,2.08,309.23,140526,,,A*63,1
1778781978207700378,$GPGGA,180830.000,1205.8610,S,07701.4534,W,1,08,1.0,141.8,M,8.4,M,,0000*66,1
1778781978333732433,$GPGSA,M,3,20,19,05,24,21,17,11,30,,,,,1.7,1.0,1.5*32,1
1778781978498739766,$GPRMC,180830.000,A,1205.8610,S,07701.4534,W,2.94,327.11,140526,,,A*60,1
1778781979207032303,$GPGGA,180831.000,1205.8600,S,07701.4537,W,1,08,1.0,141.5,M,8.4,M,,0000*68,1
1778781979333068118,$GPGSA,M,3,20,19,05,24,21,17,11,30,,,,,1.7,1.0,1.5*32,1
1778781979498072655,$GPRMC,180831.000,A,1205.8600,S,07701.4537,W,4.60,349.27,140526,,,A*63,1
1778781980206568284,$GPGGA,180832.000,1205.8584,S,07701.4535,W,1,08,1.0,141.3,M,8.4,M,,0000*60,1
1778781980332601932,$GPGSA,M,3,20,19,05,24,21,17,11,30,,,,,1.7,1.0,1.5*32,1
1778781980495317469,$GPRMC,180832.000,A,1205.8584,S,07701.4535,W,6.26,11.29,140526,,,A*5D,1
1778781981205915654,$GPGGA,180833.000,1205.8567,S,07701.4529,W,1,08,1.0,141.5,M,8.4,M,,0000*67,1
1778781981331933783,$GPGSA,M,3,20,19,05,24,21,17,11,30,,,,,1.7,1.0,1.5*32,1
1778781981492354765,$GPGSV,3,1,12,20,75,149,45,19,42,095,31,05,37,328,42,24,25,216,42*79,1
1778781981652771616,$GPGSV,3,2,12,21,25,000,33,17,24,121,38,11,09,017,33,30,05,099,27*7A,1
1778781981808587061,$GPGSV,3,3,12,13,63,112,27,14,03,140,18,44,42,284,27,26,46,084,*77,1
1778781981971278357,$GPRMC,180833.000,A,1205.8567,S,07701.4529,W,7.40,22.13,140526,,,A*54,1
1778781982206477394,$GPGGA,180834.000,1205.8546,S,07701.4521,W,1,08,1.0,141.6,M,8.4,M,,0000*68,1
1778781982332518709,$GPGSA,M,3,20,19,05,24,21,17,11,30,,,,,1.7,1.0,1.5*32,1
1778781982495224097,$GPRMC,180834.000,A,1205.8546,S,07701.4521,W,8.16,21.76,140526,,,A*54,1
1778781983207490690,$GPGGA,180835.000,1205.8523,S,07701.4515,W,1,08,1.0,142.0,M,8.4,M,,0000*68,1
1778781983333523319,$GPGSA,M,3,20,19,05,24,21,17,11,30,,,,,1.7,1.0,1.5*32,1
1778781983496220745,$GPRMC,180835.000,A,1205.8523,S,07701.4515,W,8.48,15.71,140526,,,A*5A,1
1778781984207283189,$GPGGA,180836.000,1205.8500,S,07701.4510,W,1,08,1.0,142.3,M,8.4,M,,0000*6C,1
1778781984333301596,$GPGSA,M,3,20,19,05,24,21,17,11,30,,,,,1.7,1.0,1.5*32,1
1778781984495958781,$GPRMC,180836.000,A,1205.8500,S,07701.4510,W,7.45,14.67,140526,,,A*59,1
1778781985206773633,$GPGGA,180837.000,1205.8481,S,07701.4507,W,1,08,1.0,142.5,M,8.4,M,,0000*65,1
1778781985332792392,$GPGSA,M,3,20,19,05,24,21,17,11,30,,,,,1.7,1.0,1.5*32,1
1778781985495497429,$GPRMC,180837.000,A,1205.8481,S,07701.4507,W,6.77,13.78,140526,,,A*5F,1
1778781986207131632,$GPGGA,180838.000,1205.8462,S,07701.4503,W,1,08,1.0,142.7,M,8.4,M,,0000*61,1
1778781986333172614,$GPGSA,M,3,20,19,05,24,21,17,11,30,,,,,1.7,1.0,1.5*32,1
1778781986493640225,$GPGSV,3,1,12,20,75,149,46,19,42,095,28,05,37,328,43,24,25,216,36*70,1
1778781986653986447,$GPGSV,3,2,12,21,25,000,28,17,24,121,27,11,09,017,28,30,05,099,23*70,1
1778781986809814336,$GPGSV,3,3,12,13,63,112,41,14,03,140,18,44,42,284,43,26,46,084,*75,1
1778781986972513409,$GPRMC,180838.000,A,1205.8462,S,07701.4503,W,6.67,14.79,140526,,,A*5E,1
1778781987211479706,$GPGGA,180839.000,1205.8445,S,07701.4499,W,1,06,1.1,142.8,M,8.4,M,,0000*67,1
1778781987328331113,$GPGSA,M,3,20,05,24,21,17,11,,,,,,,2.1,1.1,1.8*30,1
1778781987491040613,$GPRMC,180839.000,A,1205.8445,S,07701.4499,W,5.77,14.35,140526,,,A*52,1
1778781988213511020,$GPGGA,180840.000,1205.8430,S,07701.4496,W,1,07,1.0,143.1,M,8.4,M,,0000*6C,1
1778781988335000094,$GPGSA,M,3,20,19,05,24,21,17,11,,,,,,2.0,1.0,1.7*37,1
1778781988497674260,$GPRMC,180840.000,A,1205.8430,S,07701.4496,W,5.53,14.42,140526,,,A*57,1
1778781989203264890,$GPGGA,180841.000,1205.8414,S,07701.4490,W,1,07,1.0,143.1,M,8.4,M,,0000*6D,1
1778781989324699278,$GPGSA,M,3,20,19,05,24,21,17,11,,,,,,2.0,1.0,1.7*37,1
1778781989487405704,$GPRMC,180841.000,A,1205.8414,S,07701.4490,W,6.27,21.62,140526,,,A*52,1
1778781990208416408,$GPGGA,180842.000,1205.8398,S,07701.4481,W,1,07,1.0,143.0,M,8.4,M,,0000*6C,1
1778781990329872093,$GPGSA,M,3,20,19,05,24,17,11,30,,,,,,1.8,1.0,1.5*3E,1
1778781990492573981,$GPRMC,180842.000,A,1205.8398,S,07701.4481,W,5.34,24.52,140526,,,A*55,1
1778781991207535314,$GPGGA,180843.000,1205.8384,S,07701.4473,W,1,06,1.1,142.9,M,8.4,M,,0000*65,1
1778781991324414444,$GPGSA,M,3,20,19,05,24,17,11,,,,,,,2.0,1.1,1.7*35,1
1778781991484816129,$GPGSV,3,1,12,20,75,149,46,19,42,095,44,05,37,328,42,24,25,216,34*79,1
1778781991645225833,$GPGSV,3,2,12,17,24,121,25,11,09,017,21,13,63,112,40,14,03,140,25*77,1
1778781991796468666,$GPGSV,3,3,12,30,05,099,18,44,42,284,41,26,46,084,,28,26,153,*7B,1
1778781991959177684,$GPRMC,180843.000,A,1205.8384,S,07701.4473,W,4.82,23.76,140526,,,A*59,1
1778781992208324147,$GPGGA,180844.000,1205.8371,S,07701.4467,W,1,07,1.0,142.7,M,8.4,M,,0000*63,1
1778781992329772573,$GPGSA,M,3,20,19,05,24,21,17,11,,,,,,2.0,1.0,1.7*37,1
1778781992492530906,$GPRMC,180844.000,A,1205.8371,S,07701.4467,W,4.45,20.13,140526,,,A*5A,1
1778781993208062443,$GPGGA,180845.000,1205.8356,S,07701.4462,W,1,07,1.0,142.6,M,8.4,M,,0000*63,1
1778781993329528758,$GPGSA,M,3,20,19,05,24,21,17,11,,,,,,2.0,1.0,1.7*37,1
1778781993492230794,$GPRMC,180845.000,A,1205.8356,S,07701.4462,W,5.59,19.48,140526,,,A*53,1
1778781994207609294,$GPGGA,180846.000,1205.8340,S,07701.4456,W,1,07,1.0,142.6,M,8.4,M,,0000*60,1
1778781994329060609,$GPGSA,M,3,20,19,05,24,21,17,11,,,,,,2.0,1.0,1.7*37,1
1778781994491841109,$GPRMC,180846.000,A,1205.8340,S,07701.4456,W,6.09,20.70,140526,,,A*57,1
1778781995208821182,$GPGGA,180847.000,1205.8322,S,07701.4448,W,1,07,1.0,142.5,M,8.4,M,,0000*69,1
1778781995330258571,$GPGSA,M,3,20,19,05,24,21,17,11,,,,,,2.0,1.0,1.7*37,1
1778781995492989719,$GPRMC,180847.000,A,1205.8322,S,07701.4448,W,6.79,22.20,140526,,,A*5D,1
1778781996207320200,$GPGGA,180848.000,1205.8304,S,07701.4440,W,1,07,1.0,142.4,M,8.4,M,,0000*6B,1
1778781996328763774,$GPGSA,M,3,20,19,05,24,21,17,11,,,,,,2.0,1.0,1.7*37,1
1778781996489180478,$GPGSV,3,1,12,20,75,149,45,19,42,095,43,05,37,328,41,24,25,216,34*7E,1
1778781996649571070,$GPGSV,3,2,12,21,25,000,34,17,24,121,37,11,09,017,23,13,63,112,41*70,1
1778781996800819107,$GPGSV,3,3,12,14,03,140,22,44,42,284,40,26,46,084,,28,26,153,*76,1
1778781996963520589,$GPRMC,180848.000,A,1205.8304,S,07701.4440,W,7.06,22.96,140526,,,A*5A,1
1778781997203934422,$GPGGA,180849.000,1205.8286,S,07701.4432,W,1,07,1.0,142.2,M,8.4,M,,0000*62,1
1778781997325390403,$GPGSA,M,3,20,19,05,24,21,17,11,,,,,,2.0,1.0,1.7*37,1
1778781997488081107,$GPRMC,180849.000,A,1205.8286,S,07701.4432,W,6.85,22.84,140526,,,A*5C,1
1778781998204306607,$GPGGA,180850.000,1205.8268,S,07701.4423,W,1,07,1.0,142.4,M,8.4,M,,0000*6C,1
1778781998325743403,$GPGSA,M,3,20,19,05,24,21,17,11,,,,,,2.0,1.0,1.7*37,1
1778781998488455143,$GPRMC,180850.000,A,1205.8268,S,07701.4423,W,5.84,22.89,140526,,,A*5B,1
1778781999208833439,$GPGGA,180851.000,1205.8252,S,07701.4416,W,1,07,1.0,142.6,M,8.4,M,,0000*60,1
1778781999330291569,$GPGSA,M,3,20,19,05,24,21,17,11,,,,,,2.0,1.0,1.7*37,1
1778781999492999421,$GPRMC,180851.000,A,1205.8252,S,07701.4416,W,5.73,22.77,140526,,,A*5C,1
1778782000209691957,$GPGGA,180852.000,1205.8238,S,07701.4409,W,1,07,1.0,142.6,M,8.4,M,,0000*61,1
1778782000331077309,$GPGSA,M,3,20,19,05,24,21,17,11,,,,,,2.0,1.0,1.7*37,1
1778782000493783309,$GPRMC,180852.000,A,1205.8238,S,07701.4409,W,4.91,24.59,140526,,,A*5A,1
1778782001204163827,$GPGGA,180853.000,1205.8227,S,07701.4403,W,1,07,1.0,142.6,M,8.4,M,,0000*64,1
1778782001325625734,$GPGSA,M,3,20,19,05,24,21,17,11,,,,,,2.0,1.0,1.7*37,1
1778782001486034364,$GPGSV,3,1,12,20,75,149,44,19,42,095,42,05,37,328,40,24,25,216,43*7F,1
1778782001646436956,$GPGSV,3,2,12,21,25,000,34,17,24,121,38,11,09,017,26,13,63,112,41*7A,1
1778782001797675493,$GPGSV,3,3,12,14,03,140,12,44,42,284,40,26,46,084,,28,26,153,*75,1
1778782001960397549,$GPRMC,180853.000,A,1205.8227,S,07701.4403,W,3.88,28.66,140526,,,A*50,1
1778782002205785400,$GPGGA,180854.000,1205.8219,S,07701.4397,W,1,07,1.0,142.5,M,8.4,M,,0000*67,1
1778782002327253567,$GPGSA,M,3,20,19,05,24,21,17,11,,,,,,2.0,1.0,1.7*37,1
1778782002489944530,$GPRMC,180854.000,A,1205.8219,S,07701.4397,W,3.18,35.55,140526,,,A*55,1
1778782003210526844,$GPGGA,180855.000,1205.8211,S,07701.4390,W,1,07,1.0,142.5,M,8.4,M,,0000*69,1
1778782003331978400,$GPGSA,M,3,20,19,05,24,21,17,11,,,,,,2.0,1.0,1.7*37,1
1778782003494686751,$GPRMC,180855.000,A,1205.8211,S,07701.4390,W,4.07,47.39,140526,,,A*5D,1
1778782004209663584,$GPGGA,180856.000,1205.8205,S,07701.4378,W,1,07,1.0,142.4,M,8.4,M,,0000*68,1
1778782004331107732,$GPGSA,M,3,20,19,05,24,21,17,11,,,,,,2.0,1.0,1.7*37,1
1778782004493822381,$GPRMC,180856.000,A,1205.8205,S,07701.4378,W,5.30,65.01,140526,,,A*53,1
1778782005210022306,$GPGGA,180857.000,1205.8202,S,07701.4360,W,1,07,1.0,142.5,M,8.4,M,,0000*66,1
1778782005331482436,$GPGSA,M,3,20,19,05,24,21,17,11,,,,,,2.0,1.0,1.7*37,1
1778782005494186843,$GPRMC,180857.000,A,1205.8202,S,07701.4360,W,7.44,79.33,140526,,,A*51,1
1778782006209595194,$GPGGA,180858.000,1205.8203,S,07701.4334,W,1,07,1.0,142.6,M,8.4,M,,0000*6A,1
1778782006331014602,$GPGSA,M,3,20,19,05,24,21,17,11,,,,,,2.0,1.0,1.7*37,1
1778782006491434435,$GPGSV,3,1,12,20,75,149,43,19,42,095,39,05,37,328,23,24,25,216,36*73,1
1778782006651833953,$GPGSV,3,2,12,21,25,000,29,17,24,121,29,11,09,017,21,13,63,112,41*71,1
1778782006807687046,$GPGSV,3,3,12,14,03,140,15,30,05,099,24,44,42,284,42,26,46,084,*79,1
1778782006972710694,$GPRMC,180858.000,A,1205.8203,S,07701.4334,W,10.38,90.23,140526,,,A*65,1
1778782007213272768,$GPGGA,180859.000,1205.8206,S,07701.4302,W,1,08,1.0,142.7,M,8.4,M,,0000*65,1
1778782007339329046,$GPGSA,M,3,20,19,05,24,21,17,11,30,,,,,1.7,1.0,1.5*32,1
1778782007504305453,$GPRMC,180859.000,A,1205.8206,S,07701.4302,W,11.99,93.96,140526,,,A*63,1
1778782008206775323,$GPGGA,180900.000,1205.8211,S,07701.4268,W,1,08,1.0,142.8,M,8.4,M,,0000*6C,1
1778782008332798063,$GPGSA,M,3,20,19,05,24,21,17,11,30,,,,,1.7,1.0,1.5*32,1
1778782008497806915,$GPRMC,180900.000,A,1205.8211,S,07701.4268,W,11.94,96.02,140526,,,A*60,1
1778782009213056081,$GPGGA,180901.000,1205.8217,S,07701.4231,W,1,08,1.0,143.0,M,8.4,M,,0000*6E,1
1778782009339087544,$GPGSA,M,3,20,19,05,24,21,17,11,30,,,,,1.7,1.0,1.5*32,1
1778782009504013100,$GPRMC,180901.000,A,1205.8217,S,07701.4231,W,13.06,96.61,140526,,,A*67,1
1778782010207513099,$GPGGA,180902.000,1205.8223,S,07701.4193,W,1,08,1.0,143.2,M,8.4,M,,0000*63,1
1778782010333551192,$GPGSA,M,3,20,19,05,24,21,17,11,30,,,,,1.7,1.0,1.5*32,1
1778782010498542081,$GPRMC,180902.000,A,1205.8223,S,07701.4193,W,13.89,96.86,140526,,,A*66,1
1778782011212699543,$GPGGA,180903.000,1205.8231,S,07701.4152,W,1,08,1.0,143.5,M,8.4,M,,0000*6B,1
1778782011338731784,$GPGSA,M,3,20,19,05,24,21,17,11,30,,,,,1.7,1.0,1.5*32,1
1778782011499126136,$GPGSV,3,1,12,20,75,149,40,19,42,095,41,05,37,328,31,24,25,216,29*72,1
1778782011659537376,$GPGSV,3,2,12,21,25,000,30,17,24,121,14,11,09,017,17,30,05,099,26*70,1
1778782011815361580,$GPGSV,3,3,12,13,63,112,40,14,03,140,16,44,42,284,43,26,46,084,*7A,1
1778782011980344617,$GPRMC,180903.000,A,1205.8231,S,07701.4152,W,13.64,96.44,140526,,,A*64,1
1778782012211802117,$GPGGA,180904.000,1205.8236,S,07701.4114,W,1,08,1.0,143.5,M,8.4,M,,0000*69,1
1778782012337852357,$GPGSA,M,3,20,19,05,24,21,17,11,30,,,,,1.7,1.0,1.5*32,1
1778782012502838524,$GPRMC,180904.000,A,1205.8236,S,07701.4114,W,13.03,96.16,140526,,,A*60,1
1778782013210512431,$GPGGA,180905.000,1205.8240,S,07701.4076,W,1,08,1.0,143.6,M,8.4,M,,0000*6F,1
1778782013336579912,$GPGSA,M,3,20,19,05,24,21,17,11,30,,,,,1.7,1.0,1.5*32,1
1778782013501541042,$GPRMC,180905.000,A,1205.8240,S,07701.4076,W,13.26,96.61,140526,,,A*62,1
1778782014210864856,$GPGGA,180906.000,1205.8245,S,07701.4036,W,1,08,1.0,143.7,M,8.4,M,,0000*6C,1
1778782014336915245,$GPGSA,M,3,20,19,05,24,21,17,11,30,,,,,1.7,1.0,1.5*32,1
1778782014501913578,$GPRMC,180906.000,A,1205.8245,S,07701.4036,W,13.99,96.78,140526,,,A*6C,1
1778782015206961263,$GPGGA,180907.000,1205.8249,S,07701.3994,W,1,08,1.0,144.1,M,8.4,M,,0000*66,1
1778782015332970689,$GPGSA,M,3,20,19,05,24,21,17,11,30,,,,,1.7,1.0,1.5*32,1
1778782015497899170,$GPRMC,180907.000,A,1205.8249,S,07701.3994,W,14.81,97.79,140526,,,A*69,1
1778782016205358929,$GPGGA,180908.000,1205.8255,S,07701.3950,W,1,08,1.0,144.4,M,8.4,M,,0000*69,1
1778782016331413781,$GPGSA,M,3,20,19,05,24,21,17,11,30,,,,,1.7,1.0,1.5*32,1
1778782016491810281,$GPGSV,3,1,12,20,75,149,41,19,42,095,42,05,37,328,36,24,25,216,31*7E,1
1778782016652230040,$GPGSV,3,2,12,21,25,000,37,17,24,121,23,11,09,017,26,30,05,099,29*7E,1
1778782016803461077,$GPGSV,3,3,12,13,63,112,40,44,42,284,43,26,46,084,,28,26,153,*77,1
1778782016968460021,$GPRMC,180908.000,A,1205.8255,S,07701.3950,W,15.48,97.16,140526,,,A*6E,1
1778782017211376966,$GPGGA,180909.000,1205.8261,S,07701.3904,W,1,08,1.0,144.5,M,8.4,M,,0000*6F,1
1778782017337417725,$GPGSA,M,3,20,19,05,24,21,17,11,30,,,,,1.7,1.0,1.5*32,1
1778782017502387614,$GPRMC,180909.000,A,1205.8261,S,07701.3904,W,16.49,97.27,140526,,,A*69,1
1778782018208815595,$GPGGA,180910.000,1205.8266,S,07701.3855,W,1,07,1.0,144.6,M,8.4,M,,0000*69,1
1778782018330298817,$GPGSA,M,3,20,19,05,24,21,17,30,,,,,,1.9,1.0,1.6*3F,1
1778782018495262761,$GPRMC,180910.000,A,1205.8266,S,07701.3855,W,17.12,96.78,140526,,,A*67,1
1778782019209396131,$GPGGA,180911.000,1205.8272,S,07701.3807,W,1,07,1.0,145.0,M,8.4,M,,0000*6D,1
1778782019330844724,$GPGSA,M,3,20,19,05,24,21,17,30,,,,,,1.9,1.0,1.6*3F,1
1778782019495855316,$GPRMC,180911.000,A,1205.8272,S,07701.3807,W,16.60,96.84,140526,,,A*63,1
1778782020211851519,$GPGGA,180912.000,1205.8279,S,07701.3761,W,1,08,1.0,145.3,M,8.4,M,,0000*66,1
1778782020337901501,$GPGSA,M,3,20,19,05,24,21,17,11,30,,,,,1.7,1.0,1.5*32,1
1778782020502877556,$GPRMC,180912.000,A,1205.8279,S,07701.3761,W,15.56,97.10,140526,,,A*6E,1
1778782021212234871,$GPGGA,180913.000,1205.8283,S,07701.3718,W,1,08,1.0,146.0,M,8.4,M,,0000*6C,1
1778782021338285852,$GPGSA,M,3,20,19,05,24,21,17,11,30,,,,,1.7,1.0,1.5*32,1
1778782021498667648,$GPGSV,3,1,12,20,75,149,43,19,42,095,42,05,37,328,39,24,25,216,22*71,1
1778782021659075907,$GPGSV,3,2,12,21,25,000,28,17,24,121,28,11,09,017,13,30,05,099,25*71,1
1778782021810323259,$GPGSV,3,3,12,13,63,112,42,44,42,284,45,26,46,084,,28,26,153,*73,1
1778782021975325166,$GPRMC,180913.000,A,1205.8283,S,07701.3718,W,14.63,98.57,140526,,,A*6F,1
1778782022211138574,$GPGGA,180914.000,1205.8291,S,07701.3677,W,1,08,1.0,146.5,M,8.4,M,,0000*65,1
1778782022337207240,$GPGSA,M,3,20,19,05,24,21,17,11,30,,,,,1.7,1.0,1.5*32,1
1778782022504454777,$GPRMC,180914.000,A,1205.8291,S,07701.3677,W,14.38,101.94,140526,,,A*53,1
1778782023210911925,$GPGGA,180915.000,1205.8298,S,07701.3638,W,1,08,1.0,147.1,M,8.4,M,,0000*63,1
1778782023336936240,$GPGSA,M,3,20,19,05,24,21,17,11,30,,,,,1.7,1.0,1.5*32,1
1778782023504210295,$GPRMC,180915.000,A,1205.8298,S,07701.3638,W,13.52,104.79,140526,,,A*5D,1
1778782024211056869,$GPGGA,180916.000,1205.8307,S,07701.3601,W,1,08,1.0,147.5,M,8.4,M,,0000*69,1
1778782024337100998,$GPGSA,M,3,20,19,05,24,21,17,11,30,,,,,1.7,1.0,1.5*32,1
1778782024504373702,$GPRMC,180916.000,A,1205.8307,S,07701.3601,W,12.92,104.99,140526,,,A*50,1
1778782025211457646,$GPGGA,180917.000,1205.8315,S,07701.3565,W,1,08,1.0,147.8,M,8.4,M,,0000*67,1
1778782025337501201,$GPGSA,M,3,20,19,05,24,21,17,11,30,,,,,1.7,1.0,1.5*32,1
1778782025504750090,$GPRMC,180917.000,A,1205.8315,S,07701.3565,W,12.87,102.25,140526,,,A*56,1
1778782026225131368,$GPGGA,180918.000,1205.8322,S,07701.3529,W,1,07,2.4,148.0,M,8.4,M,,0000*6B,1
1778782026346636386,$GPGSA,M,3,20,19,05,21,17,11,30,,,,,,3.4,2.4,2.4*30,1
1778782026507000923,$GPGSV,3,1,12,20,75,149,45,19,42,095,44,05,37,328,39,21,25,000,31*73,1
1778782026667410886,$GPGSV,3,2,12,17,24,121,26,11,09,017,18,30,05,099,18,13,63,112,43*76,1
1778782026818709367,$GPGSV,3,3,12,24,25,216,32,44,42,284,46,26,46,084,,28,26,153,*76,1
1778782026983630497,$GPRMC,180918.000,A,1205.8322,S,07701.3529,W,12.53,95.91,140526,,,A*6C,1
1778782027219256737,$GPGGA,180919.000,1205.8326,S,07701.3493,W,1,08,1.0,148.6,M,8.4,M,,0000*60,1
1778782027345284830,$GPGSA,M,3,20,19,05,24,21,17,11,30,,,,,1.7,1.0,1.5*32,1
1778782027510277033,$GPRMC,180919.000,A,1205.8326,S,07701.3493,W,12.84,96.60,140526,,,A*6E,1
1778782028206282848,$GPGGA,180920.000,1205.8331,S,07701.3455,W,1,07,2.4,148.7,M,8.4,M,,0000*6F,1
1778782028327742607,$GPGSA,M,3,20,19,05,21,17,11,30,,,,,,3.4,2.4,2.4*30,1
1778782028492735033,$GPRMC,180920.000,A,1205.8331,S,07701.3455,W,13.64,96.57,140526,,,A*63,1
1778782029215614218,$GPGGA,180921.000,1205.8335,S,07701.3415,W,1,07,2.4,148.8,M,8.4,M,,0000*61,1
1778782029337091032,$GPGSA,M,3,20,19,05,21,17,11,30,,,,,,3.4,2.4,2.4*30,1
1778782029502102643,$GPRMC,180921.000,A,1205.8335,S,07701.3415,W,14.65,95.83,140526,,,A*6E,1
1778782030215364699,$GPGGA,180922.000,1205.8341,S,07701.3374,W,1,08,1.0,148.4,M,8.4,M,,0000*65,1
1778782030341401550,$GPGSA,M,3,20,19,05,24,21,17,11,30,,,,,1.7,1.0,1.5*32,1
1778782030506392328,$GPRMC,180922.000,A,1205.8341,S,07701.3374,W,14.71,98.12,140526,,,A*6E,1
1778782031211362661,$GPGGA,180923.000,1205.8348,S,07701.3334,W,1,08,1.0,148.2,M,8.4,M,,0000*6F,1
1778782031337421605,$GPGSA,M,3,20,19,05,24,21,17,11,30,,,,,1.7,1.0,1.5*32,1
1778782031497810846,$GPGSV,3,1,12,20,75,149,45,19,42,095,45,05,37,328,38,24,25,216,28*7B,1
1778782031658207920,$GPGSV,3,2,12,21,25,000,25,17,24,121,34,11,09,017,19,30,05,099,26*78,1
1778782031809453957,$GPGSV,3,3,12,13,63,112,43,44,42,284,39,26,46,084,,28,26,153,*79,1
1778782031974475327,$GPRMC,180923.000,A,1205.8348,S,07701.3334,W,14.27,99.86,140526,,,A*6D,1
1778782032213608123,$GPGGA,180924.000,1205.8353,S,07701.3293,W,1,08,1.0,148.8,M,8.4,M,,0000*64,1
1778782032339664438,$GPGSA,M,3,20,19,05,24,21,17,11,30,,,,,1.7,1.0,1.5*32,1
1778782032504633475,$GPRMC,180924.000,A,1205.8353,S,07701.3293,W,14.07,98.44,140526,,,A*61,1
1778782033212110197,$GPGGA,180925.000,1205.8361,S,07701.3254,W,1,08,1.0,148.8,M,8.4,M,,0000*6F,1
1778782033338168771,$GPGSA,M,3,20,19,05,24,21,17,11,30,,,,,1.7,1.0,1.5*32,1
1778782033503142234,$GPRMC,180925.000,A,1205.8361,S,07701.3254,W,14.58,99.58,140526,,,A*6C,1
1778782034207690918,$GPGGA,180926.000,1205.8365,S,07701.3213,W,1,07,2.4,149.2,M,8.4,M,,0000*68,1
1778782034329129659,$GPGSA,M,3,20,19,05,21,17,11,30,,,,,,3.4,2.4,2.4*30,1
1778782034494131529,$GPRMC,180926.000,A,1205.8365,S,07701.3213,W,13.95,98.36,140526,,,A*67,1
1778782035214513992,$GPGGA,180927.000,1205.8371,S,07701.3178,W,1,07,2.4,148.8,M,8.4,M,,0000*69,1
1778782035336017473,$GPGSA,M,3,20,19,05,21,17,11,30,,,,,,3.4,2.4,2.4*30,1
1778782035501015955,$GPRMC,180927.000,A,1205.8371,S,07701.3178,W,11.03,97.71,140526,,,A*6C,1
1778782036209267769,$GPGGA,180928.000,1205.8375,S,07701.3151,W,1,07,2.4,148.0,M,8.4,M,,0000*61,1
1778782036330722658,$GPGSA,M,3,20,19,05,21,17,11,30,,,,,,3.4,2.4,2.4*30,1
1778782036491161787,$GPGSV,3,1,12,20,75,149,43,19,42,095,42,05,37,328,40,21,25,000,25*78,1
1778782036651547824,$GPGSV,3,2,12,17,24,121,29,11,09,017,33,30,05,099,36,13,63,112,43*7C,1
1778782036798203343,$GPGSV,3,3,12,44,42,284,41,26,46,084,,28,26,153,,24,25,216,*70,1
1778782036960901843,$GPRMC,180928.000,A,1205.8375,S,07701.3151,W,8.80,97.20,140526,,,A*5B,1
1778782037210479898,$GPGGA,180929.000,1205.8381,S,07701.3130,W,1,07,2.4,147.4,M,8.4,M,,0000*67,1
1778782037331921250,$GPGSA,M,3,20,19,05,21,17,11,30,,,,,,3.4,2.4,2.4*30,1
1778782037494629194,$GPRMC,180929.000,A,1205.8381,S,07701.3130,W,7.30,98.30,140526,,,A*5C,1
1778782038208133657,$GPGGA,180930.000,1205.8385,S,07701.3111,W,1,07,2.4,147.0,M,8.4,M,,0000*6C,1
1778782038329576397,$GPGSA,M,3,20,19,05,21,17,11,30,,,,,,3.4,2.4,2.4*30,1
1778782038492296268,$GPRMC,180930.000,A,1205.8385,S,07701.3111,W,7.19,96.71,140526,,,A*53,1
1778782039204569601,$GPGGA,180931.000,1205.8388,S,07701.3091,W,1,07,2.4,146.4,M,8.4,M,,0000*6C,1
1778782039325997489,$GPGSA,M,3,20,19,05,21,17,11,30,,,,,,3.4,2.4,2.4*30,1
1778782039488719674,$GPRMC,180931.000,A,1205.8388,S,07701.3091,W,7.63,97.74,140526,,,A*5F,1
1778782040205542304,$GPGGA,180932.000,1205.8395,S,07701.3070,W,1,07,2.4,145.4,M,8.4,M,,0000*6F,1
1778782040327000155,$GPGSA,M,3,20,19,05,21,17,11,30,,,,,,3.4,2.4,2.4*30,1
1778782040491993841,$GPRMC,180932.000,A,1205.8395,S,07701.3070,W,8.75,100.81,140526,,,A*62,1
1778782041208865248,$GPGGA,180933.000,1205.8404,S,07701.3047,W,1,07,2.4,144.3,M,8.4,M,,0000*63,1
1778782041330286470,$GPGSA,M,3,20,19,05,21,17,11,30,,,,,,3.4,2.4,2.4*30,1
1778782041490696210,$GPGSV,3,1,12,20,75,149,41,19,42,095,38,05,37,328,42,21,25,000,37*76,1
1778782041651109266,$GPGSV,3,2,12,17,24,121,25,11,09,017,34,30,05,099,42,13,63,112,40*77,1
1778782041797761192,$GPGSV,3,3,12,44,42,284,39,26,46,084,,28,26,153,,24,25,216,*7F,1
1778782041962757580,$GPRMC,180933.000,A,1205.8404,S,07701.3047,W,9.74,101.42,140526,,,A*66,1
1778782042206907080,$GPGGA,180934.000,1205.8414,S,07701.3020,W,1,08,1.0,143.4,M,8.4,M,,0000*6C,1
1778782042332946062,$GPGSA,M,3,20,19,05,24,21,17,11,30,,,,,1.7,1.0,1.5*32,1
1778782042500225062,$GPRMC,180934.000,A,1205.8414,S,07701.3020,W,10.43,101.51,140526,,,A*5F,1
1778782043211668543,$GPGGA,180935.000,1205.8422,S,07701.2992,W,1,08,1.0,142.7,M,8.4,M,,0000*6B,1
1778782043337704580,$GPGSA,M,3,20,19,05,24,21,17,11,30,,,,,1.7,1.0,1.5*32,1
1778782043502694561,$GPRMC,180935.000,A,1205.8422,S,07701.2992,W,10.44,98.17,140526,,,A*6E,1
1778782044211618653,$GPGGA,180936.000,1205.8428,S,07701.2964,W,1,08,1.0,142.2,M,8.4,M,,0000*6E,1
1778782044337671579,$GPGSA,M,3,20,19,05,24,21,17,11,30,,,,,1.7,1.0,1.5*32,1
1778782044502646005,$GPRMC,180936.000,A,1205.8428,S,07701.2964,W,9.59,100.21,140526,,,A*6F,1
1778782045207478838,$GPGGA,180937.000,1205.8429,S,07701.2937,W,1,08,1.0,142.5,M,8.4,M,,0000*6F,1
1778782045333490134,$GPGSA,M,3,20,19,05,24,21,17,11,30,,,,,1.7,1.0,1.5*32,1
1778782045496150301,$GPRMC,180937.000,A,1205.8429,S,07701.2937,W,8.05,98.48,140526,,,A*5E,1
1778782046206104800,$GPGGA,180938.000,1205.8431,S,07701.2913,W,1,08,1.0,143.0,M,8.4,M,,0000*6B,1
1778782046332139559,$GPGSA,M,3,20,19,05,24,21,17,11,30,,,,,1.7,1.0,1.5*32,1
1778782046492551430,$GPGSV,3,1,12,20,75,149,41,19,42,095,45,05,37,328,31,24,25,216,38*77,1
1778782046652958874,$GPGSV,3,2,12,21,25,000,38,17,24,121,24,11,09,017,33,30,05,099,40*7D,1
1778782046804201948,$GPGSV,3,3,12,13,63,112,40,44,42,284,39,26,46,084,,28,26,153,*7A,1
1778782046966910429,$GPRMC,180938.000,A,1205.8431,S,07701.2913,W,7.09,96.18,140526,,,A*56,1
1778782047208569133,$GPGGA,180939.000,1205.8435,S,07701.2892,W,1,08,1.0,143.3,M,8.4,M,,0000*65,1
1778782047334639485,$GPGSA,M,3,20,19,05,24,21,17,11,30,,,,,1.7,1.0,1.5*32,1
1778782047497297855,$GPRMC,180939.000,A,1205.8435,S,07701.2892,W,7.48,93.81,140526,,,A*5B,1
1778782048211425521,$GPGGA,180940.000,1205.8439,S,07701.2871,W,1,07,2.4,143.6,M,8.4,M,,0000*67,1
1778782048332942928,$GPGSA,M,3,20,19,05,21,17,11,30,,,,,,3.4,2.4,2.4*30,1
1778782048495586539,$GPRMC,180940.000,A,1205.8439,S,07701.2871,W,7.19,94.89,140526,,,A*5F,1
1778782049216395002,$GPGGA,180941.000,1205.8443,S,07701.2852,W,1,07,2.4,143.8,M,8.4,M,,0000*64,1
1778782049337854002,$GPGSA,M,3,20,19,05,21,17,11,30,,,,,,3.4,2.4,2.4*30,1
1778782049500538187,$GPRMC,180941.000,A,1205.8443,S,07701.2852,W,5.48,95.32,140526,,,A*55,1
1778782050209045483,$GPGGA,180942.000,1205.8447,S,07701.2839,W,1,07,2.4,144.1,M,8.4,M,,0000*60,1
1778782050330509335,$GPGSA,M,3,20,19,05,21,17,11,30,,,,,,3.4,2.4,2.4*30,1
1778782050493274464,$GPRMC,180942.000,A,1205.8447,S,07701.2839,W,3.54,96.16,140526,,,A*51,1
1778782051204207908,$GPGGA,180943.000,1205.8450,S,07701.2831,W,1,07,2.4,144.3,M,8.4,M,,0000*6D,1
1778782051325668297,$GPGSA,M,3,20,19,05,21,17,11,30,,,,,,3.4,2.4,2.4*30,1
1778782051486071038,$GPGSV,3,1,12,20,75,149,42,19,42,095,44,05,37,328,32,21,25,000,35*7B,1
1778782051646480686,$GPGSV,3,2,12,17,24,121,29,11,09,017,31,30,05,099,30,13,63,112,41*7A,1
1778782051793154186,$GPGSV,3,3,12,44,42,284,44,26,46,084,,28,26,153,,24,25,216,*75,1
1778782051955844093,$GPRMC,180943.000,A,1205.8450,S,07701.2831,W,1.73,95.44,140526,,,A*5D,1
1778782052209585074,$GPGGA,180944.000,1205.8452,S,07701.2828,W,1,07,2.4,144.5,M,8.4,M,,0000*66,1
1778782052331043982,$GPGSA,M,3,20,19,05,21,17,11,30,,,,,,3.4,2.4,2.4*30,1
1778782052493740741,$GPRMC,180944.000,A,1205.8452,S,07701.2828,W,0.84,95.44,140526,,,A*59,1
1778782053211676740,$GPGGA,180945.000,1205.8454,S,07701.2825,W,1,08,1.0,144.6,M,8.4,M,,0000*67,1
1778782053337720907,$GPGSA,M,3,20,19,05,24,21,17,11,30,,,,,1.7,1.0,1.5*32,1
1778782053500363555,$GPRMC,180945.000,A,1205.8454,S,07701.2825,W,1.11,95.44,140526,,,A*5E,1
1778782054209701981,$GPGGA,180946.000,1205.8455,S,07701.2822,W,1,07,2.4,144.7,M,8.4,M,,0000*6B,1
1778782054331144980,$GPGSA,M,3,20,19,05,21,17,11,30,,,,,,3.4,2.4,2.4*30,1
1778782054493880629,$GPRMC,180946.000,A,1205.8455,S,07701.2822,W,1.40,97.62,140526,,,A*59,1
1778782055209669258,$GPGGA,180947.000,1205.8456,S,07701.2822,W,1,07,2.4,144.6,M,8.4,M,,0000*68,1
1778782055331118795,$GPGSA,M,3,20,19,05,21,17,11,30,,,,,,3.4,2.4,2.4*30,1
1778782055493823313,$GPRMC,180947.000,A,1205.8456,S,07701.2822,W,0.11,97.62,140526,,,A*5E,1
1778782056204833276,$GPGGA,180948.000,1205.8456,S,07701.2822,W,1,07,2.4,144.6,M,8.4,M,,0000*67,1
1778782056326272516,$GPGSA,M,3,20,19,05,21,17,11,30,,,,,,3.4,2.4,2.4*30,1
1778782056486700961,$GPGSV,3,1,12,20,75,149,44,19,42,095,44,05,37,328,38,21,25,000,38*7A,1
1778782056647098590,$GPGSV,3,2,12,17,24,121,27,11,09,017,35,30,05,099,30,13,63,112,41*70,1
1778782056793769720,$GPGSV,3,3,12,44,42,284,45,26,46,084,,28,26,153,,24,25,216,*74,1
1778782056956467368,$GPRMC,180948.000,A,1205.8456,S,07701.2822,W,0.01,97.62,140526,,,A*50,1
1778782057232690201,$GPGGA,180949.000,1205.8456,S,07701.2822,W,1,08,1.0,144.6,M,8.4,M,,0000*6E,1
1778782057358741460,$GPGSA,M,3,20,19,05,24,21,17,11,30,,,,,1.7,1.0,1.5*32,1
1778782057521444053,$GPRMC,180949.000,A,1205.8456,S,07701.2822,W,0.00,97.62,140526,,,A*50,1
1778782058208061515,$GPGGA,180950.000,1205.8456,S,07701.2822,W,1,08,1.0,144.6,M,8.4,M,,0000*66,1
1778782058334118756,$GPGSA,M,3,20,19,05,24,21,17,11,30,,,,,1.7,1.0,1.5*32,1
1778782058496796774,$GPRMC,180950.000,A,1205.8456,S,07701.2822,W,0.00,97.62,140526,,,A*58,1
1778782059213225459,$GPGGA,180951.000,1205.8455,S,07701.2821,W,1,08,1.0,144.4,M,8.4,M,,0000*65,1
1778782059339279329,$GPGSA,M,3,20,19,05,24,21,17,11,30,,,,,1.7,1.0,1.5*32,1
1778782059501959329,$GPRMC,180951.000,A,1205.8455,S,07701.2821,W,0.50,97.62,140526,,,A*5C,1
1778782060212768199,$GPGGA,180952.000,1205.8455,S,07701.2815,W,1,08,1.0,144.2,M,8.4,M,,0000*67,1
1778782060338826069,$GPGSA,M,3,20,19,05,24,21,17,11,30,,,,,1.7,1.0,1.5*32,1
1778782060503790903,$GPRMC,180952.000,A,1205.8455,S,07701.2815,W,3.41,101.16,140526,,,A*66,1
1778782061211895532,$GPGGA,180953.000,1205.8458,S,07701.2803,W,1,08,1.0,144.2,M,8.4,M,,0000*6C,1
1778782061337942884,$GPGSA,M,3,20,19,05,24,21,17,11,30,,,,,1.7,1.0,1.5*32,1
1778782061498330458,$GPGSV,3,1,12,20,75,147,44,19,42,096,43,05,36,329,39,24,25,215,23*78,1
1778782061658741809,$GPGSV,3,2,12,21,24,000,39,17,24,122,28,11,09,018,35,30,05,099,31*7D,1
1778782061814562698,$GPGSV,3,3,12,13,63,110,40,14,03,140,13,44,42,284,44,26,46,083,*7D,1
1778782061979556439,$GPRMC,180953.000,A,1205.8458,S,07701.2803,W,5.11,101.89,140526,,,A*68,1
1778782062206647828,$GPGGA,180954.000,1205.8462,S,07701.2788,W,1,08,1.0,144.3,M,8.4,M,,0000*6F,1
1778782062332672957,$GPGSA,M,3,20,19,05,24,21,17,11,30,,,,,1.7,1.0,1.5*32,1
1778782062497671290,$GPRMC,180954.000,A,1205.8462,S,07701.2788,W,5.27,101.72,140526,,,A*6B,1
1778782063213473105,$GPGGA,180955.000,1205.8465,S,07701.2774,W,1,08,1.0,144.3,M,8.4,M,,0000*6A,1
1778782063339506364,$GPGSA,M,3,20,19,05,24,21,17,11,30,,,,,1.7,1.0,1.5*32,1
1778782063504502549,$GPRMC,180955.000,A,1205.8465,S,07701.2774,W,5.12,100.13,140526,,,A*6E,1
1778782064203619586,$GPGGA,180956.000,1205.8468,S,07701.2762,W,1,07,2.4,144.1,M,8.4,M,,0000*69,1
1778782064325098678,$GPGSA,M,3,20,19,05,21,17,11,30,,,,,,3.4,2.4,2.4*30,1
1778782064490069048,$GPRMC,180956.000,A,1205.8468,S,07701.2762,W,4.89,101.07,140526,,,A*60,1
1778782065210039937,$GPGGA,180957.000,1205.8471,S,07701.2750,W,1,07,2.4,144.0,M,8.4,M,,0000*60,1
1778782065331499566,$GPGSA,M,3,20,19,05,21,17,11,30,,,,,,3.4,2.4,2.4*30,1
1778782065496537881,$GPRMC,180957.000,A,1205.8471,S,07701.2750,W,4.32,104.50,140526,,,A*6F,1
1778782066212708325,$GPGGA,180958.000,1205.8475,S,07701.2741,W,1,08,1.0,143.9,M,8.4,M,,0000*6D,1
1778782066338759547,$GPGSA,M,3,20,19,05,24,21,17,11,30,,,,,1.7,1.0,1.5*32,1
1778782066499142232,$GPGSV,3,1,12,20,75,147,43,19,42,096,43,05,36,329,38,24,25,215,22*7F,1
1778782066659563751,$GPGSV,3,2,12,21,24,000,38,17,24,122,24,11,09,018,28,30,05,099,35*78,1
1778782066810802788,$GPGSV,3,3,12,13,63,110,42,44,42,284,44,26,46,083,,28,25,152,*75,1
1778782066975783806,$GPRMC,180958.000,A,1205.8475,S,07701.2741,W,3.01,109.41,140526,,,A*6E,1
1778782067212660195,$GPGGA,180959.000,1205.8477,S,07701.2735,W,1,08,1.0,143.9,M,8.4,M,,0000*6D,1
1778782067338708565,$GPGSA,M,3,20,19,05,24,21,17,11,30,,,,,1.7,1.0,1.5*32,1
1778782067503729510,$GPRMC,180959.000,A,1205.8477,S,07701.2735,W,2.17,116.07,140526,,,A*64,1
1778782068212827917,$GPGGA,181000.000,1205.8478,S,07701.2729,W,1,08,1.0,144.3,M,8.4,M,,0000*66,1
1778782068338882213,$GPGSA,M,3,20,19,05,24,21,17,11,30,,,,,1.7,1.0,1.5*32,1
1778782068503865120,$GPRMC,181000.000,A,1205.8478,S,07701.2729,W,2.17,121.87,140526,,,A*6E,1
1778782069212985657,$GPGGA,181001.000,1205.8483,S,07701.2724,W,1,08,1.0,144.3,M,8.4,M,,0000*6E,1
1778782069339121657,$GPGSA,M,3,20,19,05,24,21,17,11,30,,,,,1.7,1.0,1.5*32,1
1778782069504012712,$GPRMC,181001.000,A,1205.8483,S,07701.2724,W,3.06,132.16,140526,,,A*6D,1
1778782070212525193,$GPGGA,181002.000,1205.8492,S,07701.2720,W,1,08,1.0,144.3,M,8.4,M,,0000*69,1
1778782070338588786,$GPGSA,M,3,20,19,05,24,21,17,11,30,,,,,1.7,1.0,1.5*32,1
1778782070503547249,$GPRMC,181002.000,A,1205.8492,S,07701.2720,W,5.24,152.91,140526,,,A*65,1
1778782071211642507,$GPGGA,181003.000,1205.8502,S,07701.2713,W,1,08,1.0,145.4,M,8.4,M,,0000*66,1
1778782071337689544,$GPGSA,M,3,20,19,05,24,21,17,11,30,,,,,1.7,1.0,1.5*32,1
1778782071498087174,$GPGSV,3,1,12,20,75,147,43,19,42,096,40,05,36,329,44,24,25,215,36*72,1
1778782071658505303,$GPGSV,3,2,12,21,24,000,40,17,24,122,24,11,09,018,35,30,05,099,24*7B,1
1778782071809752396,$GPGSV,3,3,12,13,63,110,42,44,42,284,43,26,46,083,,28,25,152,*72,1
1778782071974735933,$GPRMC,181003.000,A,1205.8502,S,07701.2713,W,7.61,170.47,140526,,,A*64,1
1778782072213539692,$GPGGA,181004.000,1205.8524,S,07701.2713,W,1,08,1.0,145.9,M,8.4,M,,0000*68,1
1778782072339567618,$GPGSA,M,3,20,19,05,24,21,17,11,30,,,,,1.7,1.0,1.5*32,1
1778782072504500692,$GPRMC,181004.000,A,1205.8524,S,07701.2713,W,9.65,183.43,140526,,,A*65,1
1778782073212815988,$GPGGA,181005.000,1205.8551,S,07701.2718,W,1,08,1.0,146.2,M,8.4,M,,0000*68,1
1778782073338870710,$GPGSA,M,3,20,19,05,24,21,17,11,30,,,,,1.7,1.0,1.5*32,1
1778782073503839099,$GPRMC,181005.000,A,1205.8551,S,07701.2718,W,9.88,188.22,140526,,,A*62,1
1778782074204640283,$GPGGA,181006.000,1205.8578,S,07701.2724,W,1,07,1.0,146.2,M,8.4,M,,0000*60,1
1778782074326100987,$GPGSA,M,3,20,19,05,24,21,17,11,,,,,,2.0,1.0,1.7*37,1
1778782074491082783,$GPRMC,181006.000,A,1205.8578,S,07701.2724,W,9.95,192.19,140526,,,A*6A,1
1778782075204808746,$GPGGA,181007.000,1205.8605,S,07701.2731,W,1,07,1.0,146.5,M,8.4,M,,0000*6B,1
1778782075326254820,$GPGSA,M,3,20,19,05,24,21,17,11,,,,,,2.0,1.0,1.7*37,1
1778782075493539005,$GPRMC,181007.000,A,1205.8605,S,07701.2731,W,10.75,190.33,140526,,,A*5A,1
1778782076220591134,$GPGGA,181008.000,1205.8636,S,07701.2737,W,1,07,1.0,146.6,M,8.4,M,,0000*61,1
1778782076342039523,$GPGSA,M,3,20,19,05,24,21,17,11,,,,,,2.0,1.0,1.7*37,1
1778782076502447430,$GPGSV,3,1,12,20,75,147,41,19,42,096,24,05,36,329,46,24,25,215,33*75,1
1778782076662858652,$GPGSV,3,2,12,21,24,000,47,17,24,122,31,11,09,018,42,13,63,110,29*74,1
1778782076809520671,$GPGSV,3,3,12,44,42,284,31,26,46,083,,28,25,152,,29,16,348,*75,1
1778782076976805300,$GPRMC,181008.000,A,1205.8636,S,07701.2737,W,11.67,187.67,140526,,,A*56,1
1778782077203669374,$GPGGA,181009.000,1205.8666,S,07701.2741,W,1,07,1.0,146.9,M,8.4,M,,0000*6B,1
1778782077325124226,$GPGSA,M,3,20,19,05,24,21,17,11,,,,,,2.0,1.0,1.7*37,1
1778782077492420800,$GPRMC,181009.000,A,1205.8666,S,07701.2741,W,11.17,188.93,140526,,,A*50,1
1778782078205923874,$GPGGA,181010.000,1205.8694,S,07701.2746,W,1,07,1.0,146.9,M,8.4,M,,0000*69,1
1778782078327358966,$GPGSA,M,3,20,19,05,24,21,17,11,,,,,,2.0,1.0,1.7*37,1
1778782078492363485,$GPRMC,181010.000,A,1205.8694,S,07701.2746,W,9.47,187.52,140526,,,A*6C,1
1778782079203381910,$GPGGA,181011.000,1205.8717,S,07701.2747,W,1,07,1.0,147.3,M,8.4,M,,0000*68,1
1778782079324825725,$GPGSA,M,3,20,19,05,24,21,17,11,,,,,,2.0,1.0,1.7*37,1
1778782079489824651,$GPRMC,181011.000,A,1205.8717,S,07701.2747,W,8.62,187.95,140526,,,A*6B,1
1778782080203955947,$GPGGA,181012.000,1205.8734,S,07701.2745,W,1,07,1.0,148.7,M,8.4,M,,0000*63,1
1778782080325402780,$GPGSA,M,3,20,19,05,24,21,17,11,,,,,,2.0,1.0,1.7*37,1
1778782080490413946,$GPRMC,181012.000,A,1205.8734,S,07701.2745,W,7.64,187.66,140526,,,A*6E,1
1778782081204317983,$GPGGA,181013.000,1205.8754,S,07701.2749,W,1,07,1.0,149.4,M,8.4,M,,0000*6A,1
1778782081325784446,$GPGSA,M,3,20,19,05,24,21,17,11,,,,,,2.0,1.0,1.7*37,1
1778782081486192075,$GPGSV,3,1,12,20,75,147,43,19,42,096,21,05,36,329,30,24,25,215,36*76,1
1778782081646588075,$GPGSV,3,2,12,21,24,000,47,17,24,122,37,11,09,018,41,13,63,110,27*7F,1
1778782081797851853,$GPGSV,3,3,12,14,03,140,19,44,42,284,34,26,46,083,,28,25,152,*78,1
1778782081962836242,$GPRMC,181013.000,A,1205.8754,S,07701.2749,W,8.58,189.12,140526,,,A*68,1
1778782082211568149,$GPGGA,181014.000,1205.8777,S,07701.2756,W,1,07,1.0,150.3,M,8.4,M,,0000*6D,1
1778782082333066167,$GPGSA,M,3,20,19,05,24,21,17,11,,,,,,2.0,1.0,1.7*37,1
1778782082500324927,$GPRMC,181014.000,A,1205.8777,S,07701.2756,W,10.48,189.47,140526,,,A*58,1
1778782083204649834,$GPGGA,181015.000,1205.8810,S,07701.2762,W,1,07,1.0,149.9,M,8.4,M,,0000*67,1
1778782083326099426,$GPGSA,M,3,20,19,05,24,21,17,11,,,,,,2.0,1.0,1.7*37,1
1778782083493396611,$GPRMC,181015.000,A,1205.8810,S,07701.2762,W,11.77,190.76,140526,,,A*57,1
1778782084204854592,$GPGGA,181016.000,1205.8844,S,07701.2772,W,1,07,1.0,149.8,M,8.4,M,,0000*65,1
1778782084326262018,$GPGSA,M,3,20,19,05,24,21,17,11,,,,,,2.0,1.0,1.7*37,1
1778782084493556611,$GPRMC,181016.000,A,1205.8844,S,07701.2772,W,12.70,192.08,140526,,,A*5B,1
1778782085206239795,$GPGGA,181017.000,1205.8879,S,07701.2780,W,1,06,2.5,149.8,M,8.4,M,,0000*60,1
1778782085323103518,$GPGSA,M,3,20,19,05,21,17,11,,,,,,,3.8,2.5,2.8*32,1
1778782085490384425,$GPRMC,181017.000,A,1205.8879,S,07701.2780,W,13.41,193.03,140526,,,A*50,1
1778782086204093980,$GPGGA,181018.000,1205.8916,S,07701.2787,W,1,06,2.5,149.8,M,8.4,M,,0000*60,1
1778782086320959072,$GPGSA,M,3,20,19,05,21,17,11,,,,,,,3.8,2.5,2.8*32,1
1778782086481377350,$GPGSV,3,1,12,20,75,147,43,19,42,096,40,05,36,329,39,21,24,000,41*7A,1
1778782086641783313,$GPGSV,3,2,12,17,24,122,38,11,09,018,41,13,63,110,44,44,42,284,39*71,1
1778782086783862331,$GPGSV,3,3,12,26,46,083,,28,25,152,,24,25,215,,29,16,348,*78,1
