Unix_time,GPS_data,flagStop
1778780216186821595,$GPGGA,173908.000,1205.9907,S,07701.4544,W,2,05,2.2,148.7,M,8.4,M,4.0,0000*4C,0
1778780240064526988,$GPGSA,M,3,20,05,19,21,11,,,,,,,,4.2,2.2,3.6*31,0
1778780240065022840,$GPGSV,3,1,12,20,61,174,38,05,47,312,45,19,40,074,46,21,37,353,32*7D,0
1778780240065718895,$GPGSV,3,2,12,11,08,005,23,14,14,145,40,17,29,106,47,24,20,228,35*70,0
1778780240066374321,$GPGSV,3,3,12,30,09,112,34,46,29,279,38,13,57,143,,26,49,108,*7D,0
1778780240067014284,$GPRMC,173908.000,A,1205.9907,S,07701.4544,W,0.00,291.37,140526,,,D*6B,0
1778780240067710395,$GPGGA,173909.000,1205.9907,S,07701.4544,W,2,05,2.2,148.7,M,8.4,M,2.0,0000*4B,0
1778780240068474432,$GPGSA,M,3,20,05,19,21,11,,,,,,,,4.2,2.2,3.6*31,0
1778780240068955025,$GPRMC,173909.000,A,1205.9907,S,07701.4544,W,0.00,291.37,140526,,,D*6A,0
1778780240069653432,$GPGGA,173910.000,1205.9907,S,07701.4544,W,2,05,2.2,148.7,M,8.4,M,2.0,0000*43,0
1778780240070417988,$GPGSA,M,3,20,05,19,21,11,,,,,,,,4.2,2.2,3.6*31,0
1778780240070892451,$GPRMC,173910.000,A,1205.9907,S,07701.4544,W,0.00,291.37,140526,,,D*62,0
1778780240071493969,$GPGGA,173911.000,1205.9907,S,07701.4544,W,2,05,2.2,148.7,M,8.4,M,2.0,0000*42,0
1778780240072256451,$GPGSA,M,3,20,05,19,21,11,,,,,,,,4.2,2.2,3.6*31,0
1778780240072735729,$GPRMC,173911.000,A,1205.9907,S,07701.4544,W,0.00,291.37,140526,,,D*63,0
1778780240073431766,$GPGGA,173912.000,1205.9907,S,07701.4544,W,2,05,2.2,148.7,M,8.4,M,2.0,0000*41,0
1778780240074191451,$GPGSA,M,3,20,05,19,21,11,,,,,,,,4.2,2.2,3.6*31,0
1778780240074657117,$GPRMC,173912.000,A,1205.9907,S,07701.4544,W,0.00,291.37,140526,,,D*60,0
1778780240075338395,$GPGGA,173913.000,1205.9907,S,07701.4544,W,2,05,2.2,148.7,M,8.4,M,3.0,0000*41,0
1778780240076084766,$GPGSA,M,3,20,05,19,21,11,,,,,,,,4.2,2.2,3.6*31,0
1778780240076548154,$GPGSV,3,1,12,20,61,174,38,05,47,312,45,19,40,074,46,21,37,353,32*7D,0
1778780240077216580,$GPGSV,3,2,12,11,08,005,24,14,14,145,40,17,29,106,47,24,20,228,35*77,0
1778780240077833136,$GPGSV,3,3,12,30,09,112,33,46,29,279,38,13,57,143,,26,49,108,*7A,0
1778780240077997117,$GPRMC,173913.000,A,1205.9907,S,07701.4544,W,0.00,291.37,140526,,,D*61,0
1778780240078181025,$GPGGA,173914.000,1205.9907,S,07701.4544,W,2,05,2.2,148.7,M,8.4,M,4.0,0000*41,0
1778780240078378506,$GPGSA,M,3,20,05,19,21,11,,,,,,,,4.2,2.2,3.6*31,0
1778780240078471154,$GPRMC,173914.000,A,1205.9907,S,07701.4544,W,0.00,291.37,140526,,,D*66,0
1778780240078606673,$GPGGA,173915.000,1205.9907,S,07701.4544,W,2,05,2.2,148.7,M,8.4,M,2.0,0000*46,0
1778780240078755395,$GPGSA,M,3,20,05,19,21,11,,,,,,,,4.2,2.2,3.6*31,0
1778780240078848099,$GPRMC,173915.000,A,1205.9907,S,07701.4544,W,0.00,291.37,140526,,,D*67,0
1778780240078983580,$GPGGA,173916.000,1205.9907,S,07701.4544,W,2,05,2.2,148.7,M,8.4,M,2.0,0000*45,0
1778780240079132377,$GPGSA,M,3,20,05,19,21,11,,,,,,,,4.2,2.2,3.6*31,0
1778780240079225025,$GPRMC,173916.000,A,1205.9907,S,07701.4544,W,0.00,291.37,140526,,,D*64,0
1778780240079360673,$GPGGA,173917.000,1205.9907,S,07701.4544,W,2,05,2.2,148.7,M,8.4,M,2.0,0000*44,0
1778780240079509673,$GPGSA,M,3,20,05,19,21,11,,,,,,,,4.2,2.2,3.6*31,0
1778780240079602303,$GPRMC,173917.000,A,1205.9907,S,07701.4544,W,0.00,291.37,140526,,,D*65,0
1778780240079738043,$GPGGA,173918.000,1205.9907,S,07701.4544,W,2,05,2.2,148.8,M,8.4,M,3.0,0000*45,0
1778780240079886969,$GPGSA,M,3,20,05,19,21,11,,,,,,,,4.2,2.2,3.6*31,0
1778780240079979580,$GPGSV,3,1,12,20,61,174,38,05,47,312,45,19,40,074,46,21,37,353,33*7C,0
1778780240080111506,$GPGSV,3,2,12,11,08,005,23,06,00,041,12,14,14,145,40,17,29,106,47*7A,0
1778780240080243340,$GPGSV,3,3,12,24,20,228,35,30,09,112,33,46,29,279,38,13,57,143,*70,0
1778780240080371617,$GPRMC,173918.000,A,1205.9907,S,07701.4544,W,0.00,291.37,140526,,,D*6A,0
1778780240080507377,$GPGGA,173919.000,1205.9907,S,07701.4544,W,2,05,2.2,148.8,M,8.4,M,2.0,0000*45,0
1778780240080713025,$GPGSA,M,3,20,05,19,21,11,,,,,,,,4.2,2.2,3.6*31,0
1778780240080805932,$GPRMC,173919.000,A,1205.9907,S,07701.4544,W,0.00,291.37,140526,,,D*6B,0
1778780240080940654,$GPGGA,173920.000,1205.9907,S,07701.4544,W,1,08,1.0,148.7,M,8.4,M,,0000*63,0
1778780240081083562,$GPGSA,M,3,20,05,19,21,17,24,14,30,,,,,2.1,1.0,1.8*3F,0
1778780240081278506,$GPRMC,173920.000,A,1205.9907,S,07701.4544,W,0.00,291.37,140526,,,A*64,0
1778780240081414340,$GPGGA,173921.000,1205.9907,S,07701.4544,W,1,08,1.0,148.6,M,8.4,M,,0000*63,0
1778780240081557525,$GPGSA,M,3,20,05,19,21,17,24,14,30,,,,,2.1,1.0,1.8*3F,0
1778780240081661728,$GPRMC,173921.000,A,1205.9907,S,07701.4544,W,0.00,291.37,140526,,,A*65,0
1778780240081798154,$GPGGA,173922.000,1205.9907,S,07701.4544,W,1,08,1.0,148.5,M,8.4,M,,0000*63,0
1778780240081942284,$GPGSA,M,3,20,05,19,21,17,24,14,30,,,,,2.1,1.0,1.8*3F,0
1778780240082046766,$GPRMC,173922.000,A,1205.9907,S,07701.4544,W,0.00,291.37,140526,,,A*66,0
1778780240082183599,$GPGGA,173923.000,1205.9907,S,07701.4544,W,1,08,1.0,148.5,M,8.4,M,,0000*62,0
1778780240082327877,$GPGSA,M,3,20,05,19,21,17,24,14,30,,,,,2.1,1.0,1.8*3F,0
1778780240082432432,$GPGSV,3,1,12,20,61,174,38,05,47,312,45,19,40,074,46,21,37,353,33*7C,0
1778780240082565580,$GPGSV,3,2,12,17,29,106,48,24,20,228,36,14,14,145,40,30,09,112,33*78,0
1778780240082698636,$GPGSV,3,3,12,06,00,041,14,11,08,005,04,46,29,279,38,13,57,143,*7D,0
1778780240082827691,$GPRMC,173923.000,A,1205.9907,S,07701.4544,W,0.00,291.37,140526,,,A*67,0
1778780240082964414,$GPGGA,173924.000,1205.9908,S,07701.4544,W,1,08,1.0,148.4,M,8.4,M,,0000*6B,0
1778780240083108728,$GPGSA,M,3,20,05,19,21,17,24,14,30,,,,,2.1,1.0,1.8*3F,0
1778780240083213284,$GPRMC,173924.000,A,1205.9908,S,07701.4544,W,0.00,291.37,140526,,,A*6F,0
1778780240083349858,$GPGGA,173925.000,1205.9908,S,07701.4544,W,1,08,1.0,148.3,M,8.4,M,,0000*6D,0
1778780240083494006,$GPGSA,M,3,20,05,19,21,17,24,14,30,,,,,2.1,1.0,1.8*3F,0
1778780240083598506,$GPRMC,173925.000,A,1205.9908,S,07701.4544,W,0.00,291.37,140526,,,A*6E,0
1778780240083735043,$GPGGA,173926.000,1205.9908,S,07701.4544,W,1,08,1.0,148.2,M,8.4,M,,0000*6F,0
1778780240083879321,$GPGSA,M,3,20,05,19,21,17,24,14,30,,,,,2.1,1.0,1.8*3F,0
1778780240083983840,$GPRMC,173926.000,A,1205.9908,S,07701.4544,W,0.00,291.37,140526,,,A*6D,0
1778780240084120562,$GPGGA,173927.000,1205.9908,S,07701.4545,W,1,08,1.0,148.1,M,8.4,M,,0000*6C,0
1778780240084264840,$GPGSA,M,3,20,05,19,21,17,24,14,30,,,,,2.1,1.0,1.8*3F,0
1778780240084369451,$GPRMC,173927.000,A,1205.9908,S,07701.4545,W,0.00,291.37,140526,,,A*6D,0
1778780240084505951,$GPGGA,173928.000,1205.9908,S,07701.4545,W,1,08,1.0,148.0,M,8.4,M,,0000*62,0
1778780240084658710,$GPGSA,M,3,20,05,19,21,17,24,14,30,,,,,2.1,1.0,1.8*3F,0
1778780240084763562,$GPGSV,3,1,12,20,61,174,38,05,47,312,45,19,40,074,46,21,37,353,34*7B,0
1778780240084896266,$GPGSV,3,2,12,17,29,106,48,24,20,228,36,14,14,145,41,30,09,112,34*7E,0
1778780240085028914,$GPGSV,3,3,12,11,08,005,04,46,29,279,38,13,57,143,,26,49,108,*7B,0
1778780240085154043,$GPRMC,173928.000,A,1205.9908,S,07701.4545,W,0.00,291.37,140526,,,A*62,0
1778780240085290154,$GPGGA,173929.000,1205.9908,S,07701.4545,W,2,05,2.2,148.0,M,8.4,M,2.0,0000*40,0
1778780240085439877,$GPGSA,M,3,20,05,19,21,11,,,,,,,,4.2,2.2,3.6*31,0
1778780240085532914,$GPRMC,173929.000,A,1205.9908,S,07701.4545,W,0.00,291.37,140526,,,D*66,0
1778780240085669654,$GPGGA,173930.000,1205.9908,S,07701.4545,W,2,05,2.2,148.0,M,8.4,M,3.0,0000*49,0
1778780240085819284,$GPGSA,M,3,20,05,19,21,11,,,,,,,,4.2,2.2,3.6*31,0
1778780240085912432,$GPRMC,173930.000,A,1205.9908,S,07701.4545,W,0.00,291.37,140526,,,D*6E,0
1778780240086048673,$GPGGA,173931.000,1205.9908,S,07701.4545,W,2,05,2.2,148.0,M,8.4,M,4.0,0000*4F,0
1778780240086199154,$GPGSA,M,3,20,05,19,21,11,,,,,,,,4.2,2.2,3.6*31,0
1778780240086294840,$GPRMC,173931.000,A,1205.9908,S,07701.4545,W,0.00,291.37,140526,,,D*6F,0
1778780240187827951,$GPGGA,173932.000,1205.9908,S,07701.4545,W,2,05,2.2,148.0,M,8.4,M,5.0,0000*4D,0
1778780240300149284,$GPGSA,M,3,20,05,19,21,11,,,,,,,,4.2,2.2,3.6*31,0
1778780240465107173,$GPRMC,173932.000,A,1205.9908,S,07701.4545,W,0.00,291.37,140526,,,D*6C,0
1778780241191550654,$GPGGA,173933.000,1205.9908,S,07701.4545,W,2,05,2.2,148.0,M,8.4,M,2.0,0000*4B,0
1778780241303799209,$GPGSA,M,3,20,05,19,21,11,,,,,,,,4.2,2.2,3.6*31,0
1778780241464267968,$GPGSV,3,1,12,20,61,174,39,05,47,312,45,19,40,074,46,21,37,353,35*7B,0
1778780241624669135,$GPGSV,3,2,12,11,08,005,17,06,00,041,14,14,14,145,41,17,29,106,48*75,0
1778780241780493913,$GPGSV,3,3,12,24,20,228,36,30,09,112,34,46,29,279,38,13,57,143,*74,0
1778780241945448431,$GPRMC,173933.000,A,1205.9908,S,07701.4545,W,0.00,291.37,140526,,,D*6D,0
1778780242192396727,$GPGGA,173934.000,1205.9908,S,07701.4545,W,2,05,2.2,148.0,M,8.4,M,2.0,0000*4C,0
1778780242304618023,$GPGSA,M,3,20,05,19,21,11,,,,,,,,4.2,2.2,3.6*31,0
1778780242469607690,$GPRMC,173934.000,A,1205.9908,S,07701.4545,W,0.00,291.37,140526,,,D*6A,0
1778780243191460060,$GPGGA,173935.000,1205.9908,S,07701.4545,W,2,05,2.2,148.0,M,8.4,M,2.0,0000*4D,1
1778780243303725412,$GPGSA,M,3,20,05,19,21,11,,,,,,,,4.2,2.2,3.6*31,1
1778780243468792652,$GPRMC,173935.000,A,1205.9908,S,07701.4545,W,0.00,291.37,140526,,,D*6B,1
1778780244192428745,$GPGGA,173936.000,1205.9908,S,07701.4545,W,2,05,2.2,148.0,M,8.4,M,1.0,0000*4D,1
1778780244304741170,$GPGSA,M,3,20,05,19,21,11,,,,,,,,4.3,2.2,3.6*30,1
1778780244469713041,$GPRMC,173936.000,A,1205.9908,S,07701.4545,W,0.00,291.37,140526,,,D*68,1
1778780245192395207,$GPGGA,173937.000,1205.9908,S,07701.4545,W,2,05,2.2,148.0,M,8.4,M,2.0,0000*4F,1
1778780245304695374,$GPGSA,M,3,20,05,19,21,11,,,,,,,,4.3,2.2,3.6*30,1
1778780245469680022,$GPRMC,173937.000,A,1205.9908,S,07701.4545,W,0.00,291.37,140526,,,D*69,1
1778780246192162651,$GPGGA,173938.000,1205.9908,S,07701.4545,W,2,05,2.2,148.0,M,8.4,M,3.0,0000*41,1
1778780246304431669,$GPGSA,M,3,20,05,19,21,11,,,,,,,,4.3,2.2,3.6*30,1
1778780246464835502,$GPGSV,3,1,12,20,61,174,39,05,47,312,45,19,40,074,45,21,37,353,35*78,1
1778780246625357243,$GPGSV,3,2,12,11,08,005,17,14,14,145,41,17,29,106,48,24,20,228,36*7A,1
1778780246776489539,$GPGSV,3,3,12,30,09,112,35,46,29,279,38,13,57,143,,26,49,108,*7C,1
1778780246941472521,$GPRMC,173938.000,A,1205.9908,S,07701.4545,W,0.00,291.37,140526,,,D*66,1
1778780247191058446,$GPGGA,173939.000,1205.9908,S,07701.4545,W,2,05,2.2,148.0,M,8.4,M,2.0,0000*41,1
1778780247303331187,$GPGSA,M,3,20,05,19,21,11,,,,,,,,4.3,2.2,3.6*30,1
1778780247468360650,$GPRMC,173939.000,A,1205.9908,S,07701.4545,W,0.00,291.37,140526,,,D*67,1
1778780248191839964,$GPGGA,173940.000,1205.9908,S,07701.4545,W,2,05,2.2,148.0,M,8.4,M,2.0,0000*4F,1
1778780248304114353,$GPGSA,M,3,20,05,19,21,11,,,,,,,,4.3,2.2,3.6*30,1
1778780248469103057,$GPRMC,173940.000,A,1205.9908,S,07701.4545,W,0.00,291.37,140526,,,D*69,1
1778780249192627334,$GPGGA,173941.000,1205.9909,S,07701.4545,W,2,05,2.2,148.0,M,8.4,M,2.0,0000*4F,1
1778780249304907816,$GPGSA,M,3,20,05,19,21,11,,,,,,,,4.3,2.2,3.6*30,1
1778780249469910575,$GPRMC,173941.000,A,1205.9909,S,07701.4545,W,0.00,291.37,140526,,,D*69,1
1778780250187361093,$GPGGA,173942.000,1205.9909,S,07701.4545,W,2,05,2.2,148.0,M,8.4,M,3.0,0000*4D,0
1778780250299643074,$GPGSA,M,3,20,05,19,21,11,,,,,,,,4.3,2.2,3.6*30,0
1778780250464647315,$GPRMC,173942.000,A,1205.9909,S,07701.4545,W,0.00,291.37,140526,,,D*6A,0
1778780251193572426,$GPGGA,173943.000,1205.9909,S,07701.4545,W,2,05,2.2,148.0,M,8.4,M,4.0,0000*4B,0
1778780251305851018,$GPGSA,M,3,20,05,19,21,11,,,,,,,,4.3,2.2,3.6*30,0
1778780251466267796,$GPGSV,3,1,12,20,61,174,39,05,47,312,45,19,40,074,45,21,37,353,35*78,0
1778780251626666018,$GPGSV,3,2,12,11,08,005,21,06,00,041,11,14,14,145,41,17,29,106,48*75,0
1778780251782495073,$GPGSV,3,3,12,24,20,228,36,30,09,112,35,46,29,279,37,13,57,143,*7A,0
1778780251947488499,$GPRMC,173943.000,A,1205.9909,S,07701.4545,W,0.00,291.37,140526,,,D*6B,0
1778780252187904277,$GPGGA,173944.000,1205.9909,S,07701.4545,W,2,05,2.2,148.0,M,8.4,M,5.0,0000*4D,0
1778780252300218592,$GPGSA,M,3,20,05,19,21,11,,,,,,,,4.3,2.2,3.6*30,0
1778780252465241666,$GPRMC,173944.000,A,1205.9909,S,07701.4545,W,0.00,291.37,140526,,,D*6C,0
1778780253195158832,$GPGGA,173945.000,1205.9918,S,07701.4550,W,1,09,0.9,142.9,M,8.4,M,,0000*66,0
1778780253325756313,$GPGSA,M,3,20,05,19,21,17,24,14,30,11,,,,1.6,0.9,1.4*3F,0
1778780253490765443,$GPRMC,173945.000,A,1205.9918,S,07701.4550,W,0.85,291.37,140526,,,A*61,0
1778780254195734016,$GPGGA,173946.000,1205.9918,S,07701.4556,W,1,09,0.9,141.4,M,8.4,M,,0000*6D,0
1778780254326337572,$GPGSA,M,3,20,05,19,21,17,24,14,30,11,,,,1.6,0.9,1.4*3F,0
1778780254491336979,$GPRMC,173946.000,A,1205.9918,S,07701.4556,W,3.01,297.22,140526,,,A*69,0
1778780255190484090,$GPGGA,173947.000,1205.9911,S,07701.4567,W,2,05,2.2,141.1,M,8.4,M,2.0,0000*48,0
1778780255302751608,$GPGSA,M,3,20,05,19,21,11,,,,,,,,4.3,2.2,3.6*30,0
1778780255467753053,$GPRMC,173947.000,A,1205.9911,S,07701.4567,W,5.25,299.53,140526,,,D*6E,0
1778780256186045849,$GPGGA,173948.000,1205.9901,S,07701.4582,W,2,05,2.2,140.7,M,8.4,M,3.0,0000*4B,0
1778780256298334052,$GPGSA,M,3,20,05,19,21,11,,,,,,,,4.3,2.2,3.6*30,0
1778780256458744941,$GPGSV,3,1,12,20,61,174,38,05,47,312,45,19,40,074,45,21,37,353,42*79,0
1778780256619160478,$GPGSV,3,2,12,11,08,005,22,06,00,041,22,14,14,145,41,17,29,106,48*76,0
1778780256774976107,$GPGSV,3,3,12,24,20,228,36,30,09,112,35,46,29,279,39,13,57,143,*74,0
1778780256939971830,$GPRMC,173948.000,A,1205.9901,S,07701.4582,W,6.70,300.73,140526,,,D*6B,0
1778780257192253959,$GPGGA,173949.000,1205.9891,S,07701.4598,W,2,05,2.2,140.7,M,8.4,M,4.0,0000*4E,0
1778780257304536348,$GPGSA,M,3,20,05,19,21,11,,,,,,,,4.3,2.2,3.6*30,0
1778780257469529237,$GPRMC,173949.000,A,1205.9891,S,07701.4598,W,6.52,303.19,140526,,,D*66,0
1778780258191797607,$GPGGA,173950.000,1205.9878,S,07701.4613,W,2,05,2.2,140.6,M,8.4,M,2.0,0000*46,0
1778780258304125181,$GPGSA,M,3,20,05,19,21,11,,,,,,,,4.3,2.2,3.6*30,0
1778780258469154366,$GPRMC,173950.000,A,1205.9878,S,07701.4613,W,6.72,309.26,140526,,,D*6D,0
1778780259191135087,$GPGGA,173951.000,1205.9864,S,07701.4627,W,2,05,2.2,140.6,M,8.4,M,2.0,0000*4D,0
1778780259303397754,$GPGSA,M,3,20,05,19,21,11,,,,,,,,4.3,2.2,3.6*30,0
1778780259468419069,$GPRMC,173951.000,A,1205.9864,S,07701.4627,W,6.94,312.70,140526,,,D*67,0
1778780260186905087,$GPGGA,173952.000,1205.9847,S,07701.4640,W,2,05,2.2,140.5,M,8.4,M,3.0,0000*4C,0
1778780260299198587,$GPGSA,M,3,20,05,19,21,11,,,,,,,,4.3,2.2,3.6*30,0
1778780260464195031,$GPRMC,173952.000,A,1205.9847,S,07701.4640,W,7.44,322.72,140526,,,D*69,0
1778780261192287827,$GPGGA,173953.000,1205.9823,S,07701.4645,W,2,05,2.2,140.4,M,8.4,M,2.0,0000*4A,0
1778780261304569808,$GPGSA,M,3,20,05,19,21,11,,,,,,,,4.3,2.2,3.6*30,0
1778780261464981086,$GPGSV,3,1,12,20,61,174,41,05,47,312,45,19,40,074,38,21,37,353,44*7B,0
1778780261625381734,$GPGSV,3,2,12,11,08,005,21,14,14,145,33,17,29,106,32,24,20,228,37*76,0
1778780261776640734,$GPGSV,3,3,12,30,09,112,24,46,29,279,40,13,57,143,,26,49,108,*73,0
1778780261941671993,$GPRMC,173953.000,A,1205.9823,S,07701.4645,W,8.67,349.58,140526,,,D*64,0
1778780262192231123,$GPGGA,173954.000,1205.9795,S,07701.4641,W,2,05,2.2,140.3,M,8.4,M,2.0,0000*4C,0
1778780262304520697,$GPGSA,M,3,20,05,19,21,11,,,,,,,,4.3,2.2,3.6*30,0
1778780262469520993,$GPRMC,173954.000,A,1205.9795,S,07701.4641,W,10.72,15.54,140526,,,D*6E,0
1778780263189060659,$GPGGA,173955.000,1205.9762,S,07701.4628,W,2,05,2.2,140.3,M,8.4,M,3.0,0000*4B,0
1778780263301356474,$GPGSA,M,3,20,05,19,21,11,,,,,,,,4.3,2.2,3.6*30,0
1778780263466345048,$GPRMC,173955.000,A,1205.9762,S,07701.4628,W,12.84,23.48,140526,,,D*6B,0
1778780264188812788,$GPGGA,173956.000,1205.9725,S,07701.4610,W,2,05,2.2,140.9,M,8.4,M,4.0,0000*4D,0
1778780264301104992,$GPGSA,M,3,20,05,19,21,11,,,,,,,,4.3,2.2,3.6*30,0
1778780264466092732,$GPRMC,173956.000,A,1205.9725,S,07701.4610,W,14.07,25.23,140526,,,D*66,0
1778780265187933584,$GPGGA,173957.000,1205.9687,S,07701.4591,W,2,05,2.2,141.5,M,8.4,M,5.0,0000*43,0
1778780265300216325,$GPGSA,M,3,20,05,19,21,11,,,,,,,,4.3,2.2,3.6*30,0
1778780265465202528,$GPRMC,173957.000,A,1205.9687,S,07701.4591,W,14.93,25.31,140526,,,D*6A,0
1778780266188719806,$GPGGA,173958.000,1205.9647,S,07701.4572,W,2,05,2.3,142.3,M,8.4,M,6.0,0000*4A,0
1778780266300995861,$GPGSA,M,3,20,05,19,21,11,,,,,,,,4.3,2.3,3.6*31,0
1778780266461419009,$GPGSV,3,1,12,20,61,174,44,05,47,312,44,19,40,074,43,21,37,353,42*75,0
1778780266621827231,$GPGSV,3,2,12,11,08,005,30,14,14,145,25,17,29,106,40,24,20,228,38*7B,0
1778780266768481639,$GPGSV,3,3,12,46,29,279,40,13,57,143,,26,49,108,,28,40,155,*72,0
1778780266933470120,$GPRMC,173958.000,A,1205.9647,S,07701.4572,W,15.05,24.90,140526,,,D*60,0
1778780267195960509,$GPGGA,173959.000,1205.9609,S,07701.4554,W,2,05,2.3,142.8,M,8.4,M,2.0,0000*4A,0
1778780267308250305,$GPGSA,M,3,20,05,19,21,11,,,,,,,,4.3,2.3,3.6*31,0
1778780267473253305,$GPRMC,173959.000,A,1205.9609,S,07701.4554,W,14.17,24.37,140526,,,D*60,0
1778780268192613045,$GPGGA,174000.000,1205.9572,S,07701.4537,W,2,05,2.3,142.9,M,8.4,M,3.0,0000*42,0
1778780268304875082,$GPGSA,M,3,20,05,19,21,11,,,,,,,,4.3,2.3,3.6*31,0
1778780268469871563,$GPRMC,174000.000,A,1205.9572,S,07701.4537,W,13.75,24.43,140526,,,D*68,0
1778780269188384470,$GPGGA,174001.000,1205.9536,S,07701.4520,W,2,05,2.3,143.0,M,8.4,M,4.0,0000*4A,0
1778780269300655304,$GPGSA,M,3,20,05,19,21,11,,,,,,,,4.3,2.3,3.6*31,0
1778780269465653063,$GPRMC,174001.000,A,1205.9536,S,07701.4520,W,13.68,24.36,140526,,,D*61,0
1778780270192496359,$GPGGA,174002.000,1205.9501,S,07701.4503,W,2,05,2.3,142.9,M,8.4,M,5.0,0000*45,0
1778780270304793507,$GPGSA,M,3,20,05,19,21,11,,,,,,,,4.3,2.3,3.6*31,0
1778780270469780525,$GPRMC,174002.000,A,1205.9501,S,07701.4503,W,14.08,24.46,140526,,,D*61,0
1778780271192675099,$GPGGA,174003.000,1205.9464,S,07701.4486,W,2,05,2.3,142.9,M,8.4,M,2.0,0000*4D,0
1778780271304960580,$GPGSA,M,3,20,05,19,21,11,,,,,,,,4.3,2.3,3.6*31,0
1778780271465361580,$GPGSV,3,1,12,20,63,173,45,05,46,314,44,19,41,076,44,21,36,354,39*78,0
1778780271625777858,$GPGSV,3,2,12,11,08,006,25,14,13,144,26,17,29,108,33,24,21,227,40*72,0
1778780271777031098,$GPGSV,3,3,12,30,08,111,23,46,29,279,40,13,58,140,,26,49,106,*74,0
1778780271942005598,$GPRMC,174003.000,A,1205.9464,S,07701.4486,W,14.30,24.86,140526,,,D*69,0
1778780272193660654,$GPGGA,174004.000,1205.9427,S,07701.4468,W,2,05,2.3,143.0,M,8.4,M,2.0,0000*45,0
1778780272305936598,$GPGSA,M,3,20,05,19,21,11,,,,,,,,4.3,2.3,3.6*31,0
1778780272470943339,$GPRMC,174004.000,A,1205.9427,S,07701.4468,W,14.47,25.06,140526,,,D*60,0
1778780273191532875,$GPGGA,174005.000,1205.9390,S,07701.4450,W,2,05,2.3,143.0,M,8.4,M,2.0,0000*44,0
1778780273303817746,$GPGSA,M,3,20,05,19,21,11,,,,,,,,4.3,2.3,3.6*31,0
1778780273468815635,$GPRMC,174005.000,A,1205.9390,S,07701.4450,W,14.46,25.84,140526,,,D*6A,0
1778780274186288523,$GPGGA,174006.000,1205.9353,S,07701.4431,W,2,05,2.3,143.4,M,8.4,M,3.0,0000*4A,0
1778780274298570282,$GPGSA,M,3,20,05,19,21,11,,,,,,,,4.3,2.3,3.7*30,0
1778780274463565486,$GPRMC,174006.000,A,1205.9353,S,07701.4431,W,14.28,29.42,140526,,,D*6F,0
1778780275192067708,$GPGGA,174007.000,1205.9316,S,07701.4411,W,2,05,2.3,144.0,M,8.4,M,4.0,0000*4C,0
1778780275304361096,$GPGSA,M,3,20,05,19,21,11,,,,,,,,4.3,2.3,3.7*30,0
1778780275469347411,$GPRMC,174007.000,A,1205.9316,S,07701.4411,W,14.58,26.60,140526,,,D*65,0
1778780276188476022,$GPGGA,174008.000,1205.9278,S,07701.4394,W,2,05,2.3,144.8,M,8.4,M,5.0,0000*49,0
1778780276300829855,$GPGSA,M,3,20,05,19,21,11,,,,,,,,4.3,2.3,3.7*30,0
1778780276461174892,$GPGSV,3,1,12,20,63,173,46,05,46,314,42,19,41,076,31,21,36,354,37*71,0
1778780276621587540,$GPGSV,3,2,12,11,08,006,28,14,13,144,25,17,29,108,30,24,21,227,37*7F,0
1778780276772826040,$GPGSV,3,3,12,30,08,111,23,46,29,279,42,13,58,140,,26,49,106,*76,0
1778780276937812095,$GPRMC,174008.000,A,1205.9278,S,07701.4394,W,14.43,24.50,140526,,,D*62,0
1778780277191549373,$GPGGA,174009.000,1205.9240,S,07701.4377,W,2,05,2.3,145.5,M,8.4,M,2.0,0000*45,0
1778780277303861780,$GPGSA,M,3,20,05,19,21,11,,,,,,,,4.3,2.3,3.7*30,0
1778780277468836077,$GPRMC,174009.000,A,1205.9240,S,07701.4377,W,14.22,24.19,140526,,,D*6F,0
1778780278192553706,$GPGGA,174010.000,1205.9205,S,07701.4359,W,2,05,2.3,146.0,M,8.4,M,2.0,0000*46,0
1778780278304839854,$GPGSA,M,3,20,05,19,21,11,,,,,,,,4.3,2.3,3.7*30,0
1778780278469835854,$GPRMC,174010.000,A,1205.9205,S,07701.4359,W,13.87,26.40,140526,,,D*6C,0
1778780279186671927,$GPGGA,174011.000,1205.9170,S,07701.4342,W,2,05,2.3,146.3,M,8.4,M,3.0,0000*4E,0
1778780279298960409,$GPGSA,M,3,20,05,19,21,11,,,,,,,,4.3,2.3,3.7*30,0
1778780279463956483,$GPRMC,174011.000,A,1205.9170,S,07701.4342,W,13.73,25.63,140526,,,D*6F,0
1778780280187263093,$GPGGA,174012.000,1205.9134,S,07701.4325,W,2,05,2.3,146.7,M,8.4,M,4.0,0000*4F,0
1778780280299543242,$GPGSA,M,3,20,05,19,21,11,,,,,,,,4.3,2.3,3.7*30,0
1778780280464541223,$GPRMC,174012.000,A,1205.9134,S,07701.4325,W,13.93,24.53,140526,,,D*61,0
1778780281189578000,$GPGGA,174013.000,1205.9098,S,07701.4308,W,2,05,2.3,147.0,M,8.4,M,5.0,0000*41,0
1778780281301786759,$GPGSA,M,3,20,05,19,21,11,,,,,,,,4.3,2.3,3.7*30,0
1778780281462198722,$GPGSV,3,1,12,20,63,173,46,05,46,314,42,19,41,076,42,21,36,354,37*75,0
1778780281622638315,$GPGSV,3,2,12,11,08,006,28,06,00,043,15,14,13,144,25,17,29,108,42*79,0
1778780281778458574,$GPGSV,3,3,12,24,21,227,35,30,08,111,16,46,29,279,42,13,58,140,*7A,0
1778780281943436463,$GPRMC,174013.000,A,1205.9098,S,07701.4308,W,13.79,24.70,140526,,,D*6D,0
1778780282186121629,$GPGGA,174014.000,1205.9061,S,07701.4291,W,2,05,2.3,147.5,M,8.4,M,6.0,0000*47,0
1778780282298408926,$GPGSA,M,3,20,05,19,21,11,,,,,,,,4.3,2.3,3.7*30,0
1778780282463403592,$GPRMC,174014.000,A,1205.9061,S,07701.4291,W,14.18,25.18,140526,,,D*62,0
1778780283193385092,$GPGGA,174015.000,1205.9025,S,07701.4274,W,2,05,2.3,148.2,M,8.4,M,7.0,0000*44,0
1778780283305660332,$GPGSA,M,3,20,05,19,21,11,,,,,,,,4.3,2.3,3.7*30,0
1778780283470663147,$GPRMC,174015.000,A,1205.9025,S,07701.4274,W,14.04,25.30,140526,,,D*6F,0
1778780284187489258,$GPGGA,174016.000,1205.8988,S,07701.4257,W,2,05,2.3,148.9,M,8.4,M,8.0,0000*4D,0
1778780284299787739,$GPGSA,M,3,20,05,19,21,11,,,,,,,,4.3,2.3,3.7*30,0
1778780284464805221,$GPRMC,174016.000,A,1205.8988,S,07701.4257,W,14.03,25.35,140526,,,D*60,0
1778780285187670239,$GPGGA,174017.000,1205.8951,S,07701.4240,W,2,05,2.3,149.7,M,8.4,M,9.0,0000*40,0
1778780285299941831,$GPGSA,M,3,20,05,19,21,11,,,,,,,,4.3,2.3,3.7*30,0
1778780285464940127,$GPRMC,174017.000,A,1205.8951,S,07701.4240,W,14.04,24.73,140526,,,D*67,0
1778780286195334016,$GPGGA,174018.000,1205.8915,S,07701.4224,W,2,05,2.3,150.0,M,8.4,M,10.0,0000*7A,0
1778780286307601479,$GPGSA,M,3,20,05,19,21,11,,,,,,,,4.3,2.3,3.7*30,0
1778780286468017368,$GPGSV,3,1,12,20,63,173,45,05,46,314,42,19,41,076,42,21,36,354,37*76,0
1778780286628415534,$GPGSV,3,2,12,11,08,006,29,14,13,144,24,17,29,108,28,24,21,227,41*77,0
1778780286779670553,$GPGSV,3,3,12,30,08,111,16,46,29,279,31,13,58,140,,26,49,106,*74,0
1778780286944668441,$GPRMC,174018.000,A,1205.8915,S,07701.4224,W,13.90,25.02,140526,,,D*67,0
1778780287191314645,$GPGGA,174019.000,1205.8879,S,07701.4207,W,2,05,2.3,150.3,M,8.4,M,11.0,0000*73,0
1778780287303610626,$GPGSA,M,3,20,05,19,21,11,,,,,,,,4.3,2.3,3.7*30,0
1778780287468597108,$GPRMC,174019.000,A,1205.8879,S,07701.4207,W,13.86,24.40,140526,,,D*6C,0
1778780288193984385,$GPGGA,174020.000,1205.8843,S,07701.4191,W,2,05,2.3,151.1,M,8.4,M,12.0,0000*7C,0
1778780288306272885,$GPGSA,M,3,20,05,19,21,11,,,,,,,,4.3,2.3,3.7*30,0
1778780288471254052,$GPRMC,174020.000,A,1205.8843,S,07701.4191,W,13.61,24.66,140526,,,D*6E,0
1778780289190605033,$GPGGA,174021.000,1205.8810,S,07701.4175,W,2,05,2.3,150.8,M,8.4,M,13.0,0000*78,0
1778780289302903458,$GPGSA,M,3,20,05,19,21,11,,,,,,,,4.3,2.3,3.7*30,0
1778780289467887718,$GPRMC,174021.000,A,1205.8810,S,07701.4175,W,12.80,23.98,140526,,,D*6B,0
1778780290190758162,$GPGGA,174022.000,1205.8777,S,07701.4161,W,2,05,2.3,151.2,M,8.4,M,14.0,0000*7C,0
1778780290303068569,$GPGSA,M,3,20,05,19,21,11,,,,,,,,4.3,2.3,3.7*30,0
1778780290468051180,$GPRMC,174022.000,A,1205.8777,S,07701.4161,W,11.91,24.12,140526,,,D*65,0
1778780291190718031,$GPGGA,174023.000,1205.8748,S,07701.4148,W,2,05,2.3,151.3,M,8.4,M,15.0,0000*7A,0
1778780291303014457,$GPGSA,M,3,20,05,19,21,11,,,,,,,,4.3,2.3,3.7*30,0
1778780291463408661,$GPGSV,3,1,12,20,63,173,45,05,46,314,43,19,41,076,43,21,36,354,37*76,0
1778780291623809735,$GPGSV,3,2,12,11,08,006,21,14,13,144,22,17,29,108,26,24,21,227,39*78,0
1778780291775068161,$GPGSV,3,3,12,30,08,111,14,46,29,279,27,13,58,140,,26,49,106,*71,0
1778780291940067549,$GPRMC,174023.000,A,1205.8748,S,07701.4148,W,10.99,25.44,140526,,,D*68,0
1778780292189850105,$GPGGA,174024.000,1205.8723,S,07701.4136,W,2,05,2.3,151.4,M,8.4,M,16.0,0000*7D,0
1778780292302125846,$GPGSA,M,3,20,05,19,21,11,,,,,,,,4.3,2.3,3.7*30,0
1778780292464828790,$GPRMC,174024.000,A,1205.8723,S,07701.4136,W,9.14,24.89,140526,,,D*56,0
1778780293191453289,$GPGGA,174025.000,1205.8703,S,07701.4128,W,2,05,2.3,151.3,M,8.4,M,17.0,0000*77,0
1778780293303754289,$GPGSA,M,3,20,05,19,21,11,,,,,,,,4.3,2.3,3.7*30,0
1778780293466449808,$GPRMC,174025.000,A,1205.8703,S,07701.4128,W,6.98,21.02,140526,,,D*57,0
1778780294192034659,$GPGGA,174026.000,1205.8687,S,07701.4124,W,2,05,2.3,151.3,M,8.4,M,18.0,0000*7A,0
1778780294304335937,$GPGSA,M,3,20,05,19,21,11,,,,,,,,4.3,2.3,3.7*30,0
1778780294467044103,$GPRMC,174026.000,A,1205.8687,S,07701.4124,W,5.41,10.85,140526,,,D*5F,0
1778780295195750492,$GPGGA,174027.000,1205.8677,S,07701.4130,W,1,09,0.9,148.4,M,8.4,M,,0000*6E,0
1778780295326355918,$GPGSA,M,3,20,05,19,21,17,24,14,30,11,,,,1.6,0.9,1.4*3F,0
1778780295491359158,$GPRMC,174027.000,A,1205.8677,S,07701.4130,W,5.79,350.82,140526,,,A*6A,0
1778780296193201880,$GPGGA,174028.000,1205.8664,S,07701.4142,W,1,09,0.9,147.0,M,8.4,M,,0000*6D,0
1778780296323852732,$GPGSA,M,3,20,05,19,21,17,24,14,30,11,,,,1.6,0.9,1.4*3F,0
1778780296484248139,$GPGSV,3,1,12,20,63,173,45,05,46,314,44,19,41,076,43,21,36,354,46*77,0
1778780296644650028,$GPGSV,3,2,12,17,29,108,43,24,21,227,39,14,13,144,28,30,08,111,26*72,0
1778780296795924528,$GPGSV,3,3,12,11,08,006,22,46,29,279,42,13,58,140,,26,49,106,*73,0
1778780296960954121,$GPRMC,174028.000,A,1205.8664,S,07701.4142,W,7.16,322.33,140526,,,A*66,0
1778780297193157417,$GPGGA,174029.000,1205.8651,S,07701.4161,W,2,05,2.3,147.0,M,8.4,M,2.0,0000*40,0
1778780297305431120,$GPGSA,M,3,20,05,19,21,11,,,,,,,,4.3,2.3,3.7*30,0
1778780297470441602,$GPRMC,174029.000,A,1205.8651,S,07701.4161,W,8.85,297.59,140526,,,D*63,0
1778780298193329212,$GPGGA,174030.000,1205.8646,S,07701.4190,W,1,08,1.0,145.8,M,8.4,M,,0000*68,0
1778780298319356397,$GPGSA,M,3,20,05,19,21,17,24,14,30,,,,,2.1,1.0,1.8*3F,0
1778780298486653434,$GPRMC,174030.000,A,1205.8646,S,07701.4190,W,10.14,282.28,140526,,,A*55,0
1778780299193905878,$GPGGA,174031.000,1205.8641,S,07701.4221,W,2,05,2.3,145.9,M,8.4,M,3.0,0000*45,0
1778780299306180212,$GPGSA,M,3,20,05,19,21,11,,,,,,,,4.3,2.3,3.7*30,0
1778780299473462823,$GPRMC,174031.000,A,1205.8641,S,07701.4221,W,11.04,278.71,140526,,,D*56,0
1778780300196346563,$GPGGA,174032.000,1205.8637,S,07701.4253,W,2,05,2.3,145.9,M,8.4,M,2.0,0000*43,0
1778780300308632804,$GPGSA,M,3,20,05,19,21,11,,,,,,,,4.3,2.3,3.7*30,0
1778780300475932322,$GPRMC,174032.000,A,1205.8637,S,07701.4253,W,11.61,277.49,140526,,,D*56,0
1778780301194229711,$GPGGA,174033.000,1205.8632,S,07701.4287,W,2,05,2.3,146.0,M,8.4,M,2.0,0000*44,0
1778780301306508525,$GPGSA,M,3,20,05,19,21,11,,,,,,,,4.3,2.3,3.7*30,0
1778780301466925859,$GPGSV,3,1,12,20,63,173,45,05,46,314,45,19,41,076,45,21,36,354,44*72,0
1778780301627334525,$GPGSV,3,2,12,11,08,006,16,14,13,144,28,17,29,108,46,24,21,227,35*7C,0
1778780301778567118,$GPGSV,3,3,12,30,08,111,32,46,29,279,41,13,58,140,,26,49,106,*75,0
1778780301945850655,$GPRMC,174033.000,A,1205.8632,S,07701.4287,W,11.80,277.85,140526,,,D*54,0
1778780302193969914,$GPGGA,174034.000,1205.8628,S,07701.4321,W,2,05,2.3,146.0,M,8.4,M,2.0,0000*45,0
1778780302306254562,$GPGSA,M,3,20,05,19,21,11,,,,,,,,4.3,2.3,3.7*30,0
1778780302473553543,$GPRMC,174034.000,A,1205.8628,S,07701.4321,W,11.67,278.49,140526,,,D*53,0
1778780303194964321,$GPGGA,174035.000,1205.8624,S,07701.4354,W,2,05,2.3,146.1,M,8.4,M,2.0,0000*4B,0
1778780303307262543,$GPGSA,M,3,20,05,19,21,11,,,,,,,,4.3,2.3,3.7*30,0
1778780303474558617,$GPRMC,174035.000,A,1205.8624,S,07701.4354,W,11.53,278.28,140526,,,D*5C,0
1778780304192852246,$GPGGA,174036.000,1205.8620,S,07701.4386,W,2,05,2.3,146.2,M,8.4,M,3.0,0000*41,0
1778780304305122468,$GPGSA,M,3,20,05,19,21,11,,,,,,,,4.3,2.3,3.7*30,0
1778780304472418783,$GPRMC,174036.000,A,1205.8620,S,07701.4386,W,11.22,278.16,140526,,,D*5F,0
1778780305194070023,$GPGGA,174037.000,1205.8616,S,07701.4418,W,2,05,2.3,146.4,M,8.4,M,4.0,0000*44,0
1778780305306328690,$GPGSA,M,3,20,05,19,21,11,,,,,,,,4.3,2.3,3.7*30,0
1778780305473616393,$GPRMC,174037.000,A,1205.8616,S,07701.4418,W,10.92,278.09,140526,,,D*5F,0
1778780306194627578,$GPGGA,174038.000,1205.8613,S,07701.4448,W,2,05,2.3,146.5,M,8.4,M,2.0,0000*4C,0
1778780306306920133,$GPGSA,M,3,20,05,19,21,11,,,,,,,,4.3,2.3,3.7*30,0
1778780306467393170,$GPGSV,3,1,12,20,63,173,45,05,46,314,46,19,41,076,46,21,36,354,33*72,0
1778780306627725948,$GPGSV,3,2,12,11,08,006,15,06,00,043,14,14,13,144,34,17,29,108,47*73,0
1778780306783554874,$GPGSV,3,3,12,24,21,227,38,30,08,111,32,46,29,279,36,13,58,140,*72,0
1778780306950842559,$GPRMC,174038.000,A,1205.8613,S,07701.4448,W,10.35,277.76,140526,,,D*5A,0
1778780307188952892,$GPGGA,174039.000,1205.8611,S,07701.4476,W,2,05,2.3,146.8,M,8.4,M,3.0,0000*4E,0
1778780307301239485,$GPGSA,M,3,20,05,19,21,11,,,,,,,,4.3,2.3,3.7*30,0
1778780307466242059,$GPRMC,174039.000,A,1205.8611,S,07701.4476,W,9.34,276.90,140526,,,D*64,0
1778780308187887410,$GPGGA,174040.000,1205.8610,S,07701.4500,W,2,05,2.3,146.9,M,8.4,M,4.0,0000*47,0
1778780308300159206,$GPGSA,M,3,20,05,19,21,11,,,,,,,,4.3,2.3,3.7*30,0
1778780308465156391,$GPRMC,174040.000,A,1205.8610,S,07701.4500,W,7.81,276.49,140526,,,D*6F,0
1778780309187410206,$GPGGA,174041.000,1205.8608,S,07701.4520,W,2,05,2.3,147.0,M,8.4,M,5.0,0000*44,0
1778780309299704558,$GPGSA,M,3,20,05,19,21,11,,,,,,,,4.3,2.3,3.7*30,0
1778780309464697317,$GPRMC,174041.000,A,1205.8608,S,07701.4520,W,6.49,274.81,140526,,,D*66,0
1778780310187364927,$GPGGA,174042.000,1205.8610,S,07701.4537,W,2,04,1.9,147.1,M,8.4,M,6.0,0000*42,0
1778780310295083409,$GPGSA,M,3,20,05,19,21,,,,,,,,,3.7,1.9,3.2*3F,0
1778780310460065001,$GPRMC,174042.000,A,1205.8610,S,07701.4537,W,5.97,263.56,140526,,,D*66,0
1778780311188786408,$GPGGA,174043.000,1205.8620,S,07701.4554,W,1,08,1.0,145.7,M,8.4,M,,0000*6F,0
1778780311314806186,$GPGSA,M,3,20,05,19,21,17,24,14,30,,,,,2.1,1.0,1.8*3F,0
1778780311475222260,$GPGSV,3,1,12,20,63,173,44,05,46,314,40,19,41,076,46,21,36,354,43*72,0
1778780311635625075,$GPGSV,3,2,12,17,29,108,47,24,21,227,27,14,13,144,30,30,08,111,34*73,0
1778780311786865667,$GPGSV,3,3,12,11,08,006,05,46,29,279,22,13,58,140,,26,49,106,*70,0
1778780311951870556,$GPRMC,174043.000,A,1205.8620,S,07701.4554,W,7.01,241.78,140526,,,A*65,0
1778780312186655297,$GPGGA,174044.000,1205.8636,S,07701.4571,W,1,08,1.0,145.2,M,8.4,M,,0000*6D,0
1778780312312687334,$GPGSA,M,3,20,05,19,21,17,24,14,30,,,,,2.1,1.0,1.8*3F,0
1778780312477672074,$GPRMC,174044.000,A,1205.8636,S,07701.4571,W,8.51,220.27,140526,,,A*65,0
1778780313186200889,$GPGGA,174045.000,1205.8658,S,07701.4584,W,1,08,1.0,146.2,M,8.4,M,,0000*6D,0
1778780313312225092,$GPGSA,M,3,20,05,19,21,17,24,14,30,,,,,2.1,1.0,1.8*3F,0
1778780313477224740,$GPRMC,174045.000,A,1205.8658,S,07701.4584,W,9.74,208.73,140526,,,A*6B,0
1778780314185107444,$GPGGA,174046.000,1205.8685,S,07701.4597,W,1,08,1.0,146.8,M,8.4,M,,0000*66,0
1778780314311129795,$GPGSA,M,3,20,05,19,21,17,24,14,30,,,,,2.1,1.0,1.8*3F,0
1778780314478420814,$GPRMC,174046.000,A,1205.8685,S,07701.4597,W,10.64,203.69,140526,,,A*53,0
1778780315185260813,$GPGGA,174047.000,1205.8714,S,07701.4609,W,1,08,1.0,146.7,M,8.4,M,,0000*65,0
1778780315311291943,$GPGSA,M,3,20,05,19,21,17,24,14,30,,,,,2.1,1.0,1.8*3F,0
1778780315478586776,$GPRMC,174047.000,A,1205.8714,S,07701.4609,W,10.75,202.59,140526,,,A*5D,0
1778780316185426461,$GPGGA,174048.000,1205.8745,S,07701.4620,W,1,08,1.0,146.1,M,8.4,M,,0000*63,0
1778780316311466813,$GPGSA,M,3,20,05,19,21,17,24,14,30,,,,,2.1,1.0,1.8*3F,0
1778780316471889239,$GPGSV,3,1,12,20,63,173,44,05,46,314,30,19,41,076,45,21,36,354,39*7B,0
1778780316632281646,$GPGSV,3,2,12,17,29,108,43,24,21,227,28,14,13,144,30,30,08,111,27*7A,0
1778780316778930127,$GPGSV,3,3,12,11,08,006,14,46,29,279,,13,58,140,,26,49,106,*70,0
1778780316946217497,$GPRMC,174048.000,A,1205.8745,S,07701.4620,W,11.02,200.58,140526,,,A*5F,0
1778780317186210349,$GPGGA,174049.000,1205.8773,S,07701.4632,W,1,08,1.0,146.5,M,8.4,M,,0000*60,0
1778780317312265849,$GPGSA,M,3,20,05,19,21,17,24,14,30,,,,,2.1,1.0,1.8*3F,0
1778780317479545645,$GPRMC,174049.000,A,1205.8773,S,07701.4632,W,10.42,206.10,140526,,,A*57,0
1778780318186376312,$GPGGA,174050.000,1205.8798,S,07701.4644,W,1,08,1.0,147.3,M,8.4,M,,0000*6B,0
1778780318312409663,$GPGSA,M,3,20,05,19,21,17,24,14,30,,,,,2.1,1.0,1.8*3F,0
1778780318477410108,$GPRMC,174050.000,A,1205.8798,S,07701.4644,W,9.13,206.85,140526,,,A*6B,0
1778780319190303181,$GPGGA,174051.000,1205.8818,S,07701.4655,W,2,05,2.3,147.4,M,8.4,M,15.0,0000*7E,0
1778780319302567644,$GPGSA,M,3,20,05,19,21,11,,,,,,,,4.4,2.3,3.7*37,0
1778780319467577552,$GPRMC,174051.000,A,1205.8818,S,07701.4655,W,6.80,208.37,140526,,,D*6A,0
1778780320190446218,$GPGGA,174052.000,1205.8832,S,07701.4662,W,2,05,2.3,147.6,M,8.4,M,16.0,0000*70,0
1778780320302741255,$GPGSA,M,3,20,05,19,21,11,,,,,,,,4.4,2.3,3.7*37,0
1778780320467747366,$GPRMC,174052.000,A,1205.8832,S,07701.4662,W,4.16,207.41,140526,,,D*66,0
1778780321190613569,$GPGGA,174053.000,1205.8844,S,07701.4665,W,2,05,2.3,147.9,M,8.4,M,17.0,0000*79,0
1778780321302890810,$GPGSA,M,3,20,05,19,21,11,,,,,,,,4.4,2.3,3.7*37,0
1778780321463312199,$GPGSV,3,1,12,20,63,173,44,05,46,314,29,19,41,076,33,21,36,354,41*7D,0
1778780321623727069,$GPGSV,3,2,12,11,08,006,13,14,13,144,26,17,29,108,36,24,21,227,28*7C,0
1778780321770381476,$GPGSV,3,3,12,30,08,111,26,46,29,279,,13,58,140,,26,49,106,*75,0
1778780321935363402,$GPRMC,174053.000,A,1205.8844,S,07701.4665,W,3.41,208.21,140526,,,D*6D,0
1778780322190369050,$GPGGA,174054.000,1205.8852,S,07701.4667,W,2,05,2.3,148.1,M,8.4,M,18.0,0000*73,0
1778780322302642976,$GPGSA,M,3,20,05,19,21,11,,,,,,,,4.4,2.3,3.7*37,0
1778780322467662828,$GPRMC,174054.000,A,1205.8852,S,07701.4667,W,1.79,207.70,140526,,,D*6D,0
1778780323187408123,$GPGGA,174055.000,1205.8857,S,07701.4670,W,1,09,0.9,149.3,M,8.4,M,,0000*62,1
1778780323318031216,$GPGSA,M,3,20,05,19,21,17,24,14,30,11,,,,1.6,0.9,1.4*3F,1
1778780323483013512,$GPRMC,174055.000,A,1205.8857,S,07701.4670,W,0.69,207.70,140526,,,A*6A,1
1778780324188182364,$GPGGA,174056.000,1205.8860,S,07701.4677,W,1,09,0.9,150.6,M,8.4,M,,0000*6F,1
1778780324318819234,$GPGSA,M,3,20,05,19,21,17,24,14,30,11,,,,1.6,0.9,1.4*3F,1
1778780324483795012,$GPRMC,174056.000,A,1205.8860,S,07701.4677,W,0.02,207.70,140526,,,A*67,1
1778780325187720604,$GPGGA,174057.000,1205.8860,S,07701.4678,W,1,09,0.9,150.4,M,8.4,M,,0000*63,1
1778780325318348974,$GPGSA,M,3,20,05,19,21,17,24,14,30,11,,,,1.6,0.9,1.4*3F,1
1778780325483337178,$GPRMC,174057.000,A,1205.8860,S,07701.4678,W,0.00,207.70,140526,,,A*6B,1
1778780326186435233,$GPGGA,174058.000,1205.8860,S,07701.4678,W,1,08,0.9,150.5,M,8.4,M,,0000*6C,1
1778780326312480029,$GPGSA,M,3,20,05,19,21,17,24,14,11,,,,,1.7,0.9,1.5*3C,1
1778780326472894918,$GPGSV,3,1,12,20,63,173,44,05,46,314,30,19,41,076,34,21,36,354,37*73,1
1778780326633296862,$GPGSV,3,2,12,17,29,108,36,24,21,227,28,14,13,144,26,11,08,006,13*7C,1
1778780326779948084,$GPGSV,3,3,12,30,08,111,07,46,29,279,,13,58,140,,26,49,106,*76,1
1778780326944945843,$GPRMC,174058.000,A,1205.8860,S,07701.4678,W,0.00,207.70,140526,,,A*64,1
1778780327190364677,$GPGGA,174059.000,1205.8860,S,07701.4678,W,1,09,0.9,150.5,M,8.4,M,,0000*6C,1
1778780327320968769,$GPGSA,M,3,20,05,19,21,17,24,14,30,11,,,,1.6,0.9,1.4*3F,1
1778780327485949343,$GPRMC,174059.000,A,1205.8860,S,07701.4678,W,0.00,207.70,140526,,,A*65,1
1778780328187794657,$GPGGA,174100.000,1205.8860,S,07701.4678,W,1,08,1.0,150.5,M,8.4,M,,0000*68,1
1778780328313828176,$GPGSA,M,3,20,05,19,21,17,24,14,30,,,,,2.1,1.0,1.8*3F,1
1778780328478830009,$GPRMC,174100.000,A,1205.8860,S,07701.4678,W,0.00,207.70,140526,,,A*68,1
1778780329187337638,$GPGGA,174101.000,1205.8860,S,07701.4679,W,1,08,1.0,150.6,M,8.4,M,,0000*6B,0
1778780329313383268,$GPGSA,M,3,20,05,19,21,17,24,14,30,,,,,2.1,1.0,1.8*3F,0
1778780329478377546,$GPRMC,174101.000,A,1205.8860,S,07701.4679,W,0.00,207.70,140526,,,A*68,0
1778780330184165786,$GPGGA,174102.000,1205.8861,S,07701.4684,W,1,08,1.0,152.4,M,8.4,M,,0000*6B,0
1778780330310206527,$GPGSA,M,3,20,05,19,21,17,24,14,30,,,,,2.0,1.0,1.8*3E,0
1778780330475193989,$GPRMC,174102.000,A,1205.8861,S,07701.4684,W,1.15,207.70,140526,,,A*6D,0
1778780331186850508,$GPGGA,174103.000,1205.8864,S,07701.4692,W,1,08,1.0,154.2,M,8.4,M,,0000*68,0
1778780331312873322,$GPGSA,M,3,20,05,19,21,17,24,14,30,,,,,2.0,1.0,1.8*3E,0
1778780331473287711,$GPGSV,3,1,12,20,63,173,45,05,46,314,22,19,41,076,34,21,36,354,32*74,0
1778780331633691674,$GPGSV,3,2,12,17,29,108,36,24,21,227,32,14,13,144,27,30,08,111,19*78,0
1778780331784943785,$GPGSV,3,3,12,11,08,006,08,46,29,279,32,13,58,140,,26,49,106,*7C,0
1778780331949916229,$GPRMC,174103.000,A,1205.8864,S,07701.4692,W,3.06,223.94,140526,,,A*62,0
1778780332186781618,$GPGGA,174104.000,1205.8872,S,07701.4705,W,1,08,1.0,155.1,M,8.4,M,,0000*65,0
1778780332312822729,$GPGSA,M,3,20,05,19,21,17,24,14,30,,,,,2.0,1.0,1.8*3E,0
1778780332477805988,$GPRMC,174104.000,A,1205.8872,S,07701.4705,W,4.88,231.44,140526,,,A*62,0
1778780333185482654,$GPGGA,174105.000,1205.8882,S,07701.4719,W,1,08,1.0,156.4,M,8.4,M,,0000*60,0
1778780333311521210,$GPGSA,M,3,20,05,19,21,17,24,14,30,,,,,2.0,1.0,1.8*3E,0
1778780333476515654,$GPRMC,174105.000,A,1205.8882,S,07701.4719,W,4.51,225.00,140526,,,A*60,0
1778780334186076969,$GPGGA,174106.000,1205.8893,S,07701.4731,W,1,08,1.0,157.7,M,8.4,M,,0000*6B,0
1778780334312101172,$GPGSA,M,3,20,05,19,21,17,24,14,30,,,,,2.0,1.0,1.8*3E,0
1778780334477100746,$GPRMC,174106.000,A,1205.8893,S,07701.4731,W,4.84,223.41,140526,,,A*62,0
1778780335187489061,$GPGGA,174107.000,1205.8906,S,07701.4745,W,1,08,1.0,159.3,M,8.4,M,,0000*6E,0
1778780335313526061,$GPGSA,M,3,20,05,19,21,17,24,14,30,,,,,2.0,1.0,1.8*3E,0
1778780335478505098,$GPRMC,174107.000,A,1205.8906,S,07701.4745,W,5.52,218.18,140526,,,A*63,0
1778780336187016208,$GPGGA,174108.000,1205.8926,S,07701.4755,W,1,08,1.0,160.2,M,8.4,M,,0000*69,0
1778780336313055912,$GPGSA,M,3,20,05,19,21,17,24,14,30,,,,,2.0,1.0,1.8*3E,0
1778780336473456986,$GPGSV,3,1,12,20,63,173,44,05,46,314,19,19,41,076,33,21,36,354,33*7B,0
1778780336633931838,$GPGSV,3,2,12,17,29,108,31,24,21,227,33,14,13,144,27,30,08,111,22*76,0
1778780336785114078,$GPGSV,3,3,12,11,08,006,11,46,29,279,32,13,58,140,,26,49,106,*74,0
1778780336950106986,$GPRMC,174108.000,A,1205.8926,S,07701.4755,W,8.07,211.83,140526,,,A*69,0
1778780337186769782,$GPGGA,174109.000,1205.8950,S,07701.4768,W,1,08,1.0,162.3,M,8.4,M,,0000*64,0
1778780337312800300,$GPGSA,M,3,20,05,19,21,17,24,14,30,,,,,2.0,1.0,1.8*3E,0
1778780337477809819,$GPRMC,174109.000,A,1205.8950,S,07701.4768,W,9.95,210.58,140526,,,A*6A,0
1778780338186729874,$GPGGA,174110.000,1205.8983,S,07701.4784,W,1,08,1.0,162.9,M,8.4,M,,0000*6A,0
1778780338312755040,$GPGSA,M,3,20,05,19,21,17,24,14,30,,,,,2.0,1.0,1.8*3E,0
1778780338480035133,$GPRMC,174110.000,A,1205.8983,S,07701.4784,W,11.49,205.58,140526,,,A*52,0
1778780339186685225,$GPGGA,174111.000,1205.9021,S,07701.4798,W,1,08,1.0,162.7,M,8.4,M,,0000*68,0
1778780339312710188,$GPGSA,M,3,20,05,19,21,17,24,14,30,,,,,2.0,1.0,1.8*3E,0
1778780339479997188,$GPRMC,174111.000,A,1205.9021,S,07701.4798,W,12.23,204.62,140526,,,A*59,0
1778780340186632298,$GPGGA,174112.000,1205.9057,S,07701.4812,W,1,08,1.0,162.3,M,8.4,M,,0000*63,0
1778780340312666650,$GPGSA,M,3,20,05,19,21,17,24,14,30,,,,,2.0,1.0,1.8*3E,0
1778780340479948706,$GPRMC,174112.000,A,1205.9057,S,07701.4812,W,12.86,204.70,140526,,,A*5A,0
1778780341188038002,$GPGGA,174113.000,1205.9096,S,07701.4830,W,1,08,1.0,161.8,M,8.4,M,,0000*67,0
1778780341314074946,$GPGSA,M,3,20,05,19,21,17,24,14,30,,,,,2.0,1.0,1.8*3E,0
1778780341474499483,$GPGSV,3,1,12,20,63,173,43,05,46,314,37,19,41,076,44,21,36,354,23*71,0
1778780341634910205,$GPGSV,3,2,12,17,29,108,40,24,21,227,39,14,13,144,27,30,08,111,22*7A,0
1778780341786138483,$GPGSV,3,3,12,11,08,006,06,46,29,279,41,13,58,140,,26,49,106,*76,0
1778780341953422557,$GPRMC,174113.000,A,1205.9096,S,07701.4830,W,13.32,205.32,140526,,,A*5F,0
1778780342186548019,$GPGGA,174114.000,1205.9139,S,07701.4842,W,1,08,1.0,161.0,M,8.4,M,,0000*69,0
1778780342312582093,$GPGSA,M,3,20,05,19,21,17,24,14,30,,,,,2.0,1.0,1.8*3E,0
1778780342479919890,$GPRMC,174114.000,A,1205.9139,S,07701.4842,W,13.75,205.09,140526,,,A*52,0
1778780343187338445,$GPGGA,174115.000,1205.9178,S,07701.4859,W,1,08,1.0,160.8,M,8.4,M,,0000*6E,0
1778780343313358871,$GPGSA,M,3,20,05,19,21,17,24,14,30,,,,,2.0,1.0,1.8*3E,0
1778780343480689537,$GPRMC,174115.000,A,1205.9178,S,07701.4859,W,13.91,204.70,140526,,,A*59,0
1778780344187742166,$GPGGA,174116.000,1205.9218,S,07701.4874,W,1,08,1.0,160.0,M,8.4,M,,0000*6F,0
1778780344313733759,$GPGSA,M,3,20,05,19,21,17,24,14,30,,,,,2.0,1.0,1.8*3E,0
1778780344481032129,$GPRMC,174116.000,A,1205.9218,S,07701.4874,W,14.31,205.20,140526,,,A*59,0
1778780345185992203,$GPGGA,174117.000,1205.9256,S,07701.4892,W,1,08,1.0,159.9,M,8.4,M,,0000*6F,0
1778780345312024518,$GPGSA,M,3,20,05,19,21,17,24,14,30,,,,,2.0,1.0,1.8*3E,0
1778780345479324406,$GPRMC,174117.000,A,1205.9256,S,07701.4892,W,14.59,204.97,140526,,,A*59,0
1778780346186991017,$GPGGA,174118.000,1205.9296,S,07701.4909,W,1,08,1.0,159.5,M,8.4,M,,0000*63,0
1778780346313018776,$GPGSA,M,3,20,05,19,21,17,24,14,30,,,,,2.0,1.0,1.8*3E,0
1778780346473441776,$GPGSV,3,1,12,20,63,173,39,05,46,314,41,19,41,076,43,21,36,354,26*7F,0
1778780346633834572,$GPGSV,3,2,12,17,29,108,24,24,21,227,32,14,13,144,25,30,08,111,18*78,0
1778780346785082295,$GPGSV,3,3,12,11,08,006,06,46,29,279,38,13,58,140,,26,49,106,*78,0
1778780346952376906,$GPRMC,174118.000,A,1205.9296,S,07701.4909,W,14.87,205.28,140526,,,A*5F,0
1778780347188818165,$GPGGA,174119.000,1205.9336,S,07701.4927,W,1,08,1.0,159.0,M,8.4,M,,0000*60,0
1778780347314852183,$GPGSA,M,3,20,05,19,21,17,24,14,30,,,,,2.0,1.0,1.8*3E,0
1778780347482140350,$GPRMC,174119.000,A,1205.9336,S,07701.4927,W,15.13,204.98,140526,,,A*5F,0
1778780348190441646,$GPGGA,174120.000,1205.9376,S,07701.4944,W,1,09,0.9,158.2,M,8.4,M,,0000*61,0
1778780348321059405,$GPGSA,M,3,20,05,19,21,17,24,14,30,11,,,,1.6,0.9,1.4*3F,0
1778780348488340571,$GPRMC,174120.000,A,1205.9376,S,07701.4944,W,14.82,204.81,140526,,,A*55,0
1778780349189822645,$GPGGA,174121.000,1205.9416,S,07701.4961,W,1,09,0.9,157.1,M,8.4,M,,0000*6A,0
1778780349320389163,$GPGSA,M,3,20,05,19,21,17,24,14,30,11,,,,1.6,0.9,1.4*3F,0
1778780349487661756,$GPRMC,174121.000,A,1205.9416,S,07701.4961,W,14.41,204.56,140526,,,A*57,0
1778780350185340589,$GPGGA,174122.000,1205.9454,S,07701.4977,W,1,07,1.0,156.2,M,8.4,M,,0000*6C,0
1778780350306807533,$GPGSA,M,3,20,05,19,21,17,24,30,,,,,,2.1,1.0,1.8*3A,0
1778780350474085459,$GPRMC,174122.000,A,1205.9454,S,07701.4977,W,13.86,202.65,140526,,,A*5F,0
1778780351187803607,$GPGGA,174123.000,1205.9490,S,07701.4992,W,1,08,1.0,155.9,M,8.4,M,,0000*69,0
1778780351313834773,$GPGSA,M,3,20,05,19,21,17,24,14,30,,,,,2.0,1.0,1.8*3E,0
1778780351474250495,$GPGSV,3,1,12,20,63,173,34,05,46,314,37,19,41,076,35,21,36,354,34*71,0
1778780351634648977,$GPGSV,3,2,12,17,29,108,27,24,21,227,33,14,13,144,08,30,08,111,18*75,0
1778780351785901532,$GPGSV,3,3,12,11,08,006,07,46,29,279,30,13,58,140,,26,49,106,*71,0
1778780351953237366,$GPRMC,174123.000,A,1205.9490,S,07701.4992,W,13.17,202.43,140526,,,A*51,0
1778780352183398143,$GPGGA,174124.000,1205.9521,S,07701.5005,W,1,07,1.0,155.7,M,8.4,M,,0000*62,0
1778780352304835347,$GPGSA,M,3,20,05,19,21,17,24,30,,,,,,2.1,1.0,1.8*3A,0
1778780352472128569,$GPRMC,174124.000,A,1205.9521,S,07701.5005,W,11.32,203.23,140526,,,A*59,0
1778780353188762457,$GPGGA,174125.000,1205.9549,S,07701.5017,W,1,06,1.1,155.6,M,8.4,M,,0000*6F,0
1778780353305628198,$GPGSA,M,3,20,05,19,21,24,30,,,,,,,2.2,1.1,1.8*3E,0
1778780353472913791,$GPRMC,174125.000,A,1205.9549,S,07701.5017,W,10.05,203.06,140526,,,A*57,0
1778780354180379475,$GPGGA,174126.000,1205.9571,S,07701.5026,W,1,06,1.1,155.5,M,8.4,M,,0000*66,0
1778780354297239420,$GPGSA,M,3,20,05,19,21,24,30,,,,,,,2.2,1.1,1.8*3E,0
1778780354462244197,$GPRMC,174126.000,A,1205.9571,S,07701.5026,W,7.68,201.40,140526,,,A*60,0
1778780355180125623,$GPGGA,174127.000,1205.9586,S,07701.5030,W,1,06,1.1,155.6,M,8.4,M,,0000*6B,0
1778780355296992660,$GPGSA,M,3,20,05,19,21,17,24,,,,,,,2.7,1.1,2.5*30,0
1778780355462000919,$GPRMC,174127.000,A,1205.9586,S,07701.5030,W,4.33,201.05,140526,,,A*62,0
1778780356185910807,$GPGGA,174128.000,1205.9597,S,07701.5033,W,1,06,1.1,155.6,M,8.4,M,,0000*67,0
1778780356302784696,$GPGSA,M,3,20,05,19,21,17,24,,,,,,,2.7,1.1,2.5*30,0
1778780356463181437,$GPGSV,3,1,12,20,63,173,33,05,46,314,36,19,41,076,22,21,36,354,34*71,0
1778780356623588233,$GPGSV,3,2,12,17,29,108,13,24,21,227,24,11,08,006,04,14,13,144,24*73,0
1778780356770248048,$GPGSV,3,3,12,30,08,111,08,33,19,083,,13,58,140,,26,49,106,*7F,0
1778780356935253381,$GPRMC,174128.000,A,1205.9597,S,07701.5033,W,3.73,198.82,140526,,,A*61,0
1778780357185021233,$GPGGA,174129.000,1205.9610,S,07701.5036,W,1,07,1.0,155.6,M,8.4,M,,0000*6F,0
1778780357306486196,$GPGSA,M,3,20,05,19,21,17,24,14,,,,,,2.3,1.0,2.1*34,0
1778780357471483010,$GPRMC,174129.000,A,1205.9610,S,07701.5036,W,5.44,198.49,140526,,,A*6C,0
1778780358188534677,$GPGGA,174130.000,1205.9627,S,07701.5041,W,1,09,0.9,155.4,M,8.4,M,,0000*67,0
1778780358319188343,$GPGSA,M,3,20,05,19,21,17,24,14,30,11,,,,1.6,0.9,1.4*3F,0
1778780358484137232,$GPRMC,174130.000,A,1205.9627,S,07701.5041,W,7.65,199.09,140526,,,A*64,0
1778780359187647065,$GPGGA,174131.000,1205.9649,S,07701.5048,W,1,09,0.9,155.4,M,8.4,M,,0000*67,0
1778780359318345120,$GPGSA,M,3,20,05,19,21,17,24,14,30,11,,,,1.6,0.9,1.4*3F,0
1778780359483265694,$GPRMC,174131.000,A,1205.9649,S,07701.5048,W,9.20,203.55,140526,,,A*62,0
1778780360188477416,$GPGGA,174132.000,1205.9672,S,07701.5055,W,1,09,0.9,155.3,M,8.4,M,,0000*67,0
1778780360319056509,$GPGSA,M,3,20,05,19,21,17,24,14,30,11,,,,1.6,0.9,1.4*3F,0
1778780360484046101,$GPRMC,174132.000,A,1205.9672,S,07701.5055,W,8.67,202.66,140526,,,A*66,0
1778780361189431397,$GPGGA,174133.000,1205.9692,S,07701.5062,W,1,09,0.9,155.1,M,8.4,M,,0000*6E,0
1778780361320047601,$GPGSA,M,3,20,05,19,21,17,24,14,30,11,,,,1.6,0.9,1.4*3F,0
1778780361480465564,$GPGSV,3,1,12,20,63,173,39,05,46,314,44,19,41,076,41,21,36,354,43*7B,0
1778780361640871712,$GPGSV,3,2,12,17,29,108,38,24,21,227,25,14,13,144,30,30,08,111,26*7A,0
1778780361787522897,$GPGSV,3,3,12,11,08,006,22,33,19,083,,13,58,140,,26,49,106,*73,0
1778780361952532193,$GPRMC,174133.000,A,1205.9692,S,07701.5062,W,7.12,201.15,140526,,,A*67,0
1778780362186894915,$GPGGA,174134.000,1205.9713,S,07701.5066,W,1,09,0.9,153.7,M,8.4,M,,0000*65,0
1778780362317531322,$GPGSA,M,3,20,05,19,21,17,24,14,30,11,,,,1.6,0.9,1.4*3F,0
1778780362482498933,$GPRMC,174134.000,A,1205.9713,S,07701.5066,W,6.25,196.14,140526,,,A*65,0
1778780363187464007,$GPGGA,174135.000,1205.9733,S,07701.5067,W,1,09,0.9,152.3,M,8.4,M,,0000*62,0
1778780363318075933,$GPGSA,M,3,20,05,19,21,17,24,14,30,11,,,,1.6,0.9,1.4*3F,0
1778780363483097803,$GPRMC,174135.000,A,1205.9733,S,07701.5067,W,6.47,183.82,140526,,,A*68,0
1778780364188668136,$GPGGA,174136.000,1205.9753,S,07701.5060,W,1,09,0.9,151.6,M,8.4,M,,0000*66,0
1778780364319291840,$GPGSA,M,3,20,05,19,21,17,24,14,30,11,,,,1.6,0.9,1.4*3F,0
1778780364484279802,$GPRMC,174136.000,A,1205.9753,S,07701.5060,W,8.22,160.12,140526,,,A*63,0
1778780365183423265,$GPGGA,174137.000,1205.9775,S,07701.5043,W,1,07,1.4,150.3,M,8.4,M,,0000*64,0
1778780365304866932,$GPGSA,M,3,20,05,19,21,17,14,30,,,,,,2.5,1.4,2.0*32,0
1778780365469880080,$GPRMC,174137.000,A,1205.9775,S,07701.5043,W,9.98,132.35,140526,,,A*65,0
1778780366186298579,$GPGGA,174138.000,1205.9793,S,07701.5018,W,1,08,1.3,149.3,M,8.4,M,,0000*6D,0
1778780366312402227,$GPGSA,M,3,20,05,19,21,17,14,30,11,,,,,2.1,1.3,1.6*34,0
1778780366472739375,$GPGSV,3,1,12,20,63,173,42,05,46,314,40,19,41,076,37,21,36,354,33*75,0
1778780366633152153,$GPGSV,3,2,12,17,29,108,42,14,13,144,36,30,08,111,25,11,08,006,15*7D,0
1778780366779822412,$GPGSV,3,3,12,24,21,227,23,33,19,083,,13,58,140,,26,49,106,*7E,0
1778780366947100245,$GPRMC,174138.000,A,1205.9793,S,07701.5018,W,11.61,123.22,140526,,,A*55,0
1778780367188124264,$GPGGA,174139.000,1205.9811,S,07701.4984,W,1,09,0.9,148.3,M,8.4,M,,0000*6F,0
1778780367318742634,$GPGSA,M,3,20,05,19,21,17,24,14,30,11,,,,1.6,0.9,1.4*3F,0
1778780367486029041,$GPRMC,174139.000,A,1205.9811,S,07701.4984,W,12.73,117.82,140526,,,A*51,0
1778780368187862745,$GPGGA,174140.000,1205.9829,S,07701.4949,W,1,09,0.9,147.0,M,8.4,M,,0000*67,0
1778780368318475874,$GPGSA,M,3,20,05,19,21,17,24,14,30,11,,,,1.6,0.9,1.4*3F,0
1778780368485775559,$GPRMC,174140.000,A,1205.9829,S,07701.4949,W,13.16,116.97,140526,,,A*52,0
1778780369187837874,$GPGGA,174141.000,1205.9846,S,07701.4913,W,1,09,0.9,146.2,M,8.4,M,,0000*63,0
1778780369318434948,$GPGSA,M,3,20,05,19,21,17,24,14,30,11,,,,1.6,0.9,1.4*3F,0
1778780369485742318,$GPRMC,174141.000,A,1205.9846,S,07701.4913,W,13.52,116.10,140526,,,A*5A,0
1778780370189868818,$GPGGA,174142.000,1205.9863,S,07701.4876,W,1,09,0.9,145.6,M,8.4,M,,0000*62,0
1778780370320480966,$GPGSA,M,3,20,05,19,21,17,24,14,30,11,,,,1.6,0.9,1.4*3F,0
1778780370487780280,$GPRMC,174142.000,A,1205.9863,S,07701.4876,W,13.63,116.48,140526,,,A*53,0
1778780371189618576,$GPGGA,174143.000,1205.9879,S,07701.4839,W,1,09,0.9,145.6,M,8.4,M,,0000*63,0
1778780371320216465,$GPGSA,M,3,20,05,19,21,17,24,14,30,11,,,,1.6,0.9,1.4*3F,0
1778780371480655261,$GPGSV,3,1,12,20,63,173,45,05,46,314,45,19,41,076,36,21,36,354,34*71,0
1778780371641034632,$GPGSV,3,2,12,17,29,108,43,24,21,227,34,14,13,144,36,30,08,111,32*75,0
1778780371792280872,$GPGSV,3,3,12,11,08,006,27,06,00,043,18,33,19,083,,13,58,140,*70,0
1778780371959569817,$GPRMC,174143.000,A,1205.9879,S,07701.4839,W,13.33,113.91,140526,,,A*56,0
1778780372187684539,$GPGGA,174144.000,1205.9894,S,07701.4804,W,1,09,0.9,145.3,M,8.4,M,,0000*6C,0
1778780372318308094,$GPGSA,M,3,20,05,19,21,17,24,14,30,11,,,,1.6,0.9,1.4*3F,0
1778780372485597020,$GPRMC,174144.000,A,1205.9894,S,07701.4804,W,13.15,114.30,140526,,,A*54,0
1778780373189940445,$GPGGA,174145.000,1205.9910,S,07701.4770,W,1,09,0.9,145.1,M,8.4,M,,0000*6E,0
1778780373320540538,$GPGSA,M,3,20,05,19,21,17,24,14,30,11,,,,1.6,0.9,1.4*3F,0
1778780373487851779,$GPRMC,174145.000,A,1205.9910,S,07701.4770,W,12.47,114.69,140526,,,A*5E,0
1778780374189280149,$GPGGA,174146.000,1205.9924,S,07701.4737,W,1,09,0.9,144.9,M,8.4,M,,0000*60,0
1778780374319881556,$GPGSA,M,3,20,05,19,21,17,24,14,30,11,,,,1.6,0.9,1.4*3F,0
1778780374487181648,$GPRMC,174146.000,A,1205.9924,S,07701.4737,W,12.16,113.27,140526,,,A*50,0
1778780375190270055,$GPGGA,174147.000,1205.9937,S,07701.4706,W,1,09,0.9,144.7,M,8.4,M,,0000*6F,0
1778780375320873611,$GPGSA,M,3,20,05,19,21,17,24,14,30,11,,,,1.6,0.9,1.4*3F,0
1778780375488174463,$GPRMC,174147.000,A,1205.9937,S,07701.4706,W,11.33,113.90,140526,,,A*59,0
1778780376187927666,$GPGGA,174148.000,1205.9949,S,07701.4677,W,1,09,0.9,144.5,M,8.4,M,,0000*6C,0
1778780376318550721,$GPGSA,M,3,20,05,19,21,17,24,14,30,11,,,,1.6,0.9,1.4*3F,0
1778780376478950851,$GPGSV,3,1,12,20,63,173,44,05,46,314,45,19,41,076,39,21,36,354,38*73,0
1778780376639357351,$GPGSV,3,2,12,17,29,108,44,24,21,227,35,14,13,144,22,30,08,111,30*74,0
1778780376786011425,$GPGSV,3,3,12,11,08,006,18,33,19,083,,13,58,140,,26,49,106,*7A,0
1778780376953301665,$GPRMC,174148.000,A,1205.9949,S,07701.4677,W,10.53,114.84,140526,,,A*5D,0
1778780377188913128,$GPGGA,174149.000,1205.9961,S,07701.4651,W,1,09,0.9,144.4,M,8.4,M,,0000*62,0
1778780377319539332,$GPGSA,M,3,20,05,19,21,17,24,14,30,11,,,,1.6,0.9,1.4*3F,0
1778780377484527110,$GPRMC,174149.000,A,1205.9961,S,07701.4651,W,9.72,115.82,140526,,,A*6E,0
1778780378189090165,$GPGGA,174150.000,1205.9973,S,07701.4627,W,1,09,0.9,144.2,M,8.4,M,,0000*6E,0
1778780378319707776,$GPGSA,M,3,20,05,19,21,17,24,14,30,11,,,,1.6,0.9,1.4*3F,0
1778780378484697294,$GPRMC,174150.000,A,1205.9973,S,07701.4627,W,9.17,116.73,140526,,,A*6A,0
1778780379193632997,$GPGGA,174151.000,1205.9984,S,07701.4604,W,1,09,0.9,144.3,M,8.4,M,,0000*67,0
1778780379324236034,$GPGSA,M,3,20,05,19,21,17,24,14,30,11,,,,1.6,0.9,1.4*3F,0
1778780379489247923,$GPRMC,174151.000,A,1205.9984,S,07701.4604,W,8.72,117.10,140526,,,A*64,0
1778780380188573849,$GPGGA,174152.000,1205.9993,S,07701.4584,W,1,09,0.9,144.3,M,8.4,M,,0000*69,0
1778780380319197460,$GPGSA,M,3,20,05,19,21,17,24,14,30,11,,,,1.6,0.9,1.4*3F,0
1778780380484180960,$GPRMC,174152.000,A,1205.9993,S,07701.4584,W,7.22,117.69,140526,,,A*6E,0
1778780381189790033,$GPGGA,174153.000,1206.0001,S,07701.4569,W,1,09,0.9,144.2,M,8.4,M,,0000*62,0
1778780381320400885,$GPGSA,M,3,20,05,19,21,17,24,14,30,11,,,,1.6,0.9,1.4*3F,0
1778780381480810441,$GPGSV,3,1,12,20,63,173,44,05,46,314,46,19,41,076,39,21,36,354,35*7D,0
1778780381641210311,$GPGSV,3,2,12,17,29,108,44,24,21,227,25,14,13,144,26,30,08,111,33*72,0
1778780381792478051,$GPGSV,3,3,12,11,08,006,23,06,00,043,17,33,19,083,,13,58,140,*7B,0
1778780381957446922,$GPRMC,174153.000,A,1206.0001,S,07701.4569,W,4.59,116.16,140526,,,A*62,0
1778780382189114273,$GPGGA,174154.000,1206.0004,S,07701.4561,W,1,09,0.9,144.3,M,8.4,M,,0000*69,0
1778780382319804014,$GPGSA,M,3,20,05,19,21,17,24,14,30,11,,,,1.6,0.9,1.4*3F,0
1778780382484736495,$GPRMC,174154.000,A,1206.0004,S,07701.4561,W,1.86,115.99,140526,,,A*6B,0
1778780383189690865,$GPGGA,174155.000,1206.0005,S,07701.4559,W,1,09,0.9,144.2,M,8.4,M,,0000*63,0
1778780383320298180,$GPGSA,M,3,20,05,19,21,17,24,14,30,11,,,,1.6,0.9,1.4*3F,0
1778780383485297773,$GPRMC,174155.000,A,1206.0005,S,07701.4559,W,0.28,115.99,140526,,,A*65,0
1778780384190270217,$GPGGA,174156.000,1206.0004,S,07701.4560,W,1,09,0.9,144.3,M,8.4,M,,0000*6A,0
1778780384320892624,$GPGSA,M,3,20,05,19,21,17,24,14,30,11,,,,1.6,0.9,1.4*3F,0
1778780384485885568,$GPRMC,174156.000,A,1206.0004,S,07701.4560,W,0.01,115.99,140526,,,A*66,0
1778780385189808012,$GPGGA,174157.000,1206.0004,S,07701.4560,W,1,09,0.9,144.3,M,8.4,M,,0000*6B,1
1778780385320435901,$GPGSA,M,3,20,05,19,21,17,24,14,30,11,,,,1.6,0.9,1.4*3F,1
1778780385485424327,$GPRMC,174157.000,A,1206.0004,S,07701.4560,W,0.00,115.99,140526,,,A*66,1
1778780386189389882,$GPGGA,174158.000,1206.0004,S,07701.4560,W,1,09,0.9,144.3,M,8.4,M,,0000*64,1
1778780386319962086,$GPGSA,M,3,20,05,19,21,17,24,14,30,11,,,,1.6,0.9,1.4*3F,1
1778780386480444734,$GPGSV,3,1,12,20,63,173,44,05,46,314,47,19,41,076,41,21,36,354,37*71,1
1778780386640788919,$GPGSV,3,2,12,17,29,108,44,24,21,227,24,14,13,144,28,30,08,111,35*7B,1
1778780386792021289,$GPGSV,3,3,12,11,08,006,24,06,00,043,22,51,52,289,,13,58,140,*79,1
1778780386957019437,$GPRMC,174158.000,A,1206.0004,S,07701.4560,W,0.00,115.99,140526,,,A*69,1
1778780387189544270,$GPGGA,174159.000,1206.0004,S,07701.4560,W,1,09,0.9,144.3,M,8.4,M,,0000*65,1
1778780387320126733,$GPGSA,M,3,20,05,19,21,17,24,14,30,11,,,,1.6,0.9,1.4*3F,1
1778780387485120492,$GPRMC,174159.000,A,1206.0004,S,07701.4560,W,0.00,115.99,140526,,,A*68,1
1778780388189880622,$GPGGA,174200.000,1206.0004,S,07701.4560,W,1,09,0.9,144.3,M,8.4,M,,0000*6A,1
1778780388320497362,$GPGSA,M,3,20,05,19,21,17,24,14,30,11,,,,1.6,0.9,1.4*3F,1
1778780388485492510,$GPRMC,174200.000,A,1206.0004,S,07701.4560,W,0.00,115.99,140526,,,A*67,1
1778780389194847788,$GPGGA,174201.000,1206.0004,S,07701.4560,W,1,09,0.9,144.3,M,8.4,M,,0000*6B,1
1778780389325443584,$GPGSA,M,3,20,05,19,21,17,24,14,30,11,,,,1.6,0.9,1.4*3F,1
1778780389490444084,$GPRMC,174201.000,A,1206.0004,S,07701.4560,W,0.00,115.99,140526,,,A*66,1
1778780390190199972,$GPGGA,174202.000,1206.0004,S,07701.4560,W,1,09,0.9,144.3,M,8.4,M,,0000*68,1
1778780390320826769,$GPGSA,M,3,20,05,19,21,17,24,14,30,11,,,,1.6,0.9,1.4*3F,1
1778780390485815157,$GPRMC,174202.000,A,1206.0004,S,07701.4560,W,0.00,115.99,140526,,,A*65,1
1778780391194544620,$GPGGA,174203.000,1206.0004,S,07701.4560,W,1,09,0.9,144.3,M,8.4,M,,0000*69,1
1778780391325167046,$GPGSA,M,3,20,05,19,21,17,24,14,30,11,,,,1.6,0.9,1.4*3F,1
1778780391485559435,$GPGSV,3,1,12,20,63,173,44,05,46,314,48,19,41,076,42,21,36,354,38*72,1
1778780391645979027,$GPGSV,3,2,12,17,29,108,45,24,21,227,24,14,13,144,27,30,08,111,34*74,1
1778780391797233990,$GPGSV,3,3,12,11,08,006,23,06,00,043,26,51,52,289,,13,58,140,*7A,1
1778780391962256360,$GPRMC,174203.000,A,1206.0004,S,07701.4560,W,0.00,115.99,140526,,,A*64,1
1778780392189699656,$GPGGA,174204.000,1206.0004,S,07701.4560,W,1,09,0.9,144.3,M,8.4,M,,0000*6E,1
1778780392320318749,$GPGSA,M,3,20,05,19,21,17,24,14,30,11,,,,1.6,0.9,1.4*3F,1
1778780392485339638,$GPRMC,174204.000,A,1206.0004,S,07701.4560,W,0.00,115.99,140526,,,A*63,1
1778780393189446415,$GPGGA,174205.000,1206.0004,S,07701.4560,W,1,09,0.9,144.3,M,8.4,M,,0000*6F,1
1778780393320055693,$GPGSA,M,3,20,05,19,21,17,24,14,30,11,,,,1.6,0.9,1.4*3F,1
1778780393485055211,$GPRMC,174205.000,A,1206.0004,S,07701.4560,W,0.00,115.99,140526,,,A*62,1
1778780394190021451,$GPGGA,174206.000,1206.0004,S,07701.4560,W,1,09,0.9,144.3,M,8.4,M,,0000*6C,1
1778780394320666266,$GPGSA,M,3,20,05,19,21,17,24,14,30,11,,,,1.6,0.9,1.4*3F,1
1778780394485654988,$GPRMC,174206.000,A,1206.0004,S,07701.4560,W,0.00,115.99,140526,,,A*61,1
1778780395189146747,$GPGGA,174207.000,1206.0004,S,07701.4560,W,1,09,0.9,144.3,M,8.4,M,,0000*6D,1
1778780395319764340,$GPGSA,M,3,20,05,19,21,17,24,14,30,11,,,,1.6,0.9,1.4*3F,1
1778780395484797117,$GPRMC,174207.000,A,1206.0004,S,07701.4560,W,0.00,115.99,140526,,,A*60,1
1778780396197221450,$GPGGA,174208.000,1206.0004,S,07701.4560,W,1,09,0.9,144.3,M,8.4,M,,0000*62,1
1778780396327837135,$GPGSA,M,3,20,05,19,21,17,24,14,30,11,,,,1.6,0.9,1.4*3F,1
1778780396488253783,$GPGSV,3,1,12,20,63,173,44,05,46,314,48,19,41,076,42,21,36,354,39*73,1
1778780396648655117,$GPGSV,3,2,12,17,29,108,45,24,21,227,17,14,13,144,27,30,08,111,34*74,1
1778780396799899728,$GPGSV,3,3,12,11,08,006,18,06,00,043,24,51,52,289,,13,58,140,*70,1
1778780396964899635,$GPRMC,174208.000,A,1206.0004,S,07701.4560,W,0.00,115.99,140526,,,A*6F,1
1778780397189265820,$GPGGA,174209.000,1206.0004,S,07701.4560,W,1,09,0.9,144.3,M,8.4,M,,0000*63,1
1778780397319886209,$GPGSA,M,3,20,05,19,21,17,24,14,30,11,,,,1.6,0.9,1.4*3F,1
1778780397484873431,$GPRMC,174209.000,A,1206.0004,S,07701.4560,W,0.00,115.99,140526,,,A*6E,1
1778780398189010190,$GPGGA,174210.000,1206.0004,S,07701.4560,W,1,09,0.9,144.3,M,8.4,M,,0000*6B,1
1778780398319630430,$GPGSA,M,3,20,05,19,21,17,24,14,30,11,,,,1.6,0.9,1.4*3F,1
1778780398484628097,$GPRMC,174210.000,A,1206.0004,S,07701.4560,W,0.00,115.99,140526,,,A*66,1
1778780399188352782,$GPGGA,174211.000,1206.0004,S,07701.4560,W,1,09,0.9,144.3,M,8.4,M,,0000*6A,1
1778780399318959745,$GPGSA,M,3,20,05,19,21,17,24,14,30,11,,,,1.6,0.9,1.4*3F,1
1778780399483952782,$GPRMC,174211.000,A,1206.0004,S,07701.4560,W,0.00,115.99,140526,,,A*67,1
1778780400189125911,$GPGGA,174212.000,1206.0004,S,07701.4560,W,1,09,0.9,144.3,M,8.4,M,,0000*69,1
1778780400319752226,$GPGSA,M,3,20,05,19,21,17,24,14,30,11,,,,1.6,0.9,1.4*3F,1
1778780400484737540,$GPRMC,174212.000,A,1206.0004,S,07701.4560,W,0.00,115.99,140526,,,A*64,1
1778780401196660114,$GPGGA,174213.000,1206.0004,S,07701.4560,W,1,09,0.9,144.3,M,8.4,M,,0000*68,1
1778780401327196929,$GPGSA,M,3,20,05,19,21,17,24,14,30,11,,,,1.6,0.9,1.4*3F,1
1778780401487606503,$GPGSV,3,1,12,20,63,173,44,05,46,314,48,19,41,076,42,21,36,354,39*73,1
1778780401648016280,$GPGSV,3,2,12,17,29,108,45,24,21,227,09,14,13,144,27,30,08,111,34*7B,1
1778780401799261299,$GPGSV,3,3,12,11,08,006,21,06,00,043,26,51,52,289,,13,58,140,*78,1
1778780401964261984,$GPRMC,174213.000,A,1206.0004,S,07701.4560,W,0.00,115.99,140526,,,A*65,1
1778780402190700095,$GPGGA,174214.000,1206.0004,S,07701.4560,W,1,09,0.9,144.3,M,8.4,M,,0000*6F,1
1778780402321313224,$GPGSA,M,3,20,05,19,21,17,24,14,30,11,,,,1.6,0.9,1.4*3F,1
1778780402486318539,$GPRMC,174214.000,A,1206.0004,S,07701.4560,W,0.00,115.99,140526,,,A*62,1
1778780403189627520,$GPGGA,174215.000,1206.0005,S,07701.4560,W,1,09,0.9,144.3,M,8.4,M,,0000*6F,1
