Unix_time,GPS_data,flagStop
1778780916485960677,$GPGSV,3,1,12,20,66,168,46,05,44,319,37,19,41,081,28,21,33,356,18*79,0
1778780935482076629,$GPGSV,3,2,12,17,28,112,49,24,22,224,31,14,10,143,33,30,07,108,20*75,0
1778780935482751907,$GPGSV,3,3,12,44,42,284,47,13,60,133,,26,48,099,,28,35,154,*70,0
1778780935482921907,$GPRMC,175048.000,A,1205.8809,S,07701.2821,W,0.00,280.77,140526,,,A*67,0
1778780935483058370,$GPGGA,175049.000,1205.8809,S,07701.2820,W,1,08,1.0,167.3,M,8.4,M,,0000*6D,0
1778780935483200166,$GPGSA,M,3,20,05,19,21,17,24,14,30,,,,,1.9,1.0,1.6*3A,0
1778780935483303444,$GPRMC,175049.000,A,1205.8809,S,07701.2820,W,0.00,280.77,140526,,,A*67,0
1778780935483437536,$GPGGA,175050.000,1205.8808,S,07701.2820,W,1,08,1.0,167.3,M,8.4,M,,0000*64,0
1778780935483579203,$GPGSA,M,3,20,05,19,21,17,24,14,30,,,,,1.9,1.0,1.6*3A,0
1778780935483681944,$GPRMC,175050.000,A,1205.8808,S,07701.2820,W,0.00,280.77,140526,,,A*6E,0
1778780935483816536,$GPGGA,175051.000,1205.8808,S,07701.2820,W,1,08,1.0,167.4,M,8.4,M,,0000*62,0
1778780935483959258,$GPGSA,M,3,20,05,19,21,17,24,14,30,,,,,1.9,1.0,1.6*3A,0
1778780935484062703,$GPRMC,175051.000,A,1205.8808,S,07701.2820,W,0.00,280.77,140526,,,A*6F,0
1778780935484198110,$GPGGA,175052.000,1205.8808,S,07701.2819,W,1,08,1.0,167.4,M,8.4,M,,0000*6B,0
1778780935484340981,$GPGSA,M,3,20,05,19,21,17,24,14,30,,,,,1.9,1.0,1.6*3A,0
1778780935484444444,$GPRMC,175052.000,A,1205.8808,S,07701.2819,W,0.00,280.77,140526,,,A*66,0
1778780935484579795,$GPGGA,175053.000,1205.8808,S,07701.2819,W,1,07,1.2,167.5,M,8.4,M,,0000*66,0
1778780935484929333,$GPGSA,M,3,20,05,19,17,24,14,30,,,,,,2.1,1.2,1.7*31,0
1778780935485029795,$GPGSV,3,1,12,20,66,168,46,05,44,319,38,19,41,081,28,17,28,112,49*7F,0
1778780935485161592,$GPGSV,3,2,12,24,22,224,31,14,10,143,33,30,07,108,20,44,42,284,47*7D,0
1778780935485293592,$GPGSV,3,3,12,13,60,133,,26,48,099,,28,35,154,,21,33,356,*78,0
1778780935485410703,$GPRMC,175053.000,A,1205.8808,S,07701.2819,W,0.00,280.77,140526,,,A*67,0
1778780935485546666,$GPGGA,175054.000,1205.8807,S,07701.2819,W,1,08,1.0,167.6,M,8.4,M,,0000*60,0
1778780935485690203,$GPGSA,M,3,20,05,19,21,17,24,14,30,,,,,1.9,1.0,1.6*3A,0
1778780935485794444,$GPRMC,175054.000,A,1205.8807,S,07701.2819,W,0.00,280.77,140526,,,A*6F,0
1778780935485930555,$GPGGA,175055.000,1205.8807,S,07701.2819,W,1,08,1.0,167.7,M,8.4,M,,0000*60,0
1778780935486074184,$GPGSA,M,3,20,05,19,21,17,24,14,30,,,,,1.9,1.0,1.6*3A,0
1778780935486178258,$GPRMC,175055.000,A,1205.8807,S,07701.2819,W,0.00,280.77,140526,,,A*6E,0
1778780935486314925,$GPGGA,175056.000,1205.8807,S,07701.2818,W,1,06,1.7,167.7,M,8.4,M,,0000*6B,0
1778780935486458814,$GPGSA,M,3,20,05,19,17,14,30,,,,,,,2.5,1.7,1.9*38,0
1778780935486555629,$GPRMC,175056.000,A,1205.8807,S,07701.2818,W,0.00,280.77,140526,,,A*6C,0
1778780935486691944,$GPGGA,175057.000,1205.8807,S,07701.2818,W,1,06,1.7,167.7,M,8.4,M,,0000*6A,0
1778780935486835833,$GPGSA,M,3,20,05,19,17,14,30,,,,,,,2.5,1.7,1.9*38,0
1778780935486932518,$GPRMC,175057.000,A,1205.8807,S,07701.2818,W,0.00,280.77,140526,,,A*6D,0
1778780935487068592,$GPGGA,175058.000,1205.8807,S,07701.2818,W,1,06,1.7,167.7,M,8.4,M,,0000*65,0
1778780935487212184,$GPGSA,M,3,20,05,19,17,14,30,,,,,,,2.5,1.7,1.9*38,0
1778780935487309073,$GPGSV,3,1,12,20,66,168,46,05,44,319,39,19,41,081,28,17,28,112,49*7E,0
1778780935487442536,$GPGSV,3,2,12,14,10,143,33,30,07,108,20,11,08,010,21,21,33,356,27*7A,0
1778780935487574925,$GPGSV,3,3,12,24,22,224,23,44,42,284,47,13,60,133,,26,48,099,*7F,0
1778780935487699833,$GPRMC,175058.000,A,1205.8807,S,07701.2818,W,0.00,280.77,140526,,,A*62,0
1778780935487835888,$GPGGA,175059.000,1205.8807,S,07701.2818,W,1,08,1.0,167.7,M,8.4,M,,0000*6D,0
1778780935487979684,$GPGSA,M,3,20,05,19,21,17,24,14,30,,,,,1.9,1.0,1.6*3A,0
1778780935488083870,$GPRMC,175059.000,A,1205.8807,S,07701.2818,W,0.00,280.77,140526,,,A*63,0
1778780935488219907,$GPGGA,175100.000,1205.8807,S,07701.2818,W,1,07,1.5,167.7,M,8.4,M,,0000*6A,0
1778780935488363425,$GPGSA,M,3,20,05,19,21,17,14,30,,,,,,2.3,1.5,1.8*3E,0
1778780935488463870,$GPRMC,175100.000,A,1205.8807,S,07701.2818,W,0.00,280.77,140526,,,A*6E,0
1778780935488707407,$GPGGA,175101.000,1205.8807,S,07701.2818,W,1,07,1.5,167.8,M,8.4,M,,0000*64,0
1778780935488852166,$GPGSA,M,3,20,05,19,21,17,14,30,,,,,,2.3,1.5,1.8*3E,0
1778780935488951758,$GPRMC,175101.000,A,1205.8807,S,07701.2818,W,0.00,280.77,140526,,,A*6F,0
1778780935489088536,$GPGGA,175102.000,1205.8807,S,07701.2818,W,1,07,1.5,167.8,M,8.4,M,,0000*67,0
1778780935489232907,$GPGSA,M,3,20,05,19,21,17,14,30,,,,,,2.3,1.5,1.8*3E,0
1778780935489334092,$GPRMC,175102.000,A,1205.8807,S,07701.2818,W,0.00,280.77,140526,,,A*6C,0
1778780935489469814,$GPGGA,175103.000,1205.8805,S,07701.2815,W,1,06,1.7,168.4,M,8.4,M,,0000*69,0
1778780935489613221,$GPGSA,M,3,20,05,19,17,14,30,,,,,,,2.5,1.7,1.8*39,0
1778780935489709592,$GPGSV,3,1,12,20,66,168,46,05,44,319,38,19,41,081,28,17,28,112,49*7F,0
1778780935489841684,$GPGSV,3,2,12,14,10,143,33,30,07,108,20,24,22,224,09,44,42,284,47*76,0
1778780935489973592,$GPGSV,3,3,12,13,60,133,,26,48,099,,28,35,154,,21,33,356,*78,0
1778780935490090499,$GPRMC,175103.000,A,1205.8805,S,07701.2815,W,0.14,280.77,140526,,,A*67,0
1778780935490226370,$GPGGA,175104.000,1205.8805,S,07701.2815,W,1,07,1.5,168.4,M,8.4,M,,0000*6D,0
1778780935490369703,$GPGSA,M,3,20,05,19,21,17,14,30,,,,,,2.3,1.5,1.8*3E,0
1778780935490469888,$GPRMC,175104.000,A,1205.8805,S,07701.2815,W,0.00,280.77,140526,,,A*65,0
1778780935490605481,$GPGGA,175105.000,1205.8805,S,07701.2814,W,1,07,1.2,168.4,M,8.4,M,,0000*6A,0
1778780935490748870,$GPGSA,M,3,20,05,19,17,24,14,30,,,,,,2.1,1.2,1.7*31,0
1778780935490848962,$GPRMC,175105.000,A,1205.8805,S,07701.2814,W,0.00,280.77,140526,,,A*65,0
1778780935490984758,$GPGGA,175106.000,1205.8805,S,07701.2814,W,1,06,1.7,168.5,M,8.4,M,,0000*6C,0
1778780935491127925,$GPGSA,M,3,20,05,19,17,14,30,,,,,,,2.5,1.7,1.8*39,0
1778780935491224240,$GPRMC,175106.000,A,1205.8805,S,07701.2814,W,0.00,280.77,140526,,,A*66,0
1778780935491359907,$GPGGA,175107.000,1205.8805,S,07701.2814,W,1,06,1.7,168.5,M,8.4,M,,0000*6D,0
1778780935491503777,$GPGSA,M,3,20,05,19,17,14,30,,,,,,,2.5,1.7,1.8*39,0
1778780935491602647,$GPRMC,175107.000,A,1205.8805,S,07701.2814,W,0.00,280.77,140526,,,A*67,0
1778780936187989980,$GPGGA,175108.000,1205.8805,S,07701.2814,W,1,06,1.7,168.5,M,8.4,M,,0000*62,0
1778780936304847425,$GPGSA,M,3,20,05,19,17,14,30,,,,,,,2.5,1.7,1.8*39,0
1778780936465321221,$GPGSV,3,1,12,20,66,168,45,05,44,319,38,19,41,081,28,17,28,112,48*7D,0
1778780936621136091,$GPGSV,3,2,12,14,10,143,33,30,07,108,19,44,42,284,47,13,60,133,*72,0
1778780936763163128,$GPGSV,3,3,12,26,48,099,,28,35,154,,21,33,356,,24,22,224,*7F,0
1778780936928172721,$GPRMC,175108.000,A,1205.8805,S,07701.2814,W,0.00,280.77,140526,,,A*68,0
1778780937196077239,$GPGGA,175109.000,1205.8805,S,07701.2814,W,1,07,1.2,168.5,M,8.4,M,,0000*67,0
1778780937317521646,$GPGSA,M,3,20,05,19,17,24,14,30,,,,,,2.1,1.2,1.7*31,0
1778780937482513887,$GPRMC,175109.000,A,1205.8805,S,07701.2814,W,0.00,280.77,140526,,,A*69,0
1778780938201851683,$GPGGA,175110.000,1205.8805,S,07701.2814,W,1,07,1.2,168.6,M,8.4,M,,0000*6C,0
1778780938323303553,$GPGSA,M,3,20,05,19,17,24,14,30,,,,,,2.1,1.2,1.7*31,0
1778780938488306164,$GPRMC,175110.000,A,1205.8805,S,07701.2814,W,0.00,280.77,140526,,,A*61,0
1778780939198736349,$GPGGA,175111.000,1205.8804,S,07701.2814,W,1,08,1.0,168.6,M,8.4,M,,0000*61,0
1778780939324754275,$GPGSA,M,3,20,05,19,21,17,24,14,30,,,,,1.9,1.0,1.6*3A,0
1778780939489775756,$GPRMC,175111.000,A,1205.8804,S,07701.2814,W,0.00,280.77,140526,,,A*61,1
1778780940194881496,$GPGGA,175112.000,1205.8804,S,07701.2813,W,1,07,1.2,168.7,M,8.4,M,,0000*69,1
1778780940316336663,$GPGSA,M,3,20,05,19,17,24,14,30,,,,,,2.1,1.2,1.7*31,1
1778780940481334385,$GPRMC,175112.000,A,1205.8804,S,07701.2813,W,0.00,280.77,140526,,,A*65,1
1778780941200872940,$GPGGA,175113.000,1205.8804,S,07701.2813,W,1,07,1.2,168.8,M,8.4,M,,0000*67,1
1778780941322338162,$GPGSA,M,3,20,05,19,17,24,14,30,,,,,,2.1,1.2,1.7*31,1
1778780941482741199,$GPGSV,3,1,12,20,66,168,45,05,44,319,37,19,41,081,24,17,28,112,48*7E,1
1778780941643157051,$GPGSV,3,2,12,24,22,224,28,14,10,143,33,30,07,108,18,21,33,356,22*76,1
1778780941789811810,$GPGSV,3,3,12,44,42,284,47,13,60,133,,26,48,099,,28,35,154,*70,1
1778780941954811588,$GPRMC,175113.000,A,1205.8804,S,07701.2813,W,0.00,280.77,140526,,,A*64,1
1778780942191056625,$GPGGA,175114.000,1205.8803,S,07701.2812,W,1,07,1.2,168.9,M,8.4,M,,0000*67,1
1778780942312499921,$GPGSA,M,3,20,05,19,17,24,14,30,,,,,,2.1,1.2,1.7*31,1
1778780942477498847,$GPRMC,175114.000,A,1205.8803,S,07701.2812,W,0.00,280.77,140526,,,A*65,1
1778780943197254939,$GPGGA,175115.000,1205.8803,S,07701.2812,W,1,07,1.2,169.1,M,8.4,M,,0000*6F,1
1778780943318709383,$GPGSA,M,3,20,05,19,17,24,14,30,,,,,,2.1,1.2,1.7*31,1
1778780943483700643,$GPRMC,175115.000,A,1205.8803,S,07701.2812,W,0.00,280.77,140526,,,A*64,1
1778780944192199957,$GPGGA,175116.000,1205.8803,S,07701.2812,W,1,06,1.7,169.1,M,8.4,M,,0000*68,1
1778780944309075420,$GPGSA,M,3,20,05,19,17,14,30,,,,,,,2.5,1.7,1.8*39,1
1778780944474057735,$GPRMC,175116.000,A,1205.8803,S,07701.2812,W,0.00,280.77,140526,,,A*67,1
1778780945194257438,$GPGGA,175117.000,1205.8800,S,07701.2810,W,1,06,1.7,169.6,M,8.4,M,,0000*6F,1
1778780945311113216,$GPGSA,M,3,20,05,19,17,14,30,,,,,,,2.5,1.7,1.8*39,1
1778780945476108790,$GPRMC,175117.000,A,1205.8800,S,07701.2810,W,0.71,280.77,140526,,,A*61,0
1778780946196076308,$GPGGA,175118.000,1205.8800,S,07701.2813,W,1,07,1.2,169.3,M,8.4,M,,0000*62,0
1778780946317535271,$GPGSA,M,3,20,05,19,17,24,14,30,,,,,,2.1,1.2,1.7*31,0
1778780946477960863,$GPGSV,3,1,12,20,66,168,45,05,44,319,37,19,41,081,24,17,28,112,48*7E,0
1778780946638351622,$GPGSV,3,2,12,24,22,224,28,14,10,143,26,30,07,108,17,44,42,284,47*75,0
1778780946780418178,$GPGSV,3,3,12,13,60,133,,26,48,099,,28,35,154,,21,33,356,*78,0
1778780946945411529,$GPRMC,175118.000,A,1205.8800,S,07701.2813,W,1.78,274.01,140526,,,A*6F,0
1778780947197063770,$GPGGA,175119.000,1205.8800,S,07701.2816,W,1,07,1.2,169.1,M,8.4,M,,0000*64,0
1778780947318525363,$GPGSA,M,3,20,05,19,17,24,14,30,,,,,,2.1,1.2,1.7*31,0
1778780947483520418,$GPRMC,175119.000,A,1205.8800,S,07701.2816,W,1.12,274.01,140526,,,A*67,0
1778780948197854473,$GPGGA,175120.000,1205.8801,S,07701.2822,W,1,07,1.2,168.7,M,8.4,M,,0000*6F,0
1778780948319302695,$GPGSA,M,3,20,05,19,17,24,14,30,,,,,,2.1,1.2,1.7*31,0
1778780948484309917,$GPRMC,175120.000,A,1205.8801,S,07701.2822,W,2.03,278.75,140526,,,A*67,0
1778780949197236121,$GPGGA,175121.000,1205.8801,S,07701.2833,W,1,07,1.2,168.3,M,8.4,M,,0000*6A,0
1778780949318642269,$GPGSA,M,3,20,05,19,17,24,14,30,,,,,,2.1,1.2,1.7*31,0
1778780949483636472,$GPRMC,175121.000,A,1205.8801,S,07701.2833,W,4.68,277.14,140526,,,A*65,0
1778780950198811602,$GPGGA,175122.000,1205.8798,S,07701.2850,W,1,08,1.0,168.5,M,8.4,M,,0000*68,0
1778780950324853176,$GPGSA,M,3,20,05,19,21,17,24,14,30,,,,,1.9,1.0,1.6*3A,0
1778780950489838657,$GPRMC,175122.000,A,1205.8798,S,07701.2850,W,7.63,273.98,140526,,,A*64,0
1778780951199415379,$GPGGA,175123.000,1205.8795,S,07701.2873,W,1,08,1.0,168.7,M,8.4,M,,0000*67,0
1778780951325436397,$GPGSA,M,3,20,05,19,21,17,24,14,30,,,,,1.9,1.0,1.6*3A,0
1778780951485835638,$GPGSV,3,1,12,20,66,168,44,05,44,319,47,19,41,081,29,21,33,356,24*72,0
1778780951646239860,$GPGSV,3,2,12,17,28,112,45,24,22,224,36,14,10,143,25,30,07,108,16*7C,0
1778780951797491656,$GPGSV,3,3,12,11,08,010,13,44,42,284,48,13,60,133,,26,48,099,*78,0
1778780951962471619,$GPRMC,175123.000,A,1205.8795,S,07701.2873,W,8.47,272.15,140526,,,A*64,0
1778780952198099915,$GPGGA,175124.000,1205.8795,S,07701.2897,W,1,08,1.0,168.8,M,8.4,M,,0000*65,0
1778780952324125397,$GPGSA,M,3,20,05,19,21,17,24,14,30,,,,,1.9,1.0,1.6*3A,0
1778780952489127785,$GPRMC,175124.000,A,1205.8795,S,07701.2897,W,8.79,271.37,140526,,,A*67,0
1778780953195760155,$GPGGA,175125.000,1205.8799,S,07701.2930,W,1,07,1.5,167.0,M,8.4,M,,0000*69,0
1778780953317216007,$GPGSA,M,3,20,05,19,21,17,14,30,,,,,,2.3,1.5,1.8*3E,0
1778780953482210803,$GPRMC,175125.000,A,1205.8799,S,07701.2930,W,9.07,277.42,140526,,,A*6A,0
1778780954192804618,$GPGGA,175126.000,1205.8800,S,07701.2967,W,1,08,1.0,164.7,M,8.4,M,,0000*69,0
1778780954318829562,$GPGSA,M,3,20,05,19,21,17,24,14,30,,,,,1.9,1.0,1.6*3A,0
1778780954483830136,$GPRMC,175126.000,A,1205.8800,S,07701.2967,W,9.43,282.59,140526,,,A*64,0
1778780955192761524,$GPGGA,175127.000,1205.8794,S,07701.2995,W,1,08,1.0,163.8,M,8.4,M,,0000*6F,0
1778780955318785247,$GPGSA,M,3,20,05,19,21,17,24,14,30,,,,,1.9,1.0,1.6*3A,0
1778780955483792321,$GPRMC,175127.000,A,1205.8794,S,07701.2995,W,8.94,284.72,140526,,,A*6E,0
1778780956197923820,$GPGGA,175128.000,1205.8790,S,07701.3023,W,1,08,1.0,162.5,M,8.4,M,,0000*6D,0
1778780956323947246,$GPGSA,M,3,20,05,19,21,17,24,14,30,,,,,1.9,1.0,1.6*3A,0
1778780956484357042,$GPGSV,3,1,12,20,68,166,36,05,43,320,26,19,41,083,46,21,31,356,42*74,0
1778780956644760246,$GPGSV,3,2,12,17,27,114,39,24,22,223,38,14,09,143,24,30,07,106,16*70,0
1778780956791423338,$GPGSV,3,3,12,44,42,284,45,13,60,130,,26,48,097,,28,33,154,*79,0
1778780956956421949,$GPRMC,175128.000,A,1205.8790,S,07701.3023,W,7.42,286.00,140526,,,A*63,0
1778780957204958820,$GPGGA,175129.000,1205.8786,S,07701.3047,W,1,08,1.0,161.6,M,8.4,M,,0000*69,0
1778780957330986301,$GPGSA,M,3,20,05,19,21,17,24,14,30,,,,,1.9,1.0,1.6*3A,0
1778780957495988116,$GPRMC,175129.000,A,1205.8786,S,07701.3047,W,7.17,284.03,140526,,,A*66,0
1778780958198074263,$GPGGA,175130.000,1205.8790,S,07701.3082,W,1,08,1.0,158.6,M,8.4,M,,0000*65,0
1778780958324071226,$GPGSA,M,3,20,05,19,21,17,24,14,30,,,,,1.9,1.0,1.6*3A,0
1778780958489070800,$GPRMC,175130.000,A,1205.8790,S,07701.3082,W,7.87,280.13,140526,,,A*6C,0
1778780959198621207,$GPGGA,175131.000,1205.8793,S,07701.3110,W,1,08,1.0,157.0,M,8.4,M,,0000*64,0
1778780959324650355,$GPGSA,M,3,20,05,19,21,17,24,14,30,,,,,1.9,1.0,1.6*3A,0
1778780959489667763,$GPRMC,175131.000,A,1205.8793,S,07701.3110,W,7.13,276.62,140526,,,A*66,0
1778780960193152596,$GPGGA,175132.000,1205.8789,S,07701.3130,W,1,08,1.0,157.2,M,8.4,M,,0000*6C,0
1778780960319191262,$GPGSA,M,3,20,05,19,21,17,24,14,30,,,,,1.9,1.0,1.6*3A,0
1778780960484184484,$GPRMC,175132.000,A,1205.8789,S,07701.3130,W,6.71,278.61,140526,,,A*64,0
1778780961199169743,$GPGGA,175133.000,1205.8786,S,07701.3150,W,1,08,1.0,157.1,M,8.4,M,,0000*67,0
1778780961325188613,$GPGSA,M,3,20,05,19,21,17,24,14,30,,,,,1.9,1.0,1.6*3A,0
1778780961485595280,$GPGSV,3,1,12,20,68,166,42,05,43,320,35,19,41,083,46,21,31,356,31*71,0
1778780961646004410,$GPGSV,3,2,12,17,27,114,32,24,22,223,30,14,09,143,24,30,07,106,23*75,0
1778780961792664706,$GPGSV,3,3,12,44,42,284,48,13,60,130,,26,48,097,,28,33,154,*74,0
1778780961957663613,$GPRMC,175133.000,A,1205.8786,S,07701.3150,W,7.81,278.55,140526,,,A*65,0
1778780962198073613,$GPGGA,175134.000,1205.8784,S,07701.3178,W,1,08,1.0,156.8,M,8.4,M,,0000*60,0
1778780962324091224,$GPGSA,M,3,20,05,19,21,17,24,14,30,,,,,1.9,1.0,1.6*3A,0
1778780962489111928,$GPRMC,175134.000,A,1205.8784,S,07701.3178,W,9.05,279.19,140526,,,A*61,0
1778780963205399501,$GPGGA,175135.000,1205.8781,S,07701.3206,W,1,08,1.0,156.3,M,8.4,M,,0000*65,0
1778780963331364260,$GPGSA,M,3,20,05,19,21,17,24,14,30,,,,,1.9,1.0,1.6*3A,0
1778780963496443982,$GPRMC,175135.000,A,1205.8781,S,07701.3206,W,9.44,278.54,140526,,,A*62,0
1778780964194508538,$GPGGA,175136.000,1205.8777,S,07701.3237,W,1,07,1.2,155.6,M,8.4,M,,0000*66,0
1778780964315884908,$GPGSA,M,3,20,05,19,17,24,14,30,,,,,,2.1,1.2,1.7*31,0
1778780964483181074,$GPRMC,175136.000,A,1205.8777,S,07701.3237,W,10.01,278.30,140526,,,A*51,0
1778780965195652574,$GPGGA,175137.000,1205.8778,S,07701.3273,W,1,07,1.2,153.4,M,8.4,M,,0000*6C,0
1778780965317089796,$GPGSA,M,3,20,05,19,17,24,14,30,,,,,,2.1,1.2,1.7*31,0
1778780965484385518,$GPRMC,175137.000,A,1205.8778,S,07701.3273,W,10.24,276.09,140526,,,A*5C,0
1778780966195388055,$GPGGA,175138.000,1205.8779,S,07701.3308,W,1,07,1.2,151.4,M,8.4,M,,0000*6D,0
1778780966316836462,$GPGSA,M,3,20,05,19,17,24,14,30,,,,,,2.1,1.2,1.7*31,0
1778780966477252758,$GPGSV,3,1,12,20,68,166,45,05,43,320,41,19,41,083,44,17,27,114,48*7F,0
1778780966637648481,$GPGSV,3,2,12,24,22,223,41,14,09,143,26,30,07,106,17,44,42,284,45*79,0
1778780966779751944,$GPGSV,3,3,12,13,60,130,,26,48,097,,28,33,154,,21,31,356,*71,0
1778780966947022388,$GPRMC,175138.000,A,1205.8779,S,07701.3308,W,10.17,278.48,140526,,,A*54,0
1778780967197008536,$GPGGA,175139.000,1205.8774,S,07701.3337,W,1,07,1.2,150.8,M,8.4,M,,0000*60,0
1778780967318465647,$GPGSA,M,3,20,05,19,17,24,14,30,,,,,,2.1,1.2,1.7*31,0
1778780967485743832,$GPRMC,175139.000,A,1205.8774,S,07701.3337,W,10.05,278.42,140526,,,A*5D,0
1778780968198215572,$GPGGA,175140.000,1205.8770,S,07701.3366,W,1,07,1.2,150.2,M,8.4,M,,0000*64,0
1778780968319661869,$GPGSA,M,3,20,05,19,17,24,14,30,,,,,,2.1,1.2,1.7*31,0
1778780968484658424,$GPRMC,175140.000,A,1205.8770,S,07701.3366,W,9.90,278.50,140526,,,A*64,0
1778780969198795812,$GPGGA,175141.000,1205.8766,S,07701.3396,W,1,08,1.0,149.7,M,8.4,M,,0000*6D,0
1778780969324822961,$GPGSA,M,3,20,05,19,21,17,24,14,30,,,,,1.9,1.0,1.6*3A,0
1778780969492116849,$GPRMC,175141.000,A,1205.8766,S,07701.3396,W,10.38,277.68,140526,,,A*53,0
1778780970193744256,$GPGGA,175142.000,1205.8761,S,07701.3426,W,1,08,1.0,149.1,M,8.4,M,,0000*63,0
1778780970319779034,$GPGSA,M,3,20,05,19,21,17,24,14,30,,,,,1.9,1.0,1.6*3A,0
1778780970487081164,$GPRMC,175142.000,A,1205.8761,S,07701.3426,W,10.39,277.71,140526,,,A*52,0
1778780971195172941,$GPGGA,175143.000,1205.8757,S,07701.3456,W,1,08,1.0,148.6,M,8.4,M,,0000*66,0
1778780971321189533,$GPGSA,M,3,20,05,19,21,17,24,14,30,,,,,1.9,1.0,1.6*3A,0
1778780971481618885,$GPGSV,3,1,12,20,68,166,45,05,43,320,42,19,41,083,45,21,31,356,42*71,0
1778780971642015644,$GPGSV,3,2,12,17,27,114,48,24,22,223,28,14,09,143,25,30,07,106,17*77,0
1778780971788683959,$GPGSV,3,3,12,44,42,284,41,13,60,130,,26,48,097,,28,33,154,*7D,0
1778780971955956829,$GPRMC,175143.000,A,1205.8757,S,07701.3456,W,10.34,277.03,140526,,,A*59,0
1778780972206358403,$GPGGA,175144.000,1205.8753,S,07701.3484,W,1,08,1.0,148.5,M,8.4,M,,0000*69,0
1778780972332391607,$GPGSA,M,3,20,05,19,21,17,24,14,30,,,,,1.9,1.0,1.6*3A,0
1778780972499756885,$GPRMC,175144.000,A,1205.8753,S,07701.3484,W,10.19,276.45,140526,,,A*59,0
1778780973191942329,$GPGGA,175145.000,1205.8750,S,07701.3513,W,1,06,1.7,148.2,M,8.4,M,,0000*6A,0
1778780973308869384,$GPGSA,M,3,20,05,19,17,14,30,,,,,,,2.5,1.7,1.8*39,0
1778780973473809680,$GPRMC,175145.000,A,1205.8750,S,07701.3513,W,9.86,276.08,140526,,,A*63,0
1778780974191505772,$GPGGA,175146.000,1205.8747,S,07701.3541,W,1,06,1.7,148.0,M,8.4,M,,0000*6A,0
1778780974308349809,$GPGSA,M,3,20,05,19,17,14,30,,,,,,,2.5,1.7,1.8*39,0
1778780974475659920,$GPRMC,175146.000,A,1205.8747,S,07701.3541,W,10.35,277.13,140526,,,A*5A,0
1778780975202904994,$GPGGA,175147.000,1205.8745,S,07701.3569,W,1,07,1.2,148.1,M,8.4,M,,0000*66,0
1778780975324356624,$GPGSA,M,3,20,05,19,17,24,14,30,,,,,,2.1,1.2,1.7*31,0
1778780975491635901,$GPRMC,175147.000,A,1205.8745,S,07701.3569,W,10.35,274.91,140526,,,A*5A,0
1778780976193895956,$GPGGA,175148.000,1205.8741,S,07701.3594,W,1,08,1.0,148.9,M,8.4,M,,0000*6A,0
1778780976319947197,$GPGSA,M,3,20,05,19,21,17,24,14,30,,,,,1.9,1.0,1.6*3A,0
1778780976480355808,$GPGSV,3,1,12,20,68,166,44,05,43,320,25,19,41,083,40,21,31,356,35*74,0
1778780976640751975,$GPGSV,3,2,12,17,27,114,47,24,22,223,37,14,09,143,25,30,07,106,22*70,0
1778780976787407252,$GPGSV,3,3,12,44,42,284,46,13,60,130,,26,48,097,,28,33,154,*7A,0
1778780976952422845,$GPRMC,175148.000,A,1205.8741,S,07701.3594,W,9.97,276.61,140526,,,A*6E,0
1778780977199701104,$GPGGA,175149.000,1205.8738,S,07701.3624,W,1,08,1.0,148.6,M,8.4,M,,0000*62,0
1778780977325720937,$GPGSA,M,3,20,05,19,21,17,24,14,30,,,,,1.9,1.0,1.6*3A,0
1778780977493004307,$GPRMC,175149.000,A,1205.8738,S,07701.3624,W,10.54,278.11,140526,,,A*57,0
1778780978198177529,$GPGGA,175150.000,1205.8736,S,07701.3657,W,1,08,1.0,147.6,M,8.4,M,,0000*6F,0
1778780978324215603,$GPGSA,M,3,20,05,19,21,17,24,14,30,,,,,1.9,1.0,1.6*3A,0
1778780978491504362,$GPRMC,175150.000,A,1205.8736,S,07701.3657,W,10.61,278.21,140526,,,A*50,0
1778780979197525492,$GPGGA,175151.000,1205.8734,S,07701.3690,W,1,08,1.0,146.7,M,8.4,M,,0000*67,0
1778780979323548714,$GPGSA,M,3,20,05,19,21,17,24,14,30,,,,,1.9,1.0,1.6*3A,0
1778780979490836029,$GPRMC,175151.000,A,1205.8734,S,07701.3690,W,10.32,278.74,140526,,,A*5E,0
1778780980199144102,$GPGGA,175152.000,1205.8730,S,07701.3720,W,1,08,1.0,146.4,M,8.4,M,,0000*69,0
1778780980325172195,$GPGSA,M,3,20,05,19,21,17,24,14,30,,,,,1.9,1.0,1.6*3A,0
1778780980492460658,$GPRMC,175152.000,A,1205.8730,S,07701.3720,W,10.68,279.25,140526,,,A*59,0
1778780981199500176,$GPGGA,175153.000,1205.8726,S,07701.3754,W,1,08,1.0,145.5,M,8.4,M,,0000*6E,0
1778780981325539676,$GPGSA,M,3,20,05,19,21,17,24,14,30,,,,,1.9,1.0,1.6*3A,0
1778780981485966750,$GPGSV,3,1,12,20,68,166,44,05,43,320,42,19,41,083,45,21,31,356,23*77,0
1778780981646359157,$GPGSV,3,2,12,17,27,114,46,24,22,223,38,14,09,143,25,30,07,106,23*7F,0
1778780981793033953,$GPGSV,3,3,12,44,42,284,47,13,60,130,,26,48,097,,28,33,154,*7B,0
1778780981960294897,$GPRMC,175153.000,A,1205.8726,S,07701.3754,W,11.09,279.17,140526,,,A*5B,0
1778780982199247990,$GPGGA,175154.000,1205.8722,S,07701.3787,W,1,08,1.0,145.0,M,8.4,M,,0000*66,0
1778780982325292156,$GPGSA,M,3,20,05,19,21,17,24,14,30,,,,,1.9,1.0,1.6*3A,0
1778780982492582379,$GPRMC,175154.000,A,1205.8722,S,07701.3787,W,11.39,279.00,140526,,,A*53,0
1778780983197754211,$GPGGA,175155.000,1205.8718,S,07701.3820,W,1,07,1.2,144.4,M,8.4,M,,0000*64,0
1778780983319202193,$GPGSA,M,3,20,05,19,17,24,14,30,,,,,,2.1,1.2,1.7*31,0
1778780983486493137,$GPRMC,175155.000,A,1205.8718,S,07701.3820,W,11.02,278.64,140526,,,A*52,0
1778780984191519711,$GPGGA,175156.000,1205.8714,S,07701.3852,W,1,07,1.2,143.9,M,8.4,M,,0000*64,0
1778780984312903007,$GPGSA,M,3,20,05,19,17,24,14,30,,,,,,2.1,1.2,1.7*31,0
1778780984480193729,$GPRMC,175156.000,A,1205.8714,S,07701.3852,W,10.73,278.68,140526,,,A*53,0
1778780985202663303,$GPGGA,175157.000,1205.8710,S,07701.3882,W,1,08,1.0,143.7,M,8.4,M,,0000*6F,0
1778780985328685525,$GPGSA,M,3,20,05,19,21,17,24,14,30,,,,,1.9,1.0,1.6*3A,0
1778780985495973692,$GPRMC,175157.000,A,1205.8710,S,07701.3882,W,10.51,276.34,140526,,,A*5C,0
1778780986198863969,$GPGGA,175158.000,1205.8707,S,07701.3911,W,1,08,1.0,143.9,M,8.4,M,,0000*63,0
1778780986324895580,$GPGSA,M,3,20,05,19,21,17,24,14,30,,,,,1.9,1.0,1.6*3A,0
1778780986485326821,$GPGSV,3,1,12,20,68,166,44,05,43,320,27,19,41,083,46,21,31,356,36*73,0
1778780986645712598,$GPGSV,3,2,12,17,27,114,48,24,22,223,34,14,09,143,32,30,07,106,30*79,0
1778780986796964432,$GPGSV,3,3,12,06,01,047,14,44,42,284,47,13,60,130,,26,48,097,*70,0
1778780986964245006,$GPRMC,175158.000,A,1205.8707,S,07701.3911,W,10.26,276.27,140526,,,A*5C,0
1778780987199019450,$GPGGA,175159.000,1205.8704,S,07701.3941,W,1,08,1.0,144.0,M,8.4,M,,0000*6A,0
1778780987325060876,$GPGSA,M,3,20,05,19,21,17,24,14,30,,,,,1.9,1.0,1.6*3A,0
1778780987492337672,$GPRMC,175159.000,A,1205.8704,S,07701.3941,W,10.63,276.61,140526,,,A*58,0
1778780988193144801,$GPGGA,175200.000,1205.8700,S,07701.3971,W,1,06,1.7,143.9,M,8.4,M,,0000*65,0
1778780988310013468,$GPGSA,M,3,20,05,19,17,14,30,,,,,,,2.5,1.7,1.8*39,0
1778780988477306579,$GPRMC,175200.000,A,1205.8700,S,07701.3971,W,10.66,277.75,140526,,,A*51,0
1778780989191016726,$GPGGA,175201.000,1205.8692,S,07701.4003,W,1,06,1.7,143.5,M,8.4,M,,0000*69,0
1778780989307892356,$GPGSA,M,3,20,05,19,17,14,30,,,,,,,2.5,1.7,1.8*39,0
1778780989475188763,$GPRMC,175201.000,A,1205.8692,S,07701.4003,W,10.18,277.86,140526,,,A*54,0
1778780990196817393,$GPGGA,175202.000,1205.8687,S,07701.4030,W,1,07,1.2,143.8,M,8.4,M,,0000*67,0
1778780990318250615,$GPGSA,M,3,20,05,19,17,24,14,30,,,,,,2.1,1.2,1.7*31,0
1778780990483267318,$GPRMC,175202.000,A,1205.8687,S,07701.4030,W,9.64,277.46,140526,,,A*6C,0
1778780991198843873,$GPGGA,175203.000,1205.8683,S,07701.4058,W,1,08,1.0,143.7,M,8.4,M,,0000*6E,0
1778780991324882540,$GPGSA,M,3,20,05,19,21,17,24,14,30,,,,,1.9,1.0,1.6*3A,0
1778780991485287577,$GPGSV,3,1,12,20,68,166,44,05,43,320,41,19,41,083,46,21,31,356,32*77,0
1778780991645707225,$GPGSV,3,2,12,17,27,114,46,24,22,223,34,14,09,143,26,30,07,106,33*71,0
1778780991792354984,$GPGSV,3,3,12,44,42,284,46,13,60,130,,26,48,097,,28,33,154,*7A,0
1778780991959686336,$GPRMC,175203.000,A,1205.8683,S,07701.4058,W,10.10,277.94,140526,,,A*53,0
1778780992198801614,$GPGGA,175204.000,1205.8680,S,07701.4089,W,1,08,1.0,143.3,M,8.4,M,,0000*62,0
1778780992324850188,$GPGSA,M,3,20,05,19,21,17,24,14,30,,,,,1.9,1.0,1.6*3A,0
1778780992492141780,$GPRMC,175204.000,A,1205.8680,S,07701.4089,W,10.49,278.02,140526,,,A*57,0
1778780993200627409,$GPGGA,175205.000,1205.8676,S,07701.4119,W,1,08,1.0,142.8,M,8.4,M,,0000*68,0
1778780993326675168,$GPGSA,M,3,20,05,19,21,17,24,14,30,,,,,1.9,1.0,1.6*3A,0
1778780993493960594,$GPRMC,175205.000,A,1205.8676,S,07701.4119,W,10.03,277.58,140526,,,A*59,0
1778780994202473483,$GPGGA,175206.000,1205.8675,S,07701.4149,W,1,08,1.0,142.3,M,8.4,M,,0000*66,0
1778780994328506686,$GPGSA,M,3,20,05,19,21,17,24,14,30,,,,,1.9,1.0,1.6*3A,0
1778780994495805834,$GPRMC,175206.000,A,1205.8675,S,07701.4149,W,10.07,277.95,140526,,,A*59,0
1778780995199922556,$GPGGA,175207.000,1205.8671,S,07701.4179,W,1,08,1.0,141.8,M,8.4,M,,0000*68,0
1778780995325951075,$GPGSA,M,3,20,05,19,21,17,24,14,30,,,,,1.9,1.0,1.6*3A,0
1778780995493238500,$GPRMC,175207.000,A,1205.8671,S,07701.4179,W,10.34,278.16,140526,,,A*5B,0
1778780996198615204,$GPGGA,175208.000,1205.8668,S,07701.4208,W,1,08,1.0,141.6,M,8.4,M,,0000*64,0
1778780996324655907,$GPGSA,M,3,20,05,19,21,17,24,14,30,,,,,1.9,1.0,1.6*3A,0
1778780996485064315,$GPGSV,3,1,12,20,68,166,44,05,43,320,43,19,41,083,47,21,31,356,40*71,0
1778780996645474241,$GPGSV,3,2,12,17,27,114,47,24,22,223,36,14,09,143,27,30,07,106,33*73,0
1778780996792140666,$GPGSV,3,3,12,44,42,284,46,13,60,130,,26,48,097,,28,33,154,*7A,0
1778780996959439463,$GPRMC,175208.000,A,1205.8668,S,07701.4208,W,10.14,278.04,140526,,,A*58,0
1778780997198997259,$GPGGA,175209.000,1205.8663,S,07701.4237,W,1,08,1.0,141.4,M,8.4,M,,0000*60,0
1778780997325032536,$GPGSA,M,3,20,05,19,21,17,24,14,30,,,,,1.9,1.0,1.6*3A,0
1778780997492315073,$GPRMC,175209.000,A,1205.8663,S,07701.4237,W,10.38,278.09,140526,,,A*5D,0
1778780998204624684,$GPGGA,175210.000,1205.8660,S,07701.4267,W,1,08,1.0,141.2,M,8.4,M,,0000*68,0
1778780998330650814,$GPGSA,M,3,20,05,19,21,17,24,14,30,,,,,1.9,1.0,1.6*3A,0
1778780998497921462,$GPRMC,175210.000,A,1205.8660,S,07701.4267,W,10.13,277.35,140526,,,A*5A,0
1778780999200569072,$GPGGA,175211.000,1205.8656,S,07701.4295,W,1,08,1.0,140.9,M,8.4,M,,0000*6B,0
1778780999326612109,$GPGSA,M,3,20,05,19,21,17,24,14,30,,,,,1.9,1.0,1.6*3A,0
1778780999491598609,$GPRMC,175211.000,A,1205.8656,S,07701.4295,W,9.90,278.35,140526,,,A*6F,0
1778781000195743350,$GPGGA,175212.000,1205.8651,S,07701.4323,W,1,08,1.0,141.0,M,8.4,M,,0000*6B,0
1778781000321763201,$GPGSA,M,3,20,05,19,21,17,24,14,30,,,,,1.9,1.0,1.6*3A,0
1778781000486774331,$GPRMC,175212.000,A,1205.8651,S,07701.4323,W,9.90,279.08,140526,,,A*68,0
1778781001204234516,$GPGGA,175213.000,1205.8647,S,07701.4350,W,1,09,0.9,141.1,M,8.4,M,,0000*61,0
1778781001334893238,$GPGSA,M,3,20,05,19,21,17,24,14,11,30,,,,1.6,0.9,1.3*38,0
1778781001495254034,$GPGSV,3,1,12,20,68,166,44,05,43,320,38,19,41,083,47,21,31,356,37*7D,0
1778781001655660960,$GPGSV,3,2,12,17,27,114,47,24,22,223,31,14,09,143,27,11,08,011,18*76,0
1778781001806910793,$GPGSV,3,3,12,30,07,106,42,44,42,284,46,13,60,130,,26,48,097,*75,0
1778781001971904626,$GPRMC,175213.000,A,1205.8647,S,07701.4350,W,9.73,278.52,140526,,,A*69,0
1778781002202934033,$GPGGA,175214.000,1205.8643,S,07701.4376,W,1,09,0.9,141.2,M,8.4,M,,0000*65,0
1778781002333563070,$GPGSA,M,3,20,05,19,21,17,24,14,11,30,,,,1.6,0.9,1.3*38,0
1778781002498548552,$GPRMC,175214.000,A,1205.8643,S,07701.4376,W,9.59,278.55,140526,,,A*61,0
1778781003202278014,$GPGGA,175215.000,1205.8640,S,07701.4403,W,1,09,0.9,141.2,M,8.4,M,,0000*62,0
1778781003332882181,$GPGSA,M,3,20,05,19,21,17,24,14,11,30,,,,1.6,0.9,1.3*38,0
1778781003497890736,$GPRMC,175215.000,A,1205.8640,S,07701.4403,W,9.67,278.11,140526,,,A*6B,0
1778781004206596810,$GPGGA,175216.000,1205.8636,S,07701.4429,W,1,08,1.0,141.3,M,8.4,M,,0000*60,0
1778781004332629662,$GPGSA,M,3,20,05,19,21,17,24,14,30,,,,,1.9,1.0,1.6*3A,0
1778781004497636014,$GPRMC,175216.000,A,1205.8636,S,07701.4429,W,9.53,277.63,140526,,,A*6C,0
1778781005202387606,$GPGGA,175217.000,1205.8633,S,07701.4456,W,1,09,0.9,141.3,M,8.4,M,,0000*65,0
1778781005333001772,$GPGSA,M,3,20,05,19,21,17,24,14,11,30,,,,1.6,0.9,1.3*38,0
1778781005498004772,$GPRMC,175217.000,A,1205.8633,S,07701.4456,W,9.16,279.09,140526,,,A*63,0
1778781006201084568,$GPGGA,175218.000,1205.8629,S,07701.4480,W,1,09,0.9,141.3,M,8.4,M,,0000*6A,0
1778781006331723568,$GPGSA,M,3,20,05,19,21,17,24,14,11,30,,,,1.6,0.9,1.3*38,0
1778781006492127198,$GPGSV,3,1,12,20,68,166,44,05,43,320,44,19,41,083,47,21,31,356,36*77,0
1778781006652531401,$GPGSV,3,2,12,17,27,114,47,24,22,223,41,14,09,143,28,11,08,011,19*7F,0
1778781006808343549,$GPGSV,3,3,12,30,07,106,37,06,01,047,21,44,42,284,47,13,60,130,*77,0
1778781006973348197,$GPRMC,175218.000,A,1205.8629,S,07701.4480,W,7.89,279.67,140526,,,A*6C,0
1778781007197104031,$GPGGA,175219.000,1205.8626,S,07701.4496,W,1,09,0.9,141.4,M,8.4,M,,0000*64,0
1778781007327712938,$GPGSA,M,3,20,05,19,21,17,24,14,11,30,,,,1.6,0.9,1.3*38,0
1778781007492701567,$GPRMC,175219.000,A,1205.8626,S,07701.4496,W,4.17,280.62,140526,,,A*62,1
1778781008197665604,$GPGGA,175220.000,1205.8624,S,07701.4502,W,1,09,0.9,141.5,M,8.4,M,,0000*61,1
1778781008328284715,$GPGSA,M,3,20,05,19,21,17,24,14,11,30,,,,1.6,0.9,1.3*38,1
1778781008493285585,$GPRMC,175220.000,A,1205.8624,S,07701.4502,W,0.73,280.62,140526,,,A*60,1
1778781009202629992,$GPGGA,175221.000,1205.8624,S,07701.4503,W,1,09,0.9,141.5,M,8.4,M,,0000*61,1
1778781009333310363,$GPGSA,M,3,20,05,19,21,17,24,14,11,30,,,,1.6,0.9,1.3*38,1
1778781009498242196,$GPRMC,175221.000,A,1205.8624,S,07701.4503,W,0.04,280.62,140526,,,A*60,1
1778781010200494973,$GPGGA,175222.000,1205.8624,S,07701.4503,W,1,08,1.0,141.4,M,8.4,M,,0000*6A,1
1778781010326527510,$GPGSA,M,3,20,05,19,21,17,24,14,30,,,,,1.9,1.0,1.6*3A,1
1778781010491529566,$GPRMC,175222.000,A,1205.8624,S,07701.4503,W,0.72,280.62,140526,,,A*62,1
1778781011198592750,$GPGGA,175223.000,1205.8623,S,07701.4509,W,1,08,1.0,141.3,M,8.4,M,,0000*61,1
1778781011324609213,$GPGSA,M,3,20,05,19,21,17,24,14,30,,,,,1.9,1.0,1.6*3A,1
1778781011485031787,$GPGSV,3,1,12,20,68,166,44,05,43,320,45,19,41,083,47,21,31,356,42*75,1
1778781011645428120,$GPGSV,3,2,12,17,27,114,48,24,22,223,40,14,09,143,29,30,07,106,36*76,1
1778781011792087380,$GPGSV,3,3,12,44,42,284,46,13,60,130,,26,48,097,,28,33,154,*7A,1
1778781011957083194,$GPRMC,175223.000,A,1205.8623,S,07701.4509,W,3.30,285.33,140526,,,A*6A,1
1778781012198735324,$GPGGA,175224.000,1205.8618,S,07701.4520,W,1,08,1.0,141.4,M,8.4,M,,0000*62,1
1778781012324779083,$GPGSA,M,3,20,05,19,21,17,24,14,30,,,,,1.9,1.0,1.6*3A,1
1778781012489782935,$GPRMC,175224.000,A,1205.8618,S,07701.4520,W,4.73,294.77,140526,,,A*6E,1
1778781013196885934,$GPGGA,175225.000,1205.8611,S,07701.4531,W,1,08,1.0,141.4,M,8.4,M,,0000*6A,1
1778781013322900564,$GPGSA,M,3,20,05,19,21,17,24,14,30,,,,,1.9,1.0,1.6*3A,1
1778781013487854027,$GPRMC,175225.000,A,1205.8611,S,07701.4531,W,4.56,311.01,140526,,,A*6C,1
1778781014196161712,$GPGGA,175226.000,1205.8599,S,07701.4537,W,1,08,1.0,141.4,M,8.4,M,,0000*6C,1
1778781014322183600,$GPGSA,M,3,20,05,19,21,17,24,14,30,,,,,1.9,1.0,1.6*3A,1
1778781014487199767,$GPRMC,175226.000,A,1205.8599,S,07701.4537,W,5.14,341.21,140526,,,A*6A,1
1778781015194859452,$GPGGA,175227.000,1205.8582,S,07701.4537,W,1,08,1.0,141.6,M,8.4,M,,0000*65,1
1778781015320916174,$GPGSA,M,3,20,05,19,21,17,24,14,30,,,,,1.9,1.0,1.6*3A,1
1778781015481304063,$GPRMC,175227.000,A,1205.8582,S,07701.4537,W,6.68,0.45,140526,,,A*6D,1
1778781016197512673,$GPGGA,175228.000,1205.8561,S,07701.4530,W,1,09,0.9,141.6,M,8.4,M,,0000*69,1
1778781016328139932,$GPGSA,M,3,20,05,19,21,17,24,14,11,30,,,,1.6,0.9,1.3*38,1
1778781016488549932,$GPGSV,3,1,12,20,68,166,45,05,43,320,32,19,41,083,34,21,31,356,43*71,1
1778781016648950340,$GPGSV,3,2,12,17,27,114,41,24,22,223,32,14,09,143,28,11,08,011,17*73,1
1778781016800196506,$GPGSV,3,3,12,30,07,106,36,44,42,284,28,13,60,130,,26,48,097,*7E,1
1778781016962899210,$GPRMC,175228.000,A,1205.8561,S,07701.4530,W,8.81,22.65,140526,,,A*53,1
1778781017198305636,$GPGGA,175229.000,1205.8537,S,07701.4521,W,1,09,0.9,141.8,M,8.4,M,,0000*65,1
1778781017328922358,$GPGSA,M,3,20,05,19,21,17,24,14,11,30,,,,1.6,0.9,1.3*38,1
1778781017491642117,$GPRMC,175229.000,A,1205.8537,S,07701.4521,W,9.17,20.13,140526,,,A*5C,1
1778781018197841135,$GPGGA,175230.000,1205.8512,S,07701.4513,W,1,09,0.9,142.0,M,8.4,M,,0000*60,1
1778781018328463265,$GPGSA,M,3,20,05,19,21,17,24,14,11,30,,,,1.6,0.9,1.3*38,1
1778781018491189616,$GPRMC,175230.000,A,1205.8512,S,07701.4513,W,9.98,18.98,140526,,,A*5D,1
1778781019198653672,$GPGGA,175231.000,1205.8485,S,07701.4507,W,1,09,0.9,142.4,M,8.4,M,,0000*6F,1
1778781019329251320,$GPGSA,M,3,20,05,19,21,17,24,14,11,30,,,,1.6,0.9,1.3*38,1
1778781019491957468,$GPRMC,175231.000,A,1205.8485,S,07701.4507,W,9.28,15.00,140526,,,A*51,1
1778781020200468634,$GPGGA,175232.000,1205.8458,S,07701.4502,W,1,08,1.0,143.0,M,8.4,M,,0000*65,1
1778781020326496282,$GPGSA,M,3,20,05,19,21,17,24,14,30,,,,,1.9,1.0,1.6*3A,1
1778781020489202930,$GPRMC,175232.000,A,1205.8458,S,07701.4502,W,9.52,11.98,140526,,,A*5F,1
1778781021197294504,$GPGGA,175233.000,1205.8430,S,07701.4497,W,1,08,1.0,143.5,M,8.4,M,,0000*62,1
1778781021323322059,$GPGSA,M,3,20,05,19,21,17,24,14,30,,,,,1.9,1.0,1.6*3A,1
1778781021483757170,$GPGSV,3,1,12,20,68,166,45,05,43,320,43,19,41,083,30,21,31,356,40*70,1
1778781021644158040,$GPGSV,3,2,12,17,27,114,27,24,22,223,32,14,09,143,28,30,07,106,22*7E,1
1778781021799974503,$GPGSV,3,3,12,06,01,047,19,11,08,011,04,44,42,284,40,13,60,130,*70,1
1778781021962673244,$GPRMC,175233.000,A,1205.8430,S,07701.4497,W,9.82,13.37,140526,,,A*57,1
1778781022198293466,$GPGGA,175234.000,1205.8403,S,07701.4489,W,1,08,1.0,143.9,M,8.4,M,,0000*66,1
1778781022324325651,$GPGSA,M,3,20,05,19,21,17,24,14,30,,,,,1.9,1.0,1.6*3A,1
1778781022489323984,$GPRMC,175234.000,A,1205.8403,S,07701.4489,W,10.15,19.79,140526,,,A*69,1
1778781023200753465,$GPGGA,175235.000,1205.8376,S,07701.4477,W,1,08,1.0,144.0,M,8.4,M,,0000*6D,1
1778781023326780910,$GPGSA,M,3,20,05,19,21,17,24,14,30,,,,,1.9,1.0,1.6*3A,1
1778781023491775910,$GPRMC,175235.000,A,1205.8376,S,07701.4477,W,10.58,24.66,140526,,,A*65,1
1778781024198201131,$GPGGA,175236.000,1205.8350,S,07701.4465,W,1,08,1.0,144.3,M,8.4,M,,0000*6A,1
1778781024324232668,$GPGSA,M,3,20,05,19,21,17,24,14,30,,,,,1.9,1.0,1.6*3A,1
1778781024486946502,$GPRMC,175236.000,A,1205.8350,S,07701.4465,W,9.83,25.20,140526,,,A*5C,1
1778781025199408649,$GPGGA,175237.000,1205.8325,S,07701.4453,W,1,08,1.0,144.6,M,8.4,M,,0000*69,1
1778781025325433409,$GPGSA,M,3,20,05,19,21,17,24,14,30,,,,,1.9,1.0,1.6*3A,1
1778781025488141371,$GPRMC,175237.000,A,1205.8325,S,07701.4453,W,9.24,24.85,140526,,,A*59,1
1778781026198731760,$GPGGA,175238.000,1205.8302,S,07701.4442,W,1,08,1.0,144.6,M,8.4,M,,0000*63,1
1778781026324770927,$GPGSA,M,3,20,05,19,21,17,24,14,30,,,,,1.9,1.0,1.6*3A,1
1778781026485189278,$GPGSV,3,1,12,20,68,166,44,05,43,320,43,19,41,083,44,21,31,356,27*73,1
1778781026645583334,$GPGSV,3,2,12,17,27,114,38,24,22,223,23,14,09,143,19,30,07,106,22*72,1
1778781026796831815,$GPGSV,3,3,12,06,01,047,11,44,42,284,41,13,60,130,,26,48,097,*73,1
1778781026959544389,$GPRMC,175238.000,A,1205.8302,S,07701.4442,W,8.49,24.25,140526,,,A*53,1
1778781027199524833,$GPGGA,175239.000,1205.8282,S,07701.4432,W,1,08,1.0,144.5,M,8.4,M,,0000*6F,1
1778781027325563444,$GPGSA,M,3,20,05,19,21,17,24,14,30,,,,,1.9,1.0,1.6*3A,1
1778781027488273296,$GPRMC,175239.000,A,1205.8282,S,07701.4432,W,7.69,24.55,140526,,,A*56,1
1778781028196347518,$GPGGA,175240.000,1205.8262,S,07701.4423,W,1,08,1.0,144.5,M,8.4,M,,0000*6F,1
1778781028322397944,$GPGSA,M,3,20,05,19,21,17,24,14,30,,,,,1.9,1.0,1.6*3A,1
1778781028485092055,$GPRMC,175240.000,A,1205.8262,S,07701.4423,W,7.33,22.63,140526,,,A*5A,1
1778781029199440147,$GPGGA,175241.000,1205.8244,S,07701.4416,W,1,08,1.0,144.6,M,8.4,M,,0000*6F,1
1778781029325462814,$GPGSA,M,3,20,05,19,21,17,24,14,30,,,,,1.9,1.0,1.6*3A,1
1778781029488182591,$GPRMC,175241.000,A,1205.8244,S,07701.4416,W,6.65,22.39,140526,,,A*54,1
1778781030202098961,$GPGGA,175242.000,1205.8228,S,07701.4408,W,1,09,0.9,144.7,M,8.4,M,,0000*61,1
1778781030332711961,$GPGSA,M,3,20,05,19,21,17,24,14,11,30,,,,1.6,0.9,1.3*38,1
1778781030495498313,$GPRMC,175242.000,A,1205.8228,S,07701.4408,W,5.77,25.70,140526,,,A*58,1
1778781031203923275,$GPGGA,175243.000,1205.8215,S,07701.4399,W,1,09,0.9,144.8,M,8.4,M,,0000*6E,1
1778781031334658479,$GPGSA,M,3,20,05,19,21,17,24,14,11,30,,,,1.6,0.9,1.3*38,1
1778781031494947923,$GPGSV,3,1,12,20,68,166,44,05,43,320,42,19,41,083,41,21,31,356,28*78,1
1778781031655364812,$GPGSV,3,2,12,17,27,114,23,24,22,223,22,14,09,143,28,11,08,011,31*72,1
1778781031806606720,$GPGSV,3,3,12,30,07,106,18,44,42,284,41,13,60,130,,26,48,097,*7D,1
1778781031969305608,$GPRMC,175243.000,A,1205.8215,S,07701.4399,W,5.82,36.98,140526,,,A*56,1
1778781032199108238,$GPGGA,175244.000,1205.8205,S,07701.4385,W,1,09,0.9,145.0,M,8.4,M,,0000*6C,1
1778781032329765830,$GPGSA,M,3,20,05,19,21,17,24,14,11,30,,,,1.6,0.9,1.3*38,1
1778781032492403904,$GPRMC,175244.000,A,1205.8205,S,07701.4385,W,6.12,56.15,140526,,,A*54,1
1778781033203006497,$GPGGA,175245.000,1205.8202,S,07701.4366,W,1,09,0.9,145.1,M,8.4,M,,0000*66,1
1778781033333626015,$GPGSA,M,3,20,05,19,21,17,24,14,11,30,,,,1.6,0.9,1.3*38,1
1778781033496321941,$GPRMC,175245.000,A,1205.8202,S,07701.4366,W,7.48,81.00,140526,,,A*5F,1
1778781034203389218,$GPGGA,175246.000,1205.8204,S,07701.4342,W,1,09,0.9,145.4,M,8.4,M,,0000*60,1
1778781034334096922,$GPGSA,M,3,20,05,19,21,17,24,14,11,30,,,,1.6,0.9,1.3*38,1
1778781034496713977,$GPRMC,175246.000,A,1205.8204,S,07701.4342,W,8.66,93.66,140526,,,A*5C,1
1778781035203203292,$GPGGA,175247.000,1205.8207,S,07701.4318,W,1,09,0.9,145.9,M,8.4,M,,0000*60,1
1778781035333761014,$GPGSA,M,3,20,05,19,21,17,24,14,11,30,,,,1.6,0.9,1.3*38,1
1778781035496435699,$GPRMC,175247.000,A,1205.8207,S,07701.4318,W,8.16,95.59,140526,,,A*5C,1
1778781036200373643,$GPGGA,175248.000,1205.8208,S,07701.4293,W,1,08,0.9,146.4,M,8.4,M,,0000*6D,1
1778781036326410106,$GPGSA,M,3,20,05,19,21,17,24,14,11,,,,,1.7,0.9,1.4*3D,1
1778781036486813754,$GPGSV,3,1,12,20,68,166,38,05,43,320,25,19,41,083,41,21,31,356,30*7B,1
1778781036647233013,$GPGSV,3,2,12,17,27,114,21,24,22,223,31,14,09,143,18,11,08,011,20*71,1
1778781036803062957,$GPGSV,3,3,12,06,01,047,14,30,07,106,04,44,42,284,42,13,60,130,*74,1
1778781036965744846,$GPRMC,175248.000,A,1205.8208,S,07701.4293,W,8.48,96.78,140526,,,A*55,1
1778781037202630605,$GPGGA,175249.000,1205.8212,S,07701.4265,W,1,08,0.9,146.9,M,8.4,M,,0000*63,1
1778781037328650920,$GPGSA,M,3,20,05,19,21,17,24,14,11,,,,,1.7,0.9,1.4*3D,1
1778781037491352235,$GPRMC,175249.000,A,1205.8212,S,07701.4265,W,9.59,99.28,140526,,,A*5D,1
1778781038200696697,$GPGGA,175250.000,1205.8218,S,07701.4235,W,1,08,0.9,147.4,M,8.4,M,,0000*68,1
1778781038326737105,$GPGSA,M,3,20,05,19,21,17,24,14,11,,,,,1.7,0.9,1.4*3D,1
1778781038491725271,$GPRMC,175250.000,A,1205.8218,S,07701.4235,W,10.42,99.35,140526,,,A*64,1
1778781039200882511,$GPGGA,175251.000,1205.8227,S,07701.4202,W,1,08,0.9,147.7,M,8.4,M,,0000*62,1
1778781039326910326,$GPGSA,M,3,20,05,19,21,17,24,14,11,,,,,1.7,0.9,1.4*3D,1
1778781039491893196,$GPRMC,175251.000,A,1205.8227,S,07701.4202,W,10.94,99.27,140526,,,A*65,1
1778781040203114974,$GPGGA,175252.000,1205.8236,S,07701.4169,W,1,07,1.0,148.1,M,8.4,M,,0000*61,1
1778781040324568103,$GPGSA,M,3,20,05,19,21,24,14,11,,,,,,1.7,1.0,1.4*33,1
1778781040489548733,$GPRMC,175252.000,A,1205.8236,S,07701.4169,W,10.70,99.12,140526,,,A*64,1
1778781041198899510,$GPGGA,175253.000,1205.8244,S,07701.4138,W,1,07,1.0,148.5,M,8.4,M,,0000*65,1
1778781041320358621,$GPGSA,M,3,20,05,19,21,24,14,11,,,,,,1.7,1.0,1.4*33,1
1778781041480774177,$GPGSV,3,1,12,20,68,166,40,05,43,320,22,19,41,083,40,21,31,356,38*7A,1
1778781041641178695,$GPGSV,3,2,12,24,22,223,24,14,09,143,18,11,08,011,18,06,01,047,16*79,1
1778781041796999473,$GPGSV,3,3,12,17,27,114,14,30,07,106,07,44,42,284,43,13,60,130,*75,1
1778781041959701343,$GPRMC,175253.000,A,1205.8244,S,07701.4138,W,9.79,98.17,140526,,,A*51,1
1778781042197388899,$GPGGA,175254.000,1205.8250,S,07701.4109,W,1,07,1.0,149.1,M,8.4,M,,0000*60,1
1778781042318839584,$GPGSA,M,3,20,05,19,21,24,14,11,,,,,,1.7,1.0,1.4*33,1
1778781042481553898,$GPRMC,175254.000,A,1205.8250,S,07701.4109,W,8.89,97.24,140526,,,A*50,1
1778781043191313602,$GPGGA,175255.000,1205.8255,S,07701.4082,W,1,07,1.0,149.5,M,8.4,M,,0000*62,1
1778781043312758713,$GPGSA,M,3,20,05,19,21,24,14,11,,,,,,1.7,1.0,1.4*33,1
1778781043475460194,$GPRMC,175255.000,A,1205.8255,S,07701.4082,W,8.68,96.64,140526,,,A*5C,1
1778781044200209360,$GPGGA,175256.000,1205.8257,S,07701.4057,W,1,08,0.9,149.7,M,8.4,M,,0000*6E,1
1778781044326255045,$GPGSA,M,3,20,05,19,21,17,24,14,11,,,,,1.7,0.9,1.4*3D,1
1778781044488964175,$GPRMC,175256.000,A,1205.8257,S,07701.4057,W,8.35,96.45,140526,,,A*5E,1
1778781045203515249,$GPGGA,175257.000,1205.8257,S,07701.4033,W,1,08,0.9,150.4,M,8.4,M,,0000*66,1
1778781045329549415,$GPGSA,M,3,20,05,19,21,17,24,14,11,,,,,1.7,0.9,1.4*3D,1
1778781045492248397,$GPRMC,175257.000,A,1205.8257,S,07701.4033,W,7.84,95.97,140526,,,A*54,1
1778781046200967785,$GPGGA,175258.000,1205.8258,S,07701.4011,W,1,08,0.9,150.7,M,8.4,M,,0000*65,1
1778781046327008378,$GPGSA,M,3,20,05,19,21,17,24,14,11,,,,,1.7,0.9,1.4*3D,1
1778781046487412155,$GPGSV,3,1,12,20,68,166,41,05,43,320,35,19,41,083,43,21,31,356,28*7F,1
1778781046647824340,$GPGSV,3,2,12,17,27,114,20,24,22,223,27,14,09,143,18,11,08,011,19*7D,1
1778781046799071581,$GPGSV,3,3,12,30,07,106,18,44,42,284,45,13,60,130,,26,48,097,*79,1
1778781046961763748,$GPRMC,175258.000,A,1205.8258,S,07701.4011,W,7.52,95.20,140526,,,A*53,1
1778781047200717192,$GPGGA,175259.000,1205.8259,S,07701.3990,W,1,08,0.9,150.8,M,8.4,M,,0000*6D,1
1778781047326745821,$GPGSA,M,3,20,05,19,21,17,24,14,11,,,,,1.7,0.9,1.4*3D,1
1778781047489449303,$GPRMC,175259.000,A,1205.8259,S,07701.3990,W,7.43,94.35,140526,,,A*51,1
1778781048199621988,$GPGGA,175300.000,1205.8259,S,07701.3969,W,1,08,0.9,150.8,M,8.4,M,,0000*66,1
1778781048325660432,$GPGSA,M,3,20,05,19,21,17,24,14,11,,,,,1.7,0.9,1.4*3D,1
1778781048488363802,$GPRMC,175300.000,A,1205.8259,S,07701.3969,W,7.51,94.66,140526,,,A*5F,1
1778781049201862765,$GPGGA,175301.000,1205.8260,S,07701.3949,W,1,08,0.9,150.3,M,8.4,M,,0000*64,1
1778781049327900413,$GPGSA,M,3,20,05,19,21,17,24,14,11,,,,,1.7,0.9,1.4*3D,1
1778781049490612024,$GPRMC,175301.000,A,1205.8260,S,07701.3949,W,7.59,92.40,140526,,,A*5C,1
1778781050199968394,$GPGGA,175302.000,1205.8261,S,07701.3927,W,1,08,0.9,150.0,M,8.4,M,,0000*6D,1
1778781050325985912,$GPGSA,M,3,20,05,19,21,17,24,14,11,,,,,1.7,0.9,1.4*3D,1
1778781050488691468,$GPRMC,175302.000,A,1205.8261,S,07701.3927,W,8.56,90.59,140526,,,A*5C,1
1778781051200535412,$GPGGA,175303.000,1205.8261,S,07701.3903,W,1,08,0.9,150.2,M,8.4,M,,0000*68,1
1778781051326629504,$GPGSA,M,3,20,05,19,21,17,24,14,11,,,,,1.7,0.9,1.4*3D,1
1778781051486971708,$GPGSV,3,1,12,20,68,166,42,05,43,320,43,19,41,083,43,21,31,356,40*73,1
1778781051647384578,$GPGSV,3,2,12,17,27,114,20,24,22,223,39,14,09,143,17,11,08,011,29*7E,1
1778781051803218522,$GPGSV,3,3,12,06,01,047,12,30,07,106,18,44,42,284,44,13,60,130,*79,1
1778781051965901208,$GPRMC,175303.000,A,1205.8261,S,07701.3903,W,9.07,89.18,140526,,,A*53,1
1778781052201315430,$GPGGA,175304.000,1205.8261,S,07701.3876,W,1,08,0.9,150.3,M,8.4,M,,0000*6D,1
1778781052327363096,$GPGSA,M,3,20,05,19,21,17,24,14,11,,,,,1.7,0.9,1.4*3D,1
1778781052490061837,$GPRMC,175304.000,A,1205.8261,S,07701.3876,W,9.53,90.56,140526,,,A*54,1
1778781053199820688,$GPGGA,175305.000,1205.8261,S,07701.3847,W,1,08,0.9,150.5,M,8.4,M,,0000*68,1
1778781053325844892,$GPGSA,M,3,20,05,19,21,17,24,14,11,,,,,1.7,0.9,1.4*3D,1
1778781053490846521,$GPRMC,175305.000,A,1205.8261,S,07701.3847,W,10.58,92.14,140526,,,A*60,1
1778781054198952354,$GPGGA,175306.000,1205.8260,S,07701.3814,W,1,08,0.9,150.6,M,8.4,M,,0000*6F,1
1778781054324971484,$GPGSA,M,3,20,05,19,21,17,24,14,11,,,,,1.7,0.9,1.4*3D,1
1778781054489979002,$GPRMC,175306.000,A,1205.8260,S,07701.3814,W,12.26,89.98,140526,,,A*61,1
1778781055195222743,$GPGGA,175307.000,1205.8260,S,07701.3776,W,1,08,0.9,150.8,M,8.4,M,,0000*6B,1
1778781055321242354,$GPGSA,M,3,20,05,19,21,17,24,14,11,,,,,1.7,0.9,1.4*3D,1
1778781055486173131,$GPRMC,175307.000,A,1205.8260,S,07701.3776,W,13.48,92.27,140526,,,A*6C,1
1778781056199687742,$GPGGA,175308.000,1205.8265,S,07701.3734,W,1,08,0.9,151.1,M,8.4,M,,0000*6F,1
1778781056325722335,$GPGSA,M,3,20,05,19,21,17,24,14,11,,,,,1.7,0.9,1.4*3D,1
1778781056486126446,$GPGSV,3,1,12,20,68,166,34,05,43,320,42,19,41,083,42,21,31,356,38*7D,1
1778781056646540594,$GPGSV,3,2,12,17,27,114,24,24,22,223,21,14,09,143,17,11,08,011,18*71,1
1778781056802359019,$GPGSV,3,3,12,06,01,047,22,30,07,106,18,44,42,284,45,13,60,130,*7B,1
1778781056967364445,$GPRMC,175308.000,A,1205.8265,S,07701.3734,W,15.22,96.59,140526,,,A*67,1
1778781057200514871,$GPGGA,175309.000,1205.8269,S,07701.3686,W,1,08,0.9,151.9,M,8.4,M,,0000*62,1
1778781057326537482,$GPGSA,M,3,20,05,19,21,17,24,14,11,,,,,1.7,0.9,1.4*3D,1
1778781057493796464,$GPRMC,175309.000,A,1205.8269,S,07701.3686,W,16.74,100.60,140526,,,A*56,1
1778781058196900370,$GPGGA,175310.000,1205.8273,S,07701.3635,W,1,07,1.0,152.9,M,8.4,M,,0000*6D,1
1778781058318335778,$GPGSA,M,3,20,05,19,21,17,24,14,,,,,,2.1,1.0,1.8*3C,1
1778781058485631130,$GPRMC,175310.000,A,1205.8273,S,07701.3635,W,17.15,100.00,140526,,,A*5D,1
1778781059193507611,$GPGGA,175311.000,1205.8282,S,07701.3586,W,1,06,1.6,152.6,M,8.4,M,,0000*61,1
1778781059310369111,$GPGSA,M,3,20,05,19,21,17,14,,,,,,,2.5,1.6,1.9*39,1
1778781059475372277,$GPRMC,175311.000,A,1205.8282,S,07701.3586,W,16.76,99.36,140526,,,A*69,1
1778781060196173036,$GPGGA,175312.000,1205.8289,S,07701.3541,W,1,06,1.6,152.5,M,8.4,M,,0000*61,1
1778781060313040925,$GPGSA,M,3,20,05,19,21,17,14,,,,,,,2.5,1.6,1.9*39,1
1778781060478036351,$GPRMC,175312.000,A,1205.8289,S,07701.3541,W,15.71,98.53,140526,,,A*6C,1
1778781061198420665,$GPGGA,175313.000,1205.8296,S,07701.3497,W,1,06,1.6,152.9,M,8.4,M,,0000*68,1
1778781061315281369,$GPGSA,M,3,20,05,19,21,17,14,,,,,,,2.5,1.6,1.9*39,1
1778781061475692591,$GPGSV,3,1,12,20,68,166,37,05,43,320,42,19,41,083,43,21,31,356,30*77,1
1778781061636107128,$GPGSV,3,2,12,17,27,114,33,14,09,143,24,06,01,047,15,24,22,223,24*73,1
1778781061787355035,$GPGSV,3,3,12,30,07,106,17,44,42,284,46,13,60,130,,26,48,097,*75,1
1778781061954635276,$GPRMC,175313.000,A,1205.8296,S,07701.3497,W,15.36,100.00,140526,,,A*5C,1
1778781062200670868,$GPGGA,175314.000,1205.8303,S,07701.3455,W,1,07,1.4,153.6,M,8.4,M,,0000*61,1
1778781062322112072,$GPGSA,M,3,20,05,19,21,17,14,11,,,,,,2.1,1.4,1.6*30,1
1778781062487112979,$GPRMC,175314.000,A,1205.8303,S,07701.3455,W,15.22,97.50,140526,,,A*67,1
1778781063202487645,$GPGGA,175315.000,1205.8308,S,07701.3411,W,1,08,0.9,154.8,M,8.4,M,,0000*61,1
1778781063328519516,$GPGSA,M,3,20,05,19,21,17,24,14,11,,,,,1.7,0.9,1.4*3D,1
1778781063493532219,$GPRMC,175315.000,A,1205.8308,S,07701.3411,W,14.70,96.99,140526,,,A*6F,1
1778781064196412793,$GPGGA,175316.000,1205.8315,S,07701.3369,W,1,06,1.6,155.2,M,8.4,M,,0000*6D,1
1778781064313283959,$GPGSA,M,3,20,05,19,21,17,14,,,,,,,2.5,1.6,1.9*39,1
1778781064478276219,$GPRMC,175316.000,A,1205.8315,S,07701.3369,W,14.47,99.00,140526,,,A*63,1
1778781065201353996,$GPGGA,175317.000,1205.8321,S,07701.3330,W,1,08,0.9,155.8,M,8.4,M,,0000*6D,1
1778781065327397551,$GPGSA,M,3,20,05,19,21,17,24,14,11,,,,,1.7,0.9,1.4*3D,1
1778781065492389051,$GPRMC,175317.000,A,1205.8321,S,07701.3330,W,13.75,97.86,140526,,,A*6F,1
1778781066196737921,$GPGGA,175318.000,1205.8328,S,07701.3294,W,1,08,0.9,156.3,M,8.4,M,,0000*6C,1
1778781066322770532,$GPGSA,M,3,20,05,19,21,17,24,14,11,,,,,1.7,0.9,1.4*3D,1
1778781066483177977,$GPGSV,3,1,12,20,68,166,29,05,43,320,41,19,41,083,44,21,31,356,31*7D,1
1778781066643589365,$GPGSV,3,2,12,17,27,114,26,24,22,223,31,14,09,143,32,11,08,011,13*7E,1
1778781066799415699,$GPGSV,3,3,12,06,01,047,14,30,07,106,15,44,42,284,45,13,60,130,*73,1
1778781066964403384,$GPRMC,175318.000,A,1205.8328,S,07701.3294,W,12.90,96.09,140526,,,A*6A,1
1778781067201066217,$GPGGA,175319.000,1205.8331,S,07701.3259,W,1,08,0.9,156.3,M,8.4,M,,0000*64,1
1778781067327093106,$GPGSA,M,3,20,05,19,21,17,24,14,11,,,,,1.7,0.9,1.4*3D,1
1778781067492088846,$GPRMC,175319.000,A,1205.8331,S,07701.3259,W,12.11,95.29,140526,,,A*6A,1
1778781068202267902,$GPGGA,175320.000,1205.8337,S,07701.3228,W,1,08,0.9,156.0,M,8.4,M,,0000*6D,1
1778781068328315624,$GPGSA,M,3,20,05,19,21,17,24,14,11,,,,,1.7,0.9,1.4*3D,1
1778781068493297179,$GPRMC,175320.000,A,1205.8337,S,07701.3228,W,10.79,99.29,140526,,,A*60,1
1778781069198377105,$GPGGA,175321.000,1205.8344,S,07701.3201,W,1,07,1.0,156.2,M,8.4,M,,0000*66,1
1778781069319715308,$GPGSA,M,3,20,05,19,21,17,24,14,,,,,,2.1,1.0,1.8*3C,1
1778781069484822827,$GPRMC,175321.000,A,1205.8344,S,07701.3201,W,9.69,101.71,140526,,,A*6A,1
1778781070197812586,$GPGGA,175322.000,1205.8348,S,07701.3177,W,1,07,1.0,156.7,M,8.4,M,,0000*6E,1
1778781070319254234,$GPGSA,M,3,20,05,19,21,17,24,14,,,,,,2.1,1.0,1.8*3C,1
1778781070484262437,$GPRMC,175322.000,A,1205.8348,S,07701.3177,W,8.09,102.34,140526,,,A*62,1
1778781071205672159,$GPGGA,175323.000,1205.8350,S,07701.3159,W,1,07,1.0,157.3,M,8.4,M,,0000*6F,1
1778781071327141326,$GPGSA,M,3,20,05,19,21,17,24,14,,,,,,2.1,1.0,1.8*3C,1
1778781071487552585,$GPGSV,3,1,12,20,68,166,44,05,43,320,43,19,41,083,44,21,31,356,28*7C,1
1778781071647943214,$GPGSV,3,2,12,17,27,114,29,24,22,223,20,14,09,143,23,06,01,047,09*76,1
1778781071803768492,$GPGSV,3,3,12,11,08,011,25,30,07,106,06,44,42,284,44,13,60,130,*7E,1
1778781071968763825,$GPRMC,175323.000,A,1205.8350,S,07701.3159,W,5.66,100.86,140526,,,A*69,1
1778781072192300510,$GPGGA,175324.000,1205.8351,S,07701.3147,W,1,07,1.0,157.9,M,8.4,M,,0000*6C,1
1778781072313794918,$GPGSA,M,3,20,05,19,21,17,24,14,,,,,,2.1,1.0,1.8*3C,1
1778781072476449362,$GPRMC,175324.000,A,1205.8351,S,07701.3147,W,3.92,99.76,140526,,,A*53,1
1778781073197926825,$GPGGA,175325.000,1205.8352,S,07701.3137,W,1,06,1.1,158.1,M,8.4,M,,0000*6E,1
1778781073314745991,$GPGSA,M,3,20,05,19,21,24,14,,,,,,,2.1,1.1,1.8*3B,1
1778781073477444565,$GPRMC,175325.000,A,1205.8352,S,07701.3137,W,3.46,98.10,140526,,,A*5E,1
1778781074198673102,$GPGGA,175326.000,1205.8354,S,07701.3126,W,1,05,1.4,158.4,M,8.4,M,,0000*68,1
1778781074310960935,$GPGSA,M,3,20,05,19,24,14,,,,,,,,2.5,1.4,2.0*32,1
1778781074475952546,$GPRMC,175326.000,A,1205.8354,S,07701.3126,W,4.09,102.97,140526,,,A*6A,1
1778781075196541342,$GPGGA,175327.000,1205.8357,S,07701.3113,W,1,05,1.4,158.6,M,8.4,M,,0000*6E,1
1778781075308822786,$GPGSA,M,3,20,05,19,24,14,,,,,,,,2.5,1.4,2.0*32,1
1778781075473819508,$GPRMC,175327.000,A,1205.8357,S,07701.3113,W,5.17,107.39,140526,,,A*61,1
1778781076198580656,$GPGGA,175328.000,1205.8360,S,07701.3097,W,1,07,1.0,159.0,M,8.4,M,,0000*69,1
1778781076320023026,$GPGSA,M,3,20,05,19,21,17,24,14,,,,,,2.1,1.0,1.8*3C,1
1778781076480434545,$GPGSV,3,1,12,20,68,166,37,05,43,320,44,19,41,083,40,21,31,356,25*76,1
1778781076640850434,$GPGSV,3,2,12,17,27,114,26,24,22,223,22,14,09,143,21,06,01,047,21*73,1
1778781076792093174,$GPGSV,3,3,12,30,07,106,09,44,42,284,39,13,60,130,,26,48,097,*72,1
1778781076957077415,$GPRMC,175328.000,A,1205.8360,S,07701.3097,W,6.43,106.68,140526,,,A*60,1
1778781077198318470,$GPGGA,175329.000,1205.8359,S,07701.3073,W,1,07,1.0,159.7,M,8.4,M,,0000*6F,1
1778781077319783267,$GPGSA,M,3,20,05,19,21,17,24,14,,,,,,2.1,1.0,1.8*3C,1
1778781077482474915,$GPRMC,175329.000,A,1205.8359,S,07701.3073,W,8.34,99.26,140526,,,A*52,1
1778781078201684599,$GPGGA,175330.000,1205.8360,S,07701.3045,W,1,08,0.9,160.5,M,8.4,M,,0000*67,1
1778781078327699599,$GPGSA,M,3,20,05,19,21,17,24,14,11,,,,,1.7,0.9,1.4*3D,1
1778781078490360432,$GPRMC,175330.000,A,1205.8360,S,07701.3045,W,9.06,99.78,140526,,,A*5E,1
1778781079202206228,$GPGGA,175331.000,1205.8367,S,07701.3019,W,1,08,0.9,160.9,M,8.4,M,,0000*64,1
1778781079328231210,$GPGSA,M,3,20,05,19,21,17,24,14,11,,,,,1.7,0.9,1.4*3D,1
1778781079490926599,$GPRMC,175331.000,A,1205.8367,S,07701.3019,W,9.39,99.31,140526,,,A*50,1
1778781080195682117,$GPGGA,175332.000,1205.8372,S,07701.2993,W,1,08,0.9,161.2,M,8.4,M,,0000*63,1
1778781080321716802,$GPGSA,M,3,20,05,19,21,17,24,14,11,,,,,1.7,0.9,1.4*3D,1
1778781080484431709,$GPRMC,175332.000,A,1205.8372,S,07701.2993,W,9.50,99.32,140526,,,A*51,1
1778781081199402116,$GPGGA,175333.000,1205.8376,S,07701.2965,W,1,08,0.9,161.6,M,8.4,M,,0000*6B,1
1778781081325429672,$GPGSA,M,3,20,05,19,21,17,24,14,11,,,,,1.7,0.9,1.4*3D,1
1778781081485849190,$GPGSV,3,1,12,20,68,166,22,05,43,320,44,19,41,083,41,21,31,356,41*71,1
1778781081646241412,$GPGSV,3,2,12,17,27,114,23,24,22,223,28,14,09,143,20,11,08,011,26*76,1
1778781081792916708,$GPGSV,3,3,12,44,42,284,41,13,60,130,,26,48,097,,28,33,154,*7D,1
1778781081955623282,$GPRMC,175333.000,A,1205.8376,S,07701.2965,W,9.64,99.74,140526,,,A*58,1
1778781082204973967,$GPGGA,175334.000,1205.8379,S,07701.2936,W,1,08,0.9,162.0,M,8.4,M,,0000*60,1
1778781082331002838,$GPGSA,M,3,20,05,19,21,17,24,14,11,,,,,1.7,0.9,1.4*3D,1
1778781082496005634,$GPRMC,175334.000,A,1205.8379,S,07701.2936,W,10.01,99.98,140526,,,A*6F,1
1778781083195133115,$GPGGA,175335.000,1205.8379,S,07701.2905,W,1,08,0.9,163.5,M,8.4,M,,0000*65,1
1778781083321166374,$GPGSA,M,3,20,05,19,21,17,24,14,11,,,,,1.7,0.9,1.4*3D,1
1778781083488485004,$GPRMC,175335.000,A,1205.8379,S,07701.2905,W,10.24,101.20,140526,,,A*5A,1
1778781084198008818,$GPGGA,175336.000,1205.8377,S,07701.2872,W,1,09,0.9,165.6,M,8.4,M,,0000*6D,1
1778781084328619892,$GPGSA,M,3,20,05,19,21,17,24,14,11,30,,,,1.6,0.9,1.3*38,1
1778781084493633818,$GPRMC,175336.000,A,1205.8377,S,07701.2872,W,10.80,97.00,140526,,,A*64,1
1778781085198184188,$GPGGA,175337.000,1205.8375,S,07701.2840,W,1,09,0.9,167.1,M,8.4,M,,0000*6A,1
1778781085328794317,$GPGSA,M,3,20,05,19,21,17,24,14,11,30,,,,1.6,0.9,1.3*38,1
1778781085491489576,$GPRMC,175337.000,A,1205.8375,S,07701.2840,W,9.86,94.97,140526,,,A*55,1
1778781086202709280,$GPGGA,175338.000,1205.8382,S,07701.2815,W,1,09,0.9,168.3,M,8.4,M,,0000*60,1
1778781086333329391,$GPGSA,M,3,20,05,19,21,17,24,14,11,30,,,,1.6,0.9,1.3*38,1
1778781086493743224,$GPGSV,3,1,12,20,68,166,22,05,43,320,42,19,41,083,46,21,31,356,37*71,1
1778781086654147242,$GPGSV,3,2,12,17,27,114,21,24,22,223,20,14,09,143,24,11,08,011,30*7F,1
1778781086809980242,$GPGSV,3,3,12,30,07,106,19,06,01,047,13,44,42,284,44,13,60,130,*79,1
1778781086972675187,$GPRMC,175338.000,A,1205.8382,S,07701.2815,W,8.93,97.20,140526,,,A*58,1
1778781087204124742,$GPGGA,175339.000,1205.8387,S,07701.2792,W,1,09,0.9,169.2,M,8.4,M,,0000*64,1
1778781087334783186,$GPGSA,M,3,20,05,19,21,17,24,14,11,30,,,,1.6,0.9,1.3*38,1
1778781087497444483,$GPRMC,175339.000,A,1205.8387,S,07701.2792,W,8.17,98.25,140526,,,A*5A,1
1778781088202424593,$GPGGA,175340.000,1205.8391,S,07701.2773,W,1,09,0.9,169.7,M,8.4,M,,0000*67,1
1778781088333028519,$GPGSA,M,3,20,05,19,21,17,24,14,11,30,,,,1.6,0.9,1.3*38,1
1778781088495732649,$GPRMC,175340.000,A,1205.8391,S,07701.2773,W,4.81,97.87,140526,,,A*58,1
1778781089202588259,$GPGGA,175341.000,1205.8393,S,07701.2765,W,1,09,0.9,169.9,M,8.4,M,,0000*6D,1
1778781089333195148,$GPGSA,M,3,20,05,19,21,17,24,14,11,30,,,,1.6,0.9,1.3*38,1
1778781089495910537,$GPRMC,175341.000,A,1205.8393,S,07701.2765,W,1.62,97.25,140526,,,A*5C,1
1778781090202746666,$GPGGA,175342.000,1205.8394,S,07701.2765,W,1,09,0.9,170.1,M,8.4,M,,0000*69,1
1778781090333352592,$GPGSA,M,3,20,05,19,21,17,24,14,11,30,,,,1.6,0.9,1.3*38,1
1778781090496072962,$GPRMC,175342.000,A,1205.8394,S,07701.2765,W,0.10,97.25,140526,,,A*5C,1
1778781091199644203,$GPGGA,175343.000,1205.8395,S,07701.2765,W,1,09,0.9,169.8,M,8.4,M,,0000*68,1
1778781091330181721,$GPGSA,M,3,20,05,19,21,17,24,14,11,30,,,,1.6,0.9,1.3*38,1
1778781091490594054,$GPGSV,3,1,12,20,68,166,44,05,43,320,39,19,41,083,47,21,31,356,37*7C,1
1778781091651009276,$GPGSV,3,2,12,17,27,114,21,24,22,223,20,14,09,143,24,11,08,011,30*7F,1
1778781091802254350,$GPGSV,3,3,12,30,07,106,18,44,42,284,44,13,60,130,,26,48,097,*78,1
1778781091964956813,$GPRMC,175343.000,A,1205.8395,S,07701.2765,W,0.00,97.25,140526,,,A*5D,1
1778781092195789109,$GPGGA,175344.000,1205.8397,S,07701.2769,W,1,08,0.9,170.1,M,8.4,M,,0000*61,1
1778781092321861128,$GPGSA,M,3,20,05,19,21,24,14,11,30,,,,,1.6,0.9,1.4*39,1
1778781092484516461,$GPRMC,175344.000,A,1205.8397,S,07701.2769,W,0.12,97.25,140526,,,A*57,1
1778781093200115072,$GPGGA,175345.000,1205.8397,S,07701.2769,W,1,08,0.9,170.1,M,8.4,M,,0000*60,1
1778781093326143664,$GPGSA,M,3,20,05,19,21,24,14,11,30,,,,,1.6,0.9,1.4*39,1
1778781093488849942,$GPRMC,175345.000,A,1205.8397,S,07701.2769,W,0.01,97.25,140526,,,A*54,1
1778781094201098053,$GPGGA,175346.000,1205.8397,S,07701.2769,W,1,08,0.9,170.1,M,8.4,M,,0000*63,1
1778781094327133367,$GPGSA,M,3,20,05,19,21,24,14,11,30,,,,,1.6,0.9,1.4*39,1
1778781094489855404,$GPRMC,175346.000,A,1205.8397,S,07701.2769,W,0.00,97.25,140526,,,A*56,1
1778781095203359534,$GPGGA,175347.000,1205.8397,S,07701.2769,W,1,08,0.9,170.1,M,8.4,M,,0000*62,1
1778781095329384534,$GPGSA,M,3,20,05,19,21,24,14,11,30,,,,,1.6,0.9,1.4*39,1
1778781095492088219,$GPRMC,175347.000,A,1205.8397,S,07701.2769,W,0.00,97.25,140526,,,A*57,1
1778781096192688070,$GPGGA,175348.000,1205.8397,S,07701.2769,W,1,07,1.5,170.1,M,8.4,M,,0000*6F,1
1778781096314130533,$GPGSA,M,3,20,05,19,21,14,11,30,,,,,,2.1,1.5,1.5*37,1
1778781096474547607,$GPGSV,3,1,12,20,68,166,44,05,43,320,40,19,41,083,45,21,31,356,37*70,1
1778781096634953866,$GPGSV,3,2,12,14,09,143,25,11,08,011,30,30,07,106,20,44,42,284,44*74,1
1778781096777031107,$GPGSV,3,3,12,13,60,130,,26,48,097,,28,33,154,,17,27,114,*77,1
1778781096939741903,$GPRMC,175348.000,A,1205.8397,S,07701.2769,W,0.00,97.25,140526,,,A*58,1
1778781097201799236,$GPGGA,175349.000,1205.8397,S,07701.2769,W,1,08,1.4,170.2,M,8.4,M,,0000*63,1
1778781097327835958,$GPGSA,M,3,20,05,19,21,17,14,11,30,,,,,2.1,1.4,1.5*30,1
1778781097490599847,$GPRMC,175349.000,A,1205.8397,S,07701.2769,W,0.00,97.25,140526,,,A*59,1
1778781098205319161,$GPGGA,175350.000,1205.8397,S,07701.2774,W,1,08,1.4,170.8,M,8.4,M,,0000*6D,1
1778781098331325532,$GPGSA,M,3,20,05,19,21,17,14,11,30,,,,,2.1,1.4,1.5*30,1
1778781098494040328,$GPRMC,175350.000,A,1205.8397,S,07701.2774,W,0.11,97.25,140526,,,A*5D,1
1778781099202358902,$GPGGA,175351.000,1205.8397,S,07701.2776,W,1,08,0.9,171.5,M,8.4,M,,0000*6E,1
1778781099328364327,$GPGSA,M,3,20,05,19,21,24,14,11,30,,,,,1.6,0.9,1.4*39,1
1778781099493360142,$GPRMC,175351.000,A,1205.8397,S,07701.2776,W,1.47,100.37,140526,,,A*60,1
1778781100202304457,$GPGGA,175352.000,1205.8397,S,07701.2773,W,1,09,0.9,171.9,M,8.4,M,,0000*65,1
1778781100332914845,$GPGSA,M,3,20,05,19,21,17,24,14,11,30,,,,1.6,0.9,1.3*38,1
1778781100497921790,$GPRMC,175352.000,A,1205.8397,S,07701.2773,W,2.24,103.62,140526,,,A*63,1
1778781101205593252,$GPGGA,175353.000,1205.8398,S,07701.2771,W,1,07,1.5,172.0,M,8.4,M,,0000*60,1
1778781101327032548,$GPGSA,M,3,20,05,19,21,14,11,30,,,,,,2.1,1.5,1.5*37,1
1778781101487445604,$GPGSV,3,1,12,20,68,166,44,05,43,320,41,19,41,083,30,21,31,356,38*7C,1
1778781101647847030,$GPGSV,3,2,12,14,09,143,25,11,08,011,29,30,07,106,20,06,01,047,17*76,1
1778781101799115937,$GPGSV,3,3,12,24,22,223,21,44,42,284,44,13,60,130,,26,48,097,*74,1
1778781101964088974,$GPRMC,175353.000,A,1205.8398,S,07701.2771,W,2.08,102.61,140526,,,A*63,1
1778781102199925344,$GPGGA,175354.000,1205.8398,S,07701.2768,W,1,08,0.9,172.3,M,8.4,M,,0000*6E,1
1778781102325944974,$GPGSA,M,3,20,05,19,21,24,14,11,30,,,,,1.6,0.9,1.4*39,1
1778781102490937751,$GPRMC,175354.000,A,1205.8398,S,07701.2768,W,2.69,100.88,140526,,,A*6E,1
1778781103199654973,$GPGGA,175355.000,1205.8400,S,07701.2764,W,1,08,0.9,173.0,M,8.4,M,,0000*67,1
1778781103325704270,$GPGSA,M,3,20,05,19,21,24,14,11,30,,,,,1.6,0.9,1.4*39,1
1778781103490686621,$GPRMC,175355.000,A,1205.8400,S,07701.2764,W,4.06,101.28,140526,,,A*61,1
