Unix_time,GPS_data,flagStop
1778779942182361906,$GPGGA,173434.000,1205.9938,S,07701.4549,W,1,08,0.9,150.3,M,8.4,M,,0000*6F,0
1778779974722367961,$GPGSA,M,3,05,19,21,17,24,14,30,11,,,,,2.0,0.9,1.8*34,0
1778779974722471627,$GPRMC,173434.000,A,1205.9938,S,07701.4549,W,0.01,290.22,140526,,,A*69,0
1778779974722606720,$GPGGA,173435.000,1205.9938,S,07701.4549,W,1,08,0.9,150.3,M,8.4,M,,0000*6E,0
1778779974722749183,$GPGSA,M,3,05,19,21,17,24,14,30,11,,,,,2.0,0.9,1.8*34,0
1778779974722852276,$GPRMC,173435.000,A,1205.9938,S,07701.4549,W,0.00,290.22,140526,,,A*69,0
1778779974722986887,$GPGGA,173436.000,1205.9938,S,07701.4549,W,1,08,0.9,150.3,M,8.4,M,,0000*6D,0
1778779974723128831,$GPGSA,M,3,05,19,21,17,24,14,30,11,,,,,2.0,0.9,1.8*34,0
1778779974723231498,$GPRMC,173436.000,A,1205.9938,S,07701.4549,W,0.00,290.22,140526,,,A*6A,0
1778779974723366961,$GPGGA,173437.000,1205.9938,S,07701.4549,W,1,08,0.9,150.3,M,8.4,M,,0000*6C,0
1778779974723509257,$GPGSA,M,3,05,19,21,17,24,14,30,11,,,,,2.0,0.9,1.8*34,0
1778779974723612961,$GPRMC,173437.000,A,1205.9938,S,07701.4549,W,0.00,290.22,140526,,,A*6B,0
1778779974723747405,$GPGGA,173438.000,1205.9938,S,07701.4549,W,1,08,0.9,150.3,M,8.4,M,,0000*63,0
1778779974723889516,$GPGSA,M,3,05,19,21,17,24,14,30,11,,,,,2.0,0.9,1.8*34,0
1778779974723992627,$GPGSV,3,1,12,05,49,309,46,19,40,071,46,21,39,352,40,17,29,104,45*70,0
1778779974724123609,$GPGSV,3,2,12,24,20,230,36,14,15,145,34,30,09,114,25,11,08,004,22*78,0
1778779974724254590,$GPGSV,3,3,12,13,56,146,45,48,33,280,34,26,48,112,,28,42,155,*7F,0
1778779974724378479,$GPRMC,173438.000,A,1205.9938,S,07701.4549,W,0.00,290.22,140526,,,A*64,0
1778779974724513331,$GPGGA,173439.000,1205.9938,S,07701.4549,W,1,07,1.5,150.3,M,8.4,M,,0000*60,0
1778779974725270424,$GPGSA,M,3,05,19,21,17,24,14,30,,,,,,4.0,1.5,3.7*32,0
1778779974725786720,$GPRMC,173439.000,A,1205.9938,S,07701.4549,W,0.00,290.22,140526,,,A*65,0
1778779974726486701,$GPGGA,173440.000,1205.9938,S,07701.4549,W,1,08,0.9,150.3,M,8.4,M,,0000*6C,0
1778779974727225998,$GPGSA,M,3,05,19,21,17,24,14,30,11,,,,,2.0,0.9,1.8*34,0
1778779974727759035,$GPRMC,173440.000,A,1205.9938,S,07701.4549,W,0.00,290.22,140526,,,A*6B,0
1778779974728458757,$GPGGA,173441.000,1205.9938,S,07701.4549,W,1,08,0.9,150.3,M,8.4,M,,0000*6D,0
1778779974729206776,$GPGSA,M,3,05,19,21,17,24,14,30,11,,,,,2.0,0.9,1.8*34,0
1778779974729739053,$GPRMC,173441.000,A,1205.9938,S,07701.4549,W,0.00,290.22,140526,,,A*6A,0
1778779974730437127,$GPGGA,173442.000,1205.9938,S,07701.4549,W,1,07,1.5,150.3,M,8.4,M,,0000*6C,0
1778779974731173164,$GPGSA,M,3,05,19,21,17,24,14,30,,,,,,4.0,1.5,3.7*32,0
1778779974731685905,$GPRMC,173442.000,A,1205.9938,S,07701.4549,W,0.00,290.22,140526,,,A*69,0
1778779974732382850,$GPGGA,173443.000,1205.9938,S,07701.4549,W,1,07,1.5,150.3,M,8.4,M,,0000*6D,0
1778779974733125887,$GPGSA,M,3,05,19,21,17,24,14,30,,,,,,4.0,1.5,3.7*32,0
1778779974733638201,$GPGSV,3,1,12,05,49,309,46,19,40,071,46,21,39,352,40,17,29,104,45*70,0
1778779974734308498,$GPGSV,3,2,12,24,20,230,36,14,15,145,34,30,09,114,24,13,56,146,45*76,0
1778779974734969016,$GPGSV,3,3,12,48,33,280,35,26,48,112,,28,42,155,,23,24,057,*78,0
1778779974735573683,$GPRMC,173443.000,A,1205.9938,S,07701.4549,W,0.00,290.22,140526,,,A*68,0
1778779974736254276,$GPGGA,173444.000,1205.9938,S,07701.4549,W,1,07,1.5,150.3,M,8.4,M,,0000*6A,0
1778779974736980998,$GPGSA,M,3,05,19,21,17,24,14,30,,,,,,4.0,1.5,3.7*32,0
1778779974737481442,$GPRMC,173444.000,A,1205.9938,S,07701.4549,W,0.00,290.22,140526,,,A*6F,0
1778779974738159405,$GPGGA,173445.000,1205.9938,S,07701.4549,W,1,07,1.5,150.3,M,8.4,M,,0000*6B,0
1778779974738877387,$GPGSA,M,3,05,19,21,17,24,14,30,,,,,,4.0,1.5,3.7*32,0
1778779974739377739,$GPRMC,173445.000,A,1205.9938,S,07701.4549,W,0.00,290.22,140526,,,A*6E,0
1778779974740055294,$GPGGA,173446.000,1205.9938,S,07701.4549,W,1,07,1.5,150.3,M,8.4,M,,0000*68,0
1778779974740782424,$GPGSA,M,3,05,19,21,17,24,14,30,,,,,,4.0,1.5,3.7*32,0
1778779974741280183,$GPRMC,173446.000,A,1205.9938,S,07701.4549,W,0.00,290.22,140526,,,A*6D,0
1778779974741957590,$GPGGA,173447.000,1205.9938,S,07701.4549,W,1,07,1.5,150.3,M,8.4,M,,0000*69,0
1778779974742797313,$GPGSA,M,3,05,19,21,17,24,14,30,,,,,,4.0,1.5,3.7*32,0
1778779974743296072,$GPRMC,173447.000,A,1205.9938,S,07701.4549,W,0.00,290.22,140526,,,A*6C,0
1778779974743970794,$GPGGA,173448.000,1205.9938,S,07701.4549,W,1,07,1.5,150.3,M,8.4,M,,0000*66,0
1778779974744669313,$GPGSA,M,3,05,19,21,17,24,14,30,,,,,,4.0,1.5,3.7*32,0
1778779974744769313,$GPGSV,3,1,12,05,49,309,46,19,40,071,46,21,39,352,40,17,29,104,45*70,0
1778779974744900905,$GPGSV,3,2,12,24,20,230,36,14,15,145,34,30,09,114,24,11,08,004,04*7D,0
1778779974745031627,$GPGSV,3,3,12,13,56,146,45,48,33,280,35,26,48,112,,28,42,155,*7E,0
1778779974745155072,$GPRMC,173448.000,A,1205.9938,S,07701.4549,W,0.00,290.22,140526,,,A*63,0
1778779974745289442,$GPGGA,173449.000,1205.9938,S,07701.4549,W,1,07,1.5,150.3,M,8.4,M,,0000*67,0
1778779974745432090,$GPGSA,M,3,05,19,21,17,24,14,30,,,,,,4.0,1.5,3.7*32,0
1778779974745531720,$GPRMC,173449.000,A,1205.9938,S,07701.4549,W,0.00,290.22,140526,,,A*62,0
1778779974745666350,$GPGGA,173450.000,1205.9938,S,07701.4549,W,1,07,1.5,150.3,M,8.4,M,,0000*6F,0
1778779974745809109,$GPGSA,M,3,05,19,21,17,24,14,30,,,,,,4.0,1.5,3.7*32,0
1778779974745908590,$GPRMC,173450.000,A,1205.9938,S,07701.4549,W,0.00,290.22,140526,,,A*6A,0
1778779974746043146,$GPGGA,173451.000,1205.9938,S,07701.4549,W,1,07,1.5,150.3,M,8.4,M,,0000*6E,0
1778779974746185609,$GPGSA,M,3,05,19,21,17,24,14,30,,,,,,4.0,1.5,3.7*32,0
1778779974746285368,$GPRMC,173451.000,A,1205.9938,S,07701.4549,W,0.00,290.22,140526,,,A*6B,0
1778779974746420276,$GPGGA,173452.000,1205.9938,S,07701.4549,W,1,07,1.5,150.3,M,8.4,M,,0000*6D,0
1778779974746562831,$GPGSA,M,3,05,19,21,17,24,14,30,,,,,,4.0,1.5,3.7*32,0
1778779974746662683,$GPRMC,173452.000,A,1205.9938,S,07701.4549,W,0.00,290.22,140526,,,A*68,0
1778779974746797442,$GPGGA,173453.000,1205.9938,S,07701.4549,W,1,07,1.5,150.3,M,8.4,M,,0000*6C,0
1778779974746939331,$GPGSA,M,3,05,19,21,17,24,14,30,,,,,,4.0,1.5,3.7*32,0
1778779974747038887,$GPGSV,3,1,12,05,49,309,46,19,40,071,46,21,39,352,40,17,29,104,45*70,0
1778779974747170090,$GPGSV,3,2,12,24,20,230,36,14,15,145,33,30,09,114,24,13,56,146,45*71,0
1778779974747301516,$GPGSV,3,3,12,48,33,280,35,26,48,112,,28,42,155,,23,24,057,*78,0
1778779974747421572,$GPRMC,173453.000,A,1205.9938,S,07701.4549,W,0.00,290.22,140526,,,A*69,0
1778779974747556646,$GPGGA,173454.000,1205.9938,S,07701.4549,W,1,07,1.5,150.3,M,8.4,M,,0000*6B,0
1778779974747699146,$GPGSA,M,3,05,19,21,17,24,14,30,,,,,,4.0,1.5,3.7*32,0
1778779974747798831,$GPRMC,173454.000,A,1205.9938,S,07701.4549,W,0.00,290.22,140526,,,A*6E,0
1778779974747933850,$GPGGA,173455.000,1205.9938,S,07701.4549,W,1,07,1.5,150.3,M,8.4,M,,0000*6A,0
1778779974748076442,$GPGSA,M,3,05,19,21,17,24,14,30,,,,,,4.0,1.5,3.7*32,0
1778779974748176072,$GPRMC,173455.000,A,1205.9938,S,07701.4549,W,0.00,290.22,140526,,,A*6F,0
1778779974748311164,$GPGGA,173456.000,1205.9938,S,07701.4549,W,1,07,1.5,150.3,M,8.4,M,,0000*69,0
1778779974748453461,$GPGSA,M,3,05,19,21,17,24,14,30,,,,,,4.0,1.5,3.7*32,0
1778779974748553405,$GPRMC,173456.000,A,1205.9938,S,07701.4549,W,0.00,290.22,140526,,,A*6C,0
1778779974748878924,$GPGGA,173457.000,1205.9938,S,07701.4549,W,1,07,1.5,150.3,M,8.4,M,,0000*68,0
1778779974749021072,$GPGSA,M,3,05,19,21,17,24,14,30,,,,,,4.0,1.5,3.7*32,0
1778779974749120461,$GPRMC,173457.000,A,1205.9938,S,07701.4549,W,0.00,290.22,140526,,,A*6D,0
1778779974749254813,$GPGGA,173458.000,1205.9938,S,07701.4549,W,1,07,1.5,150.3,M,8.4,M,,0000*67,0
1778779974749396627,$GPGSA,M,3,05,19,21,17,24,14,30,,,,,,4.0,1.5,3.7*32,0
1778779974749495701,$GPGSV,3,1,12,05,49,309,46,19,40,071,46,21,39,352,39,17,29,104,45*7E,0
1778779974749626146,$GPGSV,3,2,12,24,20,230,37,14,15,145,32,30,09,114,24,11,08,004,13*7C,0
1778779974749756739,$GPGSV,3,3,12,13,56,146,45,48,33,280,36,26,48,112,,28,42,155,*7D,0
1778779974749879813,$GPRMC,173458.000,A,1205.9938,S,07701.4549,W,0.00,290.22,140526,,,A*62,0
1778779974750013868,$GPGGA,173459.000,1205.9938,S,07701.4549,W,1,07,1.5,150.3,M,8.4,M,,0000*66,0
1778779974750155442,$GPGSA,M,3,05,19,21,17,24,14,30,,,,,,4.0,1.5,3.7*32,0
1778779974750254479,$GPRMC,173459.000,A,1205.9938,S,07701.4549,W,0.00,290.22,140526,,,A*63,0
1778779974750405535,$GPGGA,173500.000,1205.9938,S,07701.4549,W,1,07,1.5,150.3,M,8.4,M,,0000*6B,0
1778779974750547664,$GPGSA,M,3,05,19,21,17,24,14,30,,,,,,4.0,1.5,3.7*32,0
1778779974750646590,$GPRMC,173500.000,A,1205.9938,S,07701.4549,W,0.00,290.22,140526,,,A*6E,0
1778779974750780590,$GPGGA,173501.000,1205.9939,S,07701.4549,W,1,07,1.5,150.3,M,8.4,M,,0000*6B,0
1778779974750922072,$GPGSA,M,3,05,19,21,17,24,14,30,,,,,,4.0,1.5,3.7*32,0
1778779974751020905,$GPRMC,173501.000,A,1205.9939,S,07701.4549,W,0.00,290.22,140526,,,A*6E,0
1778779974751154905,$GPGGA,173502.000,1205.9939,S,07701.4549,W,1,06,1.6,150.3,M,8.4,M,,0000*6A,0
1778779974751296461,$GPGSA,M,3,05,19,21,17,24,30,,,,,,,4.0,1.6,3.7*34,0
1778779974751391479,$GPRMC,173502.000,A,1205.9939,S,07701.4549,W,0.00,290.22,140526,,,A*6D,0
1778779974751525220,$GPGGA,173503.000,1205.9939,S,07701.4549,W,1,07,1.5,150.3,M,8.4,M,,0000*69,0
1778779974751667072,$GPGSA,M,3,05,19,21,17,24,14,30,,,,,,4.0,1.5,3.7*32,0
1778779974751765776,$GPGSV,3,1,12,05,49,309,46,19,40,071,46,21,39,352,39,17,29,104,45*7E,0
1778779974751896238,$GPGSV,3,2,12,24,20,230,37,14,15,145,25,30,09,114,23,11,08,004,15*7B,0
1778779974752026331,$GPGSV,3,3,12,13,56,146,45,48,33,280,35,26,48,112,,28,42,155,*7E,0
1778779974752149553,$GPRMC,173503.000,A,1205.9939,S,07701.4549,W,0.00,290.22,140526,,,A*6C,0
1778779974752283238,$GPGGA,173504.000,1205.9939,S,07701.4549,W,1,06,1.6,150.3,M,8.4,M,,0000*6C,0
1778779974752425035,$GPGSA,M,3,05,19,21,17,24,30,,,,,,,4.0,1.6,3.7*34,0
1778779974752520016,$GPRMC,173504.000,A,1205.9939,S,07701.4549,W,0.00,290.22,140526,,,A*6B,0
1778779974752660887,$GPGGA,173505.000,1205.9939,S,07701.4549,W,1,07,1.5,150.3,M,8.4,M,,0000*6F,0
1778779974752801627,$GPGSA,M,3,05,19,21,17,24,14,30,,,,,,4.0,1.5,3.7*32,0
1778779974752900646,$GPRMC,173505.000,A,1205.9939,S,07701.4549,W,0.00,290.22,140526,,,A*6A,0
1778779974753035053,$GPGGA,173506.000,1205.9939,S,07701.4549,W,1,06,1.6,150.3,M,8.4,M,,0000*6E,0
1778779974753177516,$GPGSA,M,3,05,19,21,17,24,30,,,,,,,4.0,1.6,3.7*34,0
1778779974753274868,$GPRMC,173506.000,A,1205.9939,S,07701.4549,W,0.00,290.22,140526,,,A*69,0
1778779975184860812,$GPGGA,173507.000,1205.9939,S,07701.4549,W,1,06,1.6,150.3,M,8.4,M,,0000*6F,0
1778779975301688960,$GPGSA,M,3,05,19,21,17,24,30,,,,,,,4.0,1.6,3.7*34,0
1778779975466703516,$GPRMC,173507.000,A,1205.9939,S,07701.4549,W,0.00,290.22,140526,,,A*68,0
1778779976180193478,$GPGGA,173508.000,1205.9939,S,07701.4549,W,1,07,1.5,150.3,M,8.4,M,,0000*62,0
1778779976301657923,$GPGSA,M,3,05,19,21,17,24,14,30,,,,,,4.0,1.5,3.7*32,0
1778779976462057478,$GPGSV,3,1,12,05,49,309,46,19,40,071,46,21,39,352,39,17,29,104,45*7E,0
1778779976622437645,$GPGSV,3,2,12,24,20,230,37,14,15,145,28,30,09,114,25,13,56,146,45*7B,0
1778779976769157108,$GPGSV,3,3,12,48,33,280,34,26,48,112,,28,42,155,,23,24,057,*79,0
1778779976934118867,$GPRMC,173508.000,A,1205.9939,S,07701.4549,W,0.00,290.22,140526,,,A*67,0
1778779977179972033,$GPGGA,173509.000,1205.9939,S,07701.4549,W,1,07,1.5,150.3,M,8.4,M,,0000*63,0
1778779977301423218,$GPGSA,M,3,05,19,21,17,24,14,30,,,,,,4.0,1.5,3.7*32,1
1778779977466391292,$GPRMC,173509.000,A,1205.9939,S,07701.4549,W,0.00,290.22,140526,,,A*66,1
1778779978179059292,$GPGGA,173510.000,1205.9939,S,07701.4549,W,1,07,1.5,150.3,M,8.4,M,,0000*6B,1
1778779978300509199,$GPGSA,M,3,05,19,21,17,24,14,30,,,,,,4.0,1.5,3.7*32,1
1778779978465537662,$GPRMC,173510.000,A,1205.9939,S,07701.4549,W,0.00,290.22,140526,,,A*6E,1
1778779979184450328,$GPGGA,173511.000,1205.9939,S,07701.4549,W,1,07,1.5,150.3,M,8.4,M,,0000*6A,1
1778779979305908995,$GPGSA,M,3,05,19,21,17,24,14,30,,,,,,4.0,1.5,3.7*32,1
1778779979470879902,$GPRMC,173511.000,A,1205.9939,S,07701.4549,W,0.00,290.22,140526,,,A*6F,1
1778779980183364476,$GPGGA,173512.000,1205.9939,S,07701.4549,W,1,07,1.5,150.3,M,8.4,M,,0000*69,1
1778779980304811624,$GPGSA,M,3,05,19,21,17,24,14,30,,,,,,4.0,1.5,3.7*32,1
1778779980472654439,$GPRMC,173512.000,A,1205.9939,S,07701.4549,W,0.00,290.22,140526,,,A*6C,1
1778779981181828105,$GPGGA,173513.000,1205.9939,S,07701.4549,W,1,07,1.5,150.3,M,8.4,M,,0000*68,1
1778779981303351105,$GPGSA,M,3,05,19,21,17,24,14,30,,,,,,3.9,1.5,3.7*3C,1
1778779981463688346,$GPGSV,3,1,12,05,49,309,46,19,40,071,46,21,39,352,38,17,29,104,46*7C,1
1778779981624139383,$GPGSV,3,2,12,24,20,230,38,14,15,145,29,30,09,114,26,13,56,146,45*76,1
1778779981770791290,$GPGSV,3,3,12,48,33,280,35,26,48,112,,28,42,155,,23,24,057,*78,1
1778779981935755086,$GPRMC,173513.000,A,1205.9939,S,07701.4549,W,0.00,290.22,140526,,,A*6D,1
1778779982180733956,$GPGGA,173514.000,1205.9939,S,07701.4549,W,1,07,1.5,150.3,M,8.4,M,,0000*6F,1
1778779982302236401,$GPGSA,M,3,05,19,21,17,24,14,30,,,,,,3.9,1.5,3.7*3C,1
1778779982467208826,$GPRMC,173514.000,A,1205.9939,S,07701.4549,W,0.00,290.22,140526,,,A*6A,1
1778779983186375419,$GPGGA,173515.000,1205.9939,S,07701.4549,W,1,07,1.5,150.3,M,8.4,M,,0000*6E,0
1778779983307776215,$GPGSA,M,3,05,19,21,17,24,14,30,,,,,,3.9,1.5,3.7*3C,0
1778779983472808178,$GPRMC,173515.000,A,1205.9939,S,07701.4549,W,0.00,290.22,140526,,,A*6B,0
1778779984180030103,$GPGGA,173516.000,1205.9939,S,07701.4549,W,1,07,1.5,150.3,M,8.4,M,,0000*6D,0
1778779984301479344,$GPGSA,M,3,05,19,21,17,24,14,30,,,,,,3.9,1.5,3.7*3C,0
1778779984466508177,$GPRMC,173516.000,A,1205.9939,S,07701.4549,W,0.00,290.22,140526,,,A*68,0
1778779985180187121,$GPGGA,173517.000,1205.9939,S,07701.4549,W,1,07,1.5,150.2,M,8.4,M,,0000*6D,0
1778779985301697973,$GPGSA,M,3,05,19,21,17,24,14,30,,,,,,3.9,1.5,3.7*3C,0
1778779985466664251,$GPRMC,173517.000,A,1205.9939,S,07701.4549,W,0.00,290.22,140526,,,A*69,0
1778779986184152787,$GPGGA,173518.000,1205.9939,S,07701.4552,W,1,07,1.5,150.0,M,8.4,M,,0000*6A,0
1778779986305598028,$GPGSA,M,3,05,19,21,17,24,14,30,,,,,,3.9,1.5,3.7*3C,0
1778779986465997565,$GPGSV,3,1,12,05,49,309,46,19,40,071,46,21,39,352,37,17,29,104,45*70,0
1778779986626405546,$GPGSV,3,2,12,24,20,230,38,14,15,145,31,30,09,114,27,11,08,004,17*77,0
1778779986777606435,$GPGSV,3,3,12,13,56,146,45,48,33,280,35,26,48,112,,28,42,155,*7E,0
1778779986942623213,$GPRMC,173518.000,A,1205.9939,S,07701.4552,W,1.91,297.37,140526,,,A*66,0
1778779987184729731,$GPGGA,173519.000,1205.9935,S,07701.4562,W,1,08,0.9,149.8,M,8.4,M,,0000*66,0
1778779987310753083,$GPGSA,M,3,05,19,21,17,24,14,30,11,,,,,2.0,0.9,1.8*34,0
1778779987475713768,$GPRMC,173519.000,A,1205.9935,S,07701.4562,W,4.88,300.94,140526,,,A*63,0
1778779988181941342,$GPGGA,173520.000,1205.9926,S,07701.4578,W,1,08,0.9,149.5,M,8.4,M,,0000*68,0
1778779988307953249,$GPGSA,M,3,05,19,21,17,24,14,30,11,,,,,2.0,0.9,1.8*34,0
1778779988472995860,$GPRMC,173520.000,A,1205.9926,S,07701.4578,W,7.42,300.63,140526,,,A*6D,0
1778779989184213156,$GPGGA,173521.000,1205.9916,S,07701.4597,W,1,08,0.9,149.2,M,8.4,M,,0000*6C,0
1778779989310236600,$GPGSA,M,3,05,19,21,17,24,14,30,11,,,,,2.0,0.9,1.8*34,0
1778779989475253933,$GPRMC,173521.000,A,1205.9916,S,07701.4597,W,7.67,302.18,140526,,,A*67,0
1778779990187246766,$GPGGA,173522.000,1205.9905,S,07701.4615,W,1,08,0.9,149.1,M,8.4,M,,0000*67,0
1778779990313314637,$GPGSA,M,3,05,19,21,17,24,14,30,11,,,,,2.0,0.9,1.8*34,0
1778779990478299099,$GPRMC,173522.000,A,1205.9905,S,07701.4615,W,6.81,303.96,140526,,,A*61,0
1778779991186165525,$GPGGA,173523.000,1205.9895,S,07701.4629,W,1,08,0.9,149.0,M,8.4,M,,0000*60,0
1778779991312200358,$GPGSA,M,3,05,19,21,17,24,14,30,11,,,,,2.0,0.9,1.8*34,0
1778779991472622840,$GPGSV,3,1,12,05,49,309,45,19,40,071,39,21,39,352,35,17,29,104,45*79,0
1778779991633030784,$GPGSV,3,2,12,24,20,230,34,14,15,145,40,30,09,114,35,11,08,004,20*7A,0
1778779991784254784,$GPGSV,3,3,12,13,56,146,44,48,33,280,38,26,48,112,,28,42,155,*72,0
1778779991949252895,$GPRMC,173523.000,A,1205.9895,S,07701.4629,W,5.97,312.42,140526,,,A*6A,0
1778779992180498802,$GPGGA,173524.000,1205.9882,S,07701.4640,W,1,07,1.5,148.9,M,8.4,M,,0000*64,0
1778779992302007691,$GPGSA,M,3,05,19,21,17,24,14,30,,,,,,3.9,1.5,3.6*3D,0
1778779992466976746,$GPRMC,173524.000,A,1205.9882,S,07701.4640,W,5.80,319.75,140526,,,A*6D,0
1778779993182148598,$GPGGA,173525.000,1205.9866,S,07701.4647,W,1,07,1.5,148.7,M,8.4,M,,0000*66,0
1778779993303563376,$GPGSA,M,3,05,19,21,17,24,14,30,,,,,,3.9,1.5,3.6*3D,0
1778779993468571098,$GPRMC,173525.000,A,1205.9866,S,07701.4647,W,6.45,334.30,140526,,,A*65,0
1778779994181666505,$GPGGA,173526.000,1205.9845,S,07701.4648,W,1,08,0.9,148.6,M,8.4,M,,0000*68,0
1778779994307688708,$GPGSA,M,3,05,19,21,17,24,14,30,11,,,,,2.0,0.9,1.8*34,0
1778779994472680634,$GPRMC,173526.000,A,1205.9845,S,07701.4648,W,7.11,353.80,140526,,,A*62,0
1778779995184321097,$GPGGA,173527.000,1205.9819,S,07701.4641,W,1,07,1.5,148.3,M,8.4,M,,0000*6E,0
1778779995305774726,$GPGSA,M,3,05,19,21,17,24,14,30,,,,,,3.9,1.5,3.6*3D,0
1778779995470776282,$GPRMC,173527.000,A,1205.9819,S,07701.4641,W,10.35,20.19,140526,,,A*64,0
1778779996182608559,$GPGGA,173528.000,1205.9788,S,07701.4628,W,1,08,0.9,148.0,M,8.4,M,,0000*68,0
1778779996308647911,$GPGSA,M,3,05,19,21,17,24,14,30,11,,,,,2.0,0.9,1.8*34,0
1778779996469056244,$GPGSV,3,1,12,05,49,309,44,19,40,071,44,21,39,352,40,17,29,104,38*7A,0
1778779996629460207,$GPGSV,3,2,12,24,20,230,36,14,15,145,24,30,09,114,25,11,08,004,19*71,0
1778779996780703725,$GPGSV,3,3,12,13,56,146,27,48,33,280,38,26,48,112,,28,42,155,*77,0
1778779996945715855,$GPRMC,173528.000,A,1205.9788,S,07701.4628,W,12.12,23.82,140526,,,A*65,0
1778779997180264799,$GPGGA,173529.000,1205.9755,S,07701.4612,W,1,07,0.9,148.3,M,8.4,M,,0000*6C,0
1778779997301771299,$GPGSA,M,3,05,19,21,17,24,30,11,,,,,,2.0,0.9,1.8*31,0
1778779997466793114,$GPRMC,173529.000,A,1205.9755,S,07701.4612,W,13.26,24.69,140526,,,A*69,0
1778779998189821539,$GPGGA,173530.000,1205.9720,S,07701.4596,W,1,07,0.9,148.2,M,8.4,M,,0000*68,0
1778779998311261539,$GPGSA,M,3,05,19,21,17,24,30,11,,,,,,2.0,0.9,1.8*31,0
1778779998476255780,$GPRMC,173530.000,A,1205.9720,S,07701.4596,W,13.89,24.66,140526,,,A*66,0
1778779999181050372,$GPGGA,173531.000,1205.9683,S,07701.4579,W,1,07,0.9,148.2,M,8.4,M,,0000*60,0
1778779999302462613,$GPGSA,M,3,05,19,21,17,24,30,11,,,,,,2.0,0.9,1.8*31,0
1778779999467467187,$GPRMC,173531.000,A,1205.9683,S,07701.4579,W,14.46,24.42,140526,,,A*6C,0
1778780000183886279,$GPGGA,173532.000,1205.9645,S,07701.4561,W,1,08,0.9,148.3,M,8.4,M,,0000*6E,0
1778780000309914001,$GPGSA,M,3,05,19,21,17,24,14,30,11,,,,,2.0,0.9,1.8*34,0
1778780000474910908,$GPRMC,173532.000,A,1205.9645,S,07701.4561,W,14.82,24.72,140526,,,A*67,0
1778780001187798519,$GPGGA,173533.000,1205.9607,S,07701.4543,W,1,08,0.9,148.2,M,8.4,M,,0000*68,0
1778780001313850315,$GPGSA,M,3,05,19,21,17,24,14,30,11,,,,,2.0,0.9,1.8*34,0
1778780001474239389,$GPGSV,3,1,12,05,48,311,44,19,40,073,45,21,38,353,39,17,29,106,41*73,0
1778780001634664297,$GPGSV,3,2,12,24,20,229,38,14,14,145,23,30,09,113,22,11,08,005,25*7F,0
1778780001790480685,$GPGSV,3,3,12,13,57,144,40,20,00,228,46,48,33,280,42,26,48,109,*77,0
1778780001955463315,$GPRMC,173533.000,A,1205.9607,S,07701.4543,W,15.05,24.88,140526,,,A*6B,0
1778780002187953222,$GPGGA,173534.000,1205.9568,S,07701.4525,W,1,08,0.9,148.3,M,8.4,M,,0000*64,0
1778780002314001926,$GPGSA,M,3,05,19,21,17,24,14,30,11,,,,,2.0,0.9,1.8*34,0
1778780002478991315,$GPRMC,173534.000,A,1205.9568,S,07701.4525,W,14.92,24.37,140526,,,A*6D,0
1778780003186889481,$GPGGA,173535.000,1205.9529,S,07701.4507,W,1,08,0.9,148.3,M,8.4,M,,0000*60,0
1778780003312916314,$GPGSA,M,3,05,19,21,17,24,14,30,11,,,,,2.0,0.9,1.8*34,0
1778780003477895758,$GPRMC,173535.000,A,1205.9529,S,07701.4507,W,14.88,24.40,140526,,,A*62,0
1778780004185180295,$GPGGA,173536.000,1205.9490,S,07701.4490,W,1,07,1.5,148.3,M,8.4,M,,0000*6D,0
1778780004306600610,$GPGSA,M,3,05,19,21,17,24,14,30,,,,,,3.9,1.5,3.6*3D,0
1778780004471599721,$GPRMC,173536.000,A,1205.9490,S,07701.4490,W,15.02,24.83,140526,,,A*61,0
1778780005190333498,$GPGGA,173537.000,1205.9451,S,07701.4471,W,1,08,0.9,148.1,M,8.4,M,,0000*6E,0
1778780005316356109,$GPGSA,M,3,05,19,21,17,24,14,30,11,,,,,2.0,0.9,1.8*34,0
1778780005481360942,$GPRMC,173537.000,A,1205.9451,S,07701.4471,W,15.22,25.19,140526,,,A*62,0
1778780006185272146,$GPGGA,173538.000,1205.9413,S,07701.4452,W,1,07,0.9,148.1,M,8.4,M,,0000*69,0
1778780006306717720,$GPGSA,M,3,05,19,21,17,24,30,11,,,,,,2.0,0.9,1.8*31,0
1778780006467163997,$GPGSV,3,1,12,05,48,311,40,19,40,073,44,21,38,353,34,17,29,106,43*79,0
1778780006627546645,$GPGSV,3,2,12,24,20,229,40,30,09,113,22,11,08,005,24,13,57,144,39*7B,0
1778780006783372812,$GPGSV,3,3,12,14,14,145,23,20,00,228,46,48,33,280,37,26,48,109,*71,0
1778780006948368812,$GPRMC,173538.000,A,1205.9413,S,07701.4452,W,15.28,26.02,140526,,,A*69,0
1778780007177119886,$GPGGA,173539.000,1205.9374,S,07701.4434,W,1,06,1.0,147.9,M,8.4,M,,0000*60,0
1778780007293982201,$GPGSA,M,3,05,19,21,17,24,11,,,,,,,2.3,1.0,2.0*32,0
1778780007458970330,$GPRMC,173539.000,A,1205.9374,S,07701.4434,W,15.28,25.86,140526,,,A*61,0
1778780008180606904,$GPGGA,173540.000,1205.9333,S,07701.4415,W,1,07,0.9,147.5,M,8.4,M,,0000*6B,0
1778780008302060811,$GPGSA,M,3,05,19,21,17,24,14,11,,,,,,2.1,0.9,1.9*37,0
1778780008467057904,$GPRMC,173540.000,A,1205.9333,S,07701.4415,W,15.71,24.85,140526,,,A*61,0
1778780009184325922,$GPGGA,173541.000,1205.9292,S,07701.4397,W,1,07,0.9,147.1,M,8.4,M,,0000*69,0
1778780009305764514,$GPGSA,M,3,05,19,21,17,24,14,11,,,,,,2.1,0.9,1.9*37,0
1778780009470756588,$GPRMC,173541.000,A,1205.9292,S,07701.4397,W,15.90,24.48,140526,,,A*69,0
1778780010177618069,$GPGGA,173542.000,1205.9251,S,07701.4378,W,1,06,1.0,146.9,M,8.4,M,,0000*64,0
1778780010294469273,$GPGSA,M,3,05,19,21,17,24,11,,,,,,,2.3,1.0,2.0*32,0
1778780010459460625,$GPRMC,173542.000,A,1205.9251,S,07701.4378,W,15.84,24.72,140526,,,A*68,0
1778780011179878439,$GPGGA,173543.000,1205.9209,S,07701.4359,W,1,07,0.9,146.7,M,8.4,M,,0000*6C,0
1778780011301302235,$GPGSA,M,3,05,19,21,17,24,14,11,,,,,,2.1,0.9,1.9*37,0
1778780011461704309,$GPGSV,3,1,12,05,48,311,42,19,40,073,40,21,38,353,37,17,29,106,30*78,0
1778780011622115142,$GPGSV,3,2,12,24,20,229,39,14,14,145,20,11,08,005,26,13,57,144,38*7D,0
1778780011773354513,$GPGSV,3,3,12,20,00,228,46,48,33,280,37,26,48,109,,28,41,155,*7E,0
1778780011938355883,$GPRMC,173543.000,A,1205.9209,S,07701.4359,W,15.96,24.77,140526,,,A*61,0
1778780012177707031,$GPGGA,173544.000,1205.9167,S,07701.4341,W,1,06,1.0,146.3,M,8.4,M,,0000*64,0
1778780012294576179,$GPGSA,M,3,05,19,21,17,24,11,,,,,,,2.3,1.0,2.0*32,0
1778780012459582160,$GPRMC,173544.000,A,1205.9167,S,07701.4341,W,15.80,25.27,140526,,,A*67,0
1778780013176420142,$GPGGA,173545.000,1205.9126,S,07701.4324,W,1,06,1.0,146.0,M,8.4,M,,0000*60,0
1778780013293303790,$GPGSA,M,3,05,19,21,17,24,11,,,,,,,2.3,1.0,2.0*32,0
1778780013458278475,$GPRMC,173545.000,A,1205.9126,S,07701.4324,W,15.29,24.62,140526,,,A*63,0
1778780014181190234,$GPGGA,173546.000,1205.9086,S,07701.4308,W,1,06,1.0,145.8,M,8.4,M,,0000*6D,0
1778780014298036456,$GPGSA,M,3,05,19,21,17,24,11,,,,,,,2.3,1.0,2.0*32,0
1778780014463027567,$GPRMC,173546.000,A,1205.9086,S,07701.4308,W,14.41,24.42,140526,,,A*68,0
1778780015185717788,$GPGGA,173547.000,1205.9047,S,07701.4291,W,1,06,1.0,145.4,M,8.4,M,,0000*6C,0
1778780015302591233,$GPGSA,M,3,05,19,21,17,24,11,,,,,,,2.3,1.0,2.0*32,0
1778780015467571696,$GPRMC,173547.000,A,1205.9047,S,07701.4291,W,14.45,24.43,140526,,,A*60,0
1778780016181705084,$GPGGA,173548.000,1205.9009,S,07701.4275,W,1,07,0.9,145.1,M,8.4,M,,0000*6F,0
1778780016303158454,$GPGSA,M,3,05,19,21,17,24,14,11,,,,,,2.1,0.9,1.9*37,0
1778780016463556714,$GPGSV,3,1,12,05,48,311,42,19,40,073,43,21,38,353,38,17,29,106,42*71,0
1778780016623959510,$GPGSV,3,2,12,24,20,229,34,14,14,145,25,11,08,005,26,13,57,144,23*7F,0
1778780016775222288,$GPGSV,3,3,12,20,00,228,46,48,33,280,41,26,48,109,,28,41,155,*7F,0
1778780016940209139,$GPRMC,173548.000,A,1205.9009,S,07701.4275,W,14.16,24.21,140526,,,A*6D,0
1778780017185397676,$GPGGA,173549.000,1205.8971,S,07701.4259,W,1,07,0.9,144.9,M,8.4,M,,0000*6E,0
1778780017306867935,$GPGSA,M,3,05,19,21,17,24,14,11,,,,,,2.1,0.9,1.9*37,0
1778780017471854009,$GPRMC,173549.000,A,1205.8971,S,07701.4259,W,14.21,24.14,140526,,,A*67,0
1778780018184733046,$GPGGA,173550.000,1205.8934,S,07701.4242,W,1,07,0.9,144.7,M,8.4,M,,0000*63,0
1778780018306183027,$GPGSA,M,3,05,19,21,17,24,14,11,,,,,,2.1,0.9,1.9*37,0
1778780018471180379,$GPRMC,173550.000,A,1205.8934,S,07701.4242,W,14.23,24.11,140526,,,A*63,0
1778780019179889953,$GPGGA,173551.000,1205.8896,S,07701.4226,W,1,07,0.9,144.6,M,8.4,M,,0000*68,0
1778780019301353638,$GPGSA,M,3,05,19,21,17,24,14,11,,,,,,2.1,0.9,1.9*37,0
1778780019466359230,$GPRMC,173551.000,A,1205.8896,S,07701.4226,W,14.15,24.25,140526,,,A*6B,0
1778780020177343174,$GPGGA,173552.000,1205.8860,S,07701.4210,W,1,06,1.0,144.4,M,8.4,M,,0000*6C,0
1778780020294231878,$GPGSA,M,3,05,19,21,17,24,11,,,,,,,2.3,1.0,2.0*32,0
1778780020459260748,$GPRMC,173552.000,A,1205.8860,S,07701.4210,W,14.00,24.24,140526,,,A*61,0
1778780021185016915,$GPGGA,173553.000,1205.8824,S,07701.4192,W,1,06,1.0,144.2,M,8.4,M,,0000*62,0
1778780021301890433,$GPGSA,M,3,05,19,21,17,24,11,,,,,,,2.3,1.0,2.0*32,0
1778780021462291488,$GPGSV,3,1,12,05,48,311,43,19,40,073,42,21,38,353,39,17,29,106,35*70,0
1778780021622701081,$GPGSV,3,2,12,24,20,229,38,11,08,005,26,13,57,144,37,14,14,145,23*70,0
1778780021773954396,$GPGSV,3,3,12,20,00,228,46,48,33,280,38,26,48,109,,28,41,155,*71,0
1778780021938939747,$GPRMC,173553.000,A,1205.8824,S,07701.4192,W,13.54,25.52,140526,,,A*6F,0
1778780022183308914,$GPGGA,173554.000,1205.8790,S,07701.4177,W,1,07,0.9,144.0,M,8.4,M,,0000*65,0
1778780022304751321,$GPGSA,M,3,05,19,21,17,24,14,11,,,,,,2.1,0.9,1.9*37,0
1778780022469750969,$GPRMC,173554.000,A,1205.8790,S,07701.4177,W,12.67,24.10,140526,,,A*65,0
1778780023180342858,$GPGGA,173555.000,1205.8760,S,07701.4163,W,1,07,0.9,143.9,M,8.4,M,,0000*60,0
1778780023301798969,$GPGSA,M,3,05,19,21,17,24,14,11,,,,,,2.1,0.9,1.9*37,0
1778780023466800858,$GPRMC,173555.000,A,1205.8760,S,07701.4163,W,11.28,23.69,140526,,,A*6F,0
1778780024181829987,$GPGGA,173556.000,1205.8733,S,07701.4151,W,1,07,0.9,143.8,M,8.4,M,,0000*65,0
1778780024303218042,$GPGSA,M,3,05,19,21,17,24,14,11,,,,,,2.1,0.9,1.9*37,0
1778780024465914153,$GPRMC,173556.000,A,1205.8733,S,07701.4151,W,9.10,23.04,140526,,,A*52,0
1778780025186720690,$GPGGA,173557.000,1205.8711,S,07701.4144,W,1,07,0.9,143.6,M,8.4,M,,0000*6E,0
1778780025308165523,$GPGSA,M,3,05,19,21,17,24,14,11,,,,,,2.1,0.9,1.9*37,0
1778780025470857042,$GPRMC,173557.000,A,1205.8711,S,07701.4144,W,6.99,17.23,140526,,,A*5B,0
1778780026186461578,$GPGGA,173558.000,1205.8692,S,07701.4142,W,1,07,1.5,142.9,M,8.4,M,,0000*6E,0
1778780026307901171,$GPGSA,M,3,05,19,21,17,24,14,30,,,,,,3.9,1.5,3.6*3D,0
1778780026468320411,$GPGSV,3,1,12,05,48,311,43,19,40,073,42,21,38,353,44,17,29,106,36*79,0
1778780026628726115,$GPGSV,3,2,12,24,20,229,39,14,14,145,28,30,09,113,19,11,08,005,20*78,0
1778780026784556337,$GPGSV,3,3,12,13,57,144,41,20,00,228,46,48,33,280,40,26,48,109,*74,0
1778780026944969615,$GPRMC,173558.000,A,1205.8692,S,07701.4142,W,5.64,1.02,140526,,,A*6D,0
1778780027186407874,$GPGGA,173559.000,1205.8676,S,07701.4146,W,1,07,1.5,142.3,M,8.4,M,,0000*6B,0
1778780027307865892,$GPGSA,M,3,05,19,21,17,24,14,30,,,,,,3.9,1.5,3.6*3D,0
1778780027472853726,$GPRMC,173559.000,A,1205.8676,S,07701.4146,W,5.80,338.98,140526,,,A*62,0
1778780028185326466,$GPGGA,173600.000,1205.8659,S,07701.4154,W,1,07,1.5,141.9,M,8.4,M,,0000*63,0
1778780028306770910,$GPGSA,M,3,05,19,21,17,24,14,30,,,,,,3.9,1.5,3.6*3D,0
1778780028471762892,$GPRMC,173600.000,A,1205.8659,S,07701.4154,W,7.02,329.07,140526,,,A*6D,0
1778780029202579225,$GPGGA,173601.000,1205.8659,S,07701.4172,W,2,05,2.1,147.4,M,8.4,M,4.0,0000*41,0
1778780029314864780,$GPGSA,M,3,05,19,21,11,20,,,,,,,,4.0,2.1,3.4*32,0
1778780029479867224,$GPRMC,173601.000,A,1205.8659,S,07701.4172,W,7.15,311.16,140526,,,D*60,0
1778780030186290872,$GPGGA,173602.000,1205.8660,S,07701.4198,W,2,05,2.1,150.4,M,8.4,M,5.0,0000*4B,0
1778780030298562594,$GPGSA,M,3,20,05,19,21,11,,,,,,,,4.0,2.1,3.4*32,0
1778780030466481483,$GPRMC,173602.000,A,1205.8660,S,07701.4198,W,10.13,282.09,140526,,,D*58,0
1778780031189564316,$GPGGA,173603.000,1205.8654,S,07701.4230,W,1,08,1.0,150.0,M,8.4,M,,0000*6F,0
1778780031315607631,$GPGSA,M,3,20,05,19,21,17,24,14,30,,,,,2.1,1.0,1.9*3E,0
1778780031476011575,$GPGSV,3,1,12,20,61,175,44,05,48,312,45,19,40,073,44,21,38,353,45*72,0
1778780031636412482,$GPGSV,3,2,12,17,29,106,46,24,20,229,30,14,14,145,28,30,09,113,32*7F,0
1778780031792237649,$GPGSV,3,3,12,11,08,005,18,13,57,143,44,48,33,280,44,26,49,109,*7F,0
1778780031959523723,$GPRMC,173603.000,A,1205.8654,S,07701.4230,W,11.30,279.18,140526,,,A*5E,0
1778780032191388001,$GPGGA,173604.000,1205.8648,S,07701.4265,W,1,08,1.0,149.8,M,8.4,M,,0000*65,0
1778780032317427945,$GPGSA,M,3,20,05,19,21,17,24,14,30,,,,,2.1,1.0,1.9*3E,0
1778780032484721963,$GPRMC,173604.000,A,1205.8648,S,07701.4265,W,12.27,278.97,140526,,,A*57,0
1778780033189277315,$GPGGA,173605.000,1205.8642,S,07701.4301,W,1,08,1.0,149.8,M,8.4,M,,0000*6D,0
1778780033315319796,$GPGSA,M,3,20,05,19,21,17,24,14,30,,,,,2.1,1.0,1.9*3E,0
1778780033482599944,$GPRMC,173605.000,A,1205.8642,S,07701.4301,W,12.88,278.56,140526,,,A*57,0
1778780034185678185,$GPGGA,173606.000,1205.8636,S,07701.4338,W,1,08,1.0,150.1,M,8.4,M,,0000*66,0
1778780034311718592,$GPGSA,M,3,20,05,19,21,17,24,14,30,,,,,2.1,1.0,1.9*3E,0
1778780034479007592,$GPRMC,173606.000,A,1205.8636,S,07701.4338,W,13.02,278.14,140526,,,A*58,0
1778780035187294425,$GPGGA,173607.000,1205.8631,S,07701.4374,W,1,07,1.3,150.5,M,8.4,M,,0000*60,0
1778780035308752869,$GPGSA,M,3,20,05,19,17,24,14,30,,,,,,2.4,1.3,2.0*31,0
1778780035476030980,$GPRMC,173607.000,A,1205.8631,S,07701.4374,W,12.71,277.80,140526,,,A*51,0
1778780036184755035,$GPGGA,173608.000,1205.8628,S,07701.4411,W,1,07,1.3,150.0,M,8.4,M,,0000*66,0
1778780036306221183,$GPGSA,M,3,20,05,19,17,24,14,30,,,,,,2.4,1.3,2.0*31,0
1778780036466680331,$GPGSV,3,1,12,20,61,175,44,05,48,312,47,19,40,073,45,17,29,106,47*74,0
1778780036627019628,$GPGSV,3,2,12,24,20,229,34,14,14,145,37,30,09,113,29,13,57,143,44*71,0
1778780036773724516,$GPGSV,3,3,12,48,33,280,44,26,49,109,,28,40,155,,21,38,353,*7F,0
1778780036940981350,$GPRMC,173608.000,A,1205.8628,S,07701.4411,W,12.61,277.12,140526,,,A*58,0
1778780037189296090,$GPGGA,173609.000,1205.8624,S,07701.4447,W,1,08,1.0,149.0,M,8.4,M,,0000*6C,0
1778780037315321905,$GPGSA,M,3,20,05,19,21,17,24,14,30,,,,,2.1,1.0,1.9*3E,0
1778780037482609997,$GPRMC,173609.000,A,1205.8624,S,07701.4447,W,11.85,277.50,140526,,,A*59,0
1778780038190932645,$GPGGA,173610.000,1205.8621,S,07701.4479,W,1,08,1.0,148.4,M,8.4,M,,0000*69,0
1778780038316960182,$GPGSA,M,3,20,05,19,21,17,24,14,30,,,,,2.1,1.0,1.9*3E,0
1778780038484239812,$GPRMC,173610.000,A,1205.8621,S,07701.4479,W,10.45,278.19,140526,,,A*56,0
1778780039187115330,$GPGGA,173611.000,1205.8620,S,07701.4505,W,1,07,1.1,147.7,M,8.4,M,,0000*61,0
1778780039308563793,$GPGSA,M,3,20,05,19,21,17,24,30,,,,,,2.2,1.1,1.9*39,0
1778780039473565478,$GPRMC,173611.000,A,1205.8620,S,07701.4505,W,8.20,277.78,140526,,,A*6E,0
1778780040184234551,$GPGGA,173612.000,1205.8620,S,07701.4526,W,1,08,1.0,147.4,M,8.4,M,,0000*6E,0
1778780040310252162,$GPGSA,M,3,20,05,19,21,17,24,14,30,,,,,2.1,1.0,1.9*3E,0
1778780040475189477,$GPRMC,173612.000,A,1205.8620,S,07701.4526,W,6.11,273.86,140526,,,A*65,0
1778780041187460347,$GPGGA,173613.000,1205.8622,S,07701.4542,W,1,08,1.0,146.9,M,8.4,M,,0000*63,0
1778780041313481903,$GPGSA,M,3,20,05,19,21,17,24,14,30,,,,,2.1,1.0,1.9*3E,0
1778780041473900754,$GPGSV,3,1,12,20,61,175,44,05,48,312,47,19,40,073,46,21,38,353,44*73,0
1778780041634319902,$GPGSV,3,2,12,17,29,106,48,24,20,229,29,14,14,145,30,30,09,113,39*7B,0
1778780041780970069,$GPGSV,3,3,12,48,33,280,25,13,57,143,,26,49,109,,28,40,155,*73,0
1778780041945958013,$GPRMC,173613.000,A,1205.8622,S,07701.4542,W,5.96,262.34,140526,,,A*61,0
1778780042184283865,$GPGGA,173614.000,1205.8628,S,07701.4559,W,1,08,1.0,146.8,M,8.4,M,,0000*65,0
1778780042310321106,$GPGSA,M,3,20,05,19,21,17,24,14,30,,,,,2.1,1.0,1.9*3E,0
1778780042475322976,$GPRMC,173614.000,A,1205.8628,S,07701.4559,W,6.40,250.25,140526,,,A*6F,0
1778780043183813568,$GPGGA,173615.000,1205.8642,S,07701.4573,W,1,08,1.0,147.4,M,8.4,M,,0000*6D,0
1778780043309839494,$GPGSA,M,3,20,05,19,21,17,24,14,30,,,,,2.1,1.0,1.9*3E,0
1778780043474845864,$GPRMC,173615.000,A,1205.8642,S,07701.4573,W,7.93,220.00,140526,,,A*65,0
1778780044182727216,$GPGGA,173616.000,1205.8664,S,07701.4584,W,1,08,1.0,147.9,M,8.4,M,,0000*6F,0
1778780044308753808,$GPGSA,M,3,20,05,19,21,17,24,14,30,,,,,2.1,1.0,1.9*3E,0
1778780044473762530,$GPRMC,173616.000,A,1205.8664,S,07701.4584,W,8.99,207.10,140526,,,A*6B,0
1778780045182053678,$GPGGA,173617.000,1205.8689,S,07701.4595,W,1,08,1.0,148.5,M,8.4,M,,0000*6E,0
1778780045308094845,$GPGSA,M,3,20,05,19,21,17,24,14,30,,,,,2.1,1.0,1.9*3E,0
1778780045473091493,$GPRMC,173617.000,A,1205.8689,S,07701.4595,W,9.65,204.11,140526,,,A*69,0
1778780046183468140,$GPGGA,173618.000,1205.8715,S,07701.4607,W,1,08,1.0,149.0,M,8.4,M,,0000*69,0
1778780046309505751,$GPGSA,M,3,20,05,19,21,17,24,14,30,,,,,2.1,1.0,1.9*3E,0
1778780046469929511,$GPGSV,3,1,12,20,61,175,44,05,48,312,32,19,40,073,45,21,38,353,44*72,0
1778780046630330214,$GPGSV,3,2,12,17,29,106,36,24,20,229,30,14,14,145,30,30,09,113,30*73,0
1778780046776977455,$GPGSV,3,3,12,11,08,005,14,48,33,280,,13,57,143,,26,49,109,*73,0
1778780046944264844,$GPRMC,173618.000,A,1205.8715,S,07701.4607,W,10.21,203.99,140526,,,A*55,0
1778780047182171806,$GPGGA,173619.000,1205.8742,S,07701.4620,W,1,08,1.0,149.3,M,8.4,M,,0000*6C,0
1778780047308216603,$GPGSA,M,3,20,05,19,21,17,24,14,30,,,,,2.1,1.0,1.9*3E,0
1778780047475495547,$GPRMC,173619.000,A,1205.8742,S,07701.4620,W,10.77,204.93,140526,,,A*5D,0
1778780048185039621,$GPGGA,173620.000,1205.8772,S,07701.4632,W,2,04,1.8,149.6,M,8.4,M,11.0,0000*7A,0
1778780048292751658,$GPGSA,M,3,20,05,19,21,,,,,,,,,3.6,1.8,3.2*3F,0
1778780048460034232,$GPRMC,173620.000,A,1205.8772,S,07701.4632,W,11.49,203.99,140526,,,D*53,0
1778780049187495324,$GPGGA,173621.000,1205.8801,S,07701.4646,W,2,04,1.8,149.7,M,8.4,M,12.0,0000*71,0
1778780049295203768,$GPGSA,M,3,20,05,19,21,,,,,,,,,3.6,1.8,3.2*3F,0
1778780049462498157,$GPRMC,173621.000,A,1205.8801,S,07701.4646,W,11.66,206.09,140526,,,D*5B,0
1778780050184955416,$GPGGA,173622.000,1205.8829,S,07701.4660,W,2,04,1.8,149.8,M,8.4,M,13.0,0000*72,0
1778780050292650749,$GPGSA,M,3,20,05,19,21,,,,,,,,,3.6,1.8,3.2*3F,0
1778780050459936082,$GPRMC,173622.000,A,1205.8829,S,07701.4660,W,10.57,206.48,140526,,,D*50,0
1778780051186379378,$GPGGA,173623.000,1205.8855,S,07701.4673,W,2,04,1.8,149.8,M,8.4,M,14.0,0000*7D,0
1778780051294063211,$GPGSA,M,3,20,05,19,21,,,,,,,,,3.6,1.8,3.2*3F,0
1778780051454474822,$GPGSV,3,1,12,20,61,175,44,05,48,312,28,19,40,073,34,21,38,353,45*7E,0
1778780051614963526,$GPGSV,3,2,12,06,00,041,10,11,08,005,25,14,14,145,32,17,29,106,38*73,0
1778780051770730452,$GPGSV,3,3,12,24,20,229,30,30,09,113,28,48,33,280,31,13,57,143,*75,0
1778780051938011044,$GPRMC,173623.000,A,1205.8855,S,07701.4673,W,10.01,206.48,140526,,,D*5B,0
1778780052186116840,$GPGGA,173624.000,1205.8877,S,07701.4686,W,2,04,1.8,149.7,M,8.4,M,15.0,0000*7E,0
1778780052293810507,$GPGSA,M,3,20,05,19,21,,,,,,,,,3.6,1.8,3.2*3F,0
1778780052458809081,$GPRMC,173624.000,A,1205.8877,S,07701.4686,W,9.11,207.82,140526,,,D*68,0
1778780053187105914,$GPGGA,173625.000,1205.8900,S,07701.4700,W,2,04,1.8,149.8,M,8.4,M,16.0,0000*7D,0
1778780053294821562,$GPGSA,M,3,20,05,19,21,,,,,,,,,3.6,1.8,3.2*3F,0
1778780053459812451,$GPRMC,173625.000,A,1205.8900,S,07701.4700,W,8.94,209.41,140526,,,D*6A,0
1778780054186016173,$GPGGA,173626.000,1205.8920,S,07701.4713,W,2,04,1.8,149.8,M,8.4,M,17.0,0000*7F,1
1778780054293733765,$GPGSA,M,3,20,05,19,21,,,,,,,,,3.6,1.8,3.2*3F,1
1778780054458724580,$GPRMC,173626.000,A,1205.8920,S,07701.4713,W,8.54,210.94,140526,,,D*65,1
1778780055186201283,$GPGGA,173627.000,1205.8930,S,07701.4718,W,2,04,1.8,149.9,M,8.4,M,18.0,0000*7A,1
1778780055293890857,$GPGSA,M,3,20,05,19,21,,,,,,,,,3.6,1.8,3.2*3F,1
1778780055458898357,$GPRMC,173627.000,A,1205.8930,S,07701.4718,W,5.93,212.54,140526,,,D*66,1
1778780056184678634,$GPGGA,173628.000,1205.8913,S,07701.4699,W,1,08,1.0,150.1,M,8.4,M,,0000*6C,1
1778780056310733060,$GPGSA,M,3,20,05,19,21,17,24,14,30,,,,,2.1,1.0,1.9*3E,1
1778780056471138949,$GPGSV,3,1,12,20,61,175,43,05,48,312,14,19,40,073,36,21,38,353,38*7E,1
1778780056631535616,$GPGSV,3,2,12,17,29,106,32,24,20,229,19,14,14,145,31,30,09,113,14*7B,1
1778780056782782764,$GPGSV,3,3,12,11,08,005,25,48,33,280,29,13,57,143,,26,49,109,*7A,1
1778780056947764301,$GPRMC,173628.000,A,1205.8913,S,07701.4699,W,0.03,212.54,140526,,,A*69,1
1778780057185886523,$GPGGA,173629.000,1205.8913,S,07701.4699,W,1,08,1.0,150.1,M,8.4,M,,0000*6D,1
1778780057311926726,$GPGSA,M,3,20,05,19,21,17,24,14,30,,,,,2.1,1.0,1.9*3E,1
1778780057476919004,$GPRMC,173629.000,A,1205.8913,S,07701.4699,W,0.01,212.54,140526,,,A*6A,1
1778780058181952337,$GPGGA,173630.000,1205.8913,S,07701.4699,W,1,07,1.1,150.1,M,8.4,M,,0000*6B,1
1778780058303347115,$GPGSA,M,3,20,05,19,21,17,24,14,,,,,,2.4,1.1,2.2*31,1
1778780058468344911,$GPRMC,173630.000,A,1205.8913,S,07701.4699,W,0.00,212.54,140526,,,A*63,1
1778780059186425929,$GPGGA,173631.000,1205.8913,S,07701.4699,W,1,07,1.1,150.1,M,8.4,M,,0000*6A,1
1778780059307887207,$GPGSA,M,3,20,05,19,21,17,24,14,,,,,,2.4,1.1,2.2*31,1
1778780059472878540,$GPRMC,173631.000,A,1205.8913,S,07701.4699,W,0.00,212.54,140526,,,A*62,1
1778780060183877076,$GPGGA,173632.000,1205.8913,S,07701.4699,W,1,07,1.1,150.1,M,8.4,M,,0000*69,1
1778780060305326243,$GPGSA,M,3,20,05,19,21,17,24,14,,,,,,2.4,1.1,2.2*31,1
1778780060470319354,$GPRMC,173632.000,A,1205.8913,S,07701.4699,W,0.00,212.54,140526,,,A*61,1
1778780061184265317,$GPGGA,173633.000,1205.8913,S,07701.4700,W,1,07,1.1,150.1,M,8.4,M,,0000*69,1
1778780061305704280,$GPGSA,M,3,20,05,19,21,17,24,14,,,,,,2.4,1.1,2.2*31,1
1778780061466111261,$GPGSV,3,1,12,20,61,175,43,05,48,312,16,19,40,073,37,21,38,353,39*7C,1
1778780061626513242,$GPGSV,3,2,12,17,29,106,28,24,20,229,16,14,14,145,32,30,09,113,20*7B,1
1778780061773179316,$GPGSV,3,3,12,48,33,280,29,13,57,143,,26,49,109,,28,40,155,*7F,1
1778780061938179409,$GPRMC,173633.000,A,1205.8913,S,07701.4700,W,0.00,212.54,140526,,,A*61,1
1778780062187743723,$GPGGA,173634.000,1205.8914,S,07701.4700,W,1,07,1.1,150.1,M,8.4,M,,0000*69,1
1778780062309195149,$GPGSA,M,3,20,05,19,21,17,24,14,,,,,,2.4,1.1,2.2*31,1
1778780062474198242,$GPRMC,173634.000,A,1205.8914,S,07701.4700,W,0.00,212.54,140526,,,A*61,1
1778780063185413260,$GPGGA,173635.000,1205.8914,S,07701.4700,W,1,08,1.0,150.1,M,8.4,M,,0000*66,1
1778780063311442001,$GPGSA,M,3,20,05,19,21,17,24,14,30,,,,,2.1,1.0,1.9*3E,1
1778780063476436537,$GPRMC,173635.000,A,1205.8914,S,07701.4700,W,0.00,212.54,140526,,,A*60,1
1778780064183074130,$GPGGA,173636.000,1205.8914,S,07701.4700,W,1,07,1.4,150.1,M,8.4,M,,0000*6E,1
1778780064304525463,$GPGSA,M,3,20,05,19,21,17,14,30,,,,,,2.6,1.4,2.2*33,1
1778780064469512722,$GPRMC,173636.000,A,1205.8914,S,07701.4700,W,0.00,212.54,140526,,,A*63,1
1778780065184503518,$GPGGA,173637.000,1205.8914,S,07701.4700,W,1,07,1.4,150.1,M,8.4,M,,0000*6F,1
1778780065305935962,$GPGSA,M,3,20,05,19,21,17,14,30,,,,,,2.6,1.4,2.2*33,1
1778780065470937351,$GPRMC,173637.000,A,1205.8914,S,07701.4700,W,0.00,212.54,140526,,,A*62,1
1778780066183826814,$GPGGA,173638.000,1205.8914,S,07701.4700,W,1,07,1.4,150.1,M,8.4,M,,0000*60,1
1778780066305261925,$GPGSA,M,3,20,05,19,21,17,14,30,,,,,,2.6,1.4,2.2*33,1
1778780066465680665,$GPGSV,3,1,12,20,61,175,43,05,48,312,18,19,40,073,37,21,38,353,39*72,1
1778780066626102610,$GPGSV,3,2,12,17,29,106,28,14,14,145,32,30,09,113,18,11,08,005,18*7E,1
1778780066777332850,$GPGSV,3,3,12,24,20,229,16,48,33,280,29,13,57,143,,26,49,109,*7A,1
1778780066942312369,$GPRMC,173638.000,A,1205.8914,S,07701.4700,W,0.00,212.54,140526,,,A*6D,1
1778780067183760480,$GPGGA,173639.000,1205.8914,S,07701.4700,W,1,07,1.4,150.1,M,8.4,M,,0000*61,1
1778780067305223757,$GPGSA,M,3,20,05,19,21,17,14,30,,,,,,2.6,1.4,2.2*33,1
1778780067470229628,$GPRMC,173639.000,A,1205.8914,S,07701.4700,W,0.00,212.54,140526,,,A*6C,1
1778780068184966942,$GPGGA,173640.000,1205.8914,S,07701.4700,W,1,07,1.1,150.1,M,8.4,M,,0000*6A,1
1778780068306485738,$GPGSA,M,3,20,05,19,21,17,24,14,,,,,,2.4,1.1,2.2*31,1
1778780068471416646,$GPRMC,173640.000,A,1205.8914,S,07701.4700,W,0.00,212.54,140526,,,A*62,1
1778780069183488330,$GPGGA,173641.000,1205.8914,S,07701.4701,W,1,07,1.1,150.1,M,8.4,M,,0000*6A,1
1778780069304928886,$GPGSA,M,3,20,05,19,21,17,24,14,,,,,,2.4,1.1,2.2*31,1
1778780069469914201,$GPRMC,173641.000,A,1205.8914,S,07701.4701,W,0.00,212.54,140526,,,A*62,1
1778780070185094052,$GPGGA,173642.000,1205.8914,S,07701.4701,W,1,07,1.1,150.1,M,8.4,M,,0000*69,1
1778780070306539959,$GPGSA,M,3,20,05,19,21,17,24,14,,,,,,2.4,1.1,2.2*31,1
1778780070471549089,$GPRMC,173642.000,A,1205.8914,S,07701.4701,W,0.00,212.54,140526,,,A*61,1
1778780071185693014,$GPGGA,173643.000,1205.8914,S,07701.4701,W,1,08,1.0,150.1,M,8.4,M,,0000*66,1
1778780071311714496,$GPGSA,M,3,20,05,19,21,17,24,14,30,,,,,2.1,1.0,1.9*3E,1
1778780071472125273,$GPGSV,3,1,12,20,61,175,43,05,48,312,19,19,40,073,36,21,38,353,39*72,1
1778780071632522736,$GPGSV,3,2,12,17,29,106,30,24,20,229,17,14,14,145,32,30,09,113,24*77,1
1778780071783763903,$GPGSV,3,3,12,11,08,005,24,48,33,280,28,13,57,143,,26,49,109,*7A,1
1778780071948775551,$GPRMC,173643.000,A,1205.8914,S,07701.4701,W,0.00,212.54,140526,,,A*60,1
1778780072185212606,$GPGGA,173644.000,1205.8914,S,07701.4701,W,1,08,1.0,150.2,M,8.4,M,,0000*62,1
1778780072311238940,$GPGSA,M,3,20,05,19,21,17,24,14,30,,,,,2.1,1.0,1.9*3E,1
1778780072476239032,$GPRMC,173644.000,A,1205.8914,S,07701.4701,W,0.00,212.54,140526,,,A*67,1
1778780073185211087,$GPGGA,173645.000,1205.8914,S,07701.4701,W,1,08,1.0,150.2,M,8.4,M,,0000*63,1
1778780073311239809,$GPGSA,M,3,20,05,19,21,17,24,14,30,,,,,2.1,1.0,1.9*3E,1
1778780073476260939,$GPRMC,173645.000,A,1205.8914,S,07701.4701,W,0.00,212.54,140526,,,A*66,1
1778780074186159364,$GPGGA,173646.000,1205.8914,S,07701.4701,W,1,08,1.0,150.2,M,8.4,M,,0000*60,1
1778780074312199161,$GPGSA,M,3,20,05,19,21,17,24,14,30,,,,,2.1,1.0,1.9*3E,1
1778780074477207753,$GPRMC,173646.000,A,1205.8914,S,07701.4701,W,0.00,212.54,140526,,,A*65,1
1778780075184865549,$GPGGA,173647.000,1205.8914,S,07701.4701,W,1,08,1.0,150.2,M,8.4,M,,0000*61,1
1778780075310909419,$GPGSA,M,3,20,05,19,21,17,24,14,30,,,,,2.1,1.0,1.9*3E,1
1778780075475887641,$GPRMC,173647.000,A,1205.8914,S,07701.4701,W,0.00,212.54,140526,,,A*64,1
1778780076185667511,$GPGGA,173648.000,1205.8914,S,07701.4701,W,1,08,1.0,150.2,M,8.4,M,,0000*6E,1
1778780076311688826,$GPGSA,M,3,20,05,19,21,17,24,14,30,,,,,2.1,1.0,1.9*3E,1
1778780076472096067,$GPGSV,3,1,12,20,61,175,43,05,48,312,21,19,40,073,35,21,38,353,38*7B,1
1778780076632507733,$GPGSV,3,2,12,17,29,106,31,24,20,229,19,14,14,145,32,30,09,113,25*79,1
1778780076783763530,$GPGSV,3,3,12,11,08,005,24,48,33,280,29,13,57,143,,26,49,109,*7B,1
1778780076948779696,$GPRMC,173648.000,A,1205.8914,S,07701.4701,W,0.00,212.54,140526,,,A*6B,1
1778780077186238900,$GPGGA,173649.000,1205.8914,S,07701.4702,W,1,08,1.0,150.2,M,8.4,M,,0000*6C,1
1778780077312271622,$GPGSA,M,3,20,05,19,21,17,24,14,30,,,,,2.1,1.0,1.9*3E,1
1778780077477258288,$GPRMC,173649.000,A,1205.8914,S,07701.4702,W,0.00,212.54,140526,,,A*69,1
1778780078183975436,$GPGGA,173650.000,1205.8914,S,07701.4702,W,1,08,1.0,150.2,M,8.4,M,,0000*64,1
1778780078309983769,$GPGSA,M,3,20,05,19,21,17,24,14,30,,,,,2.1,1.0,1.9*3E,1
1778780078474931269,$GPRMC,173650.000,A,1205.8914,S,07701.4702,W,0.00,212.54,140526,,,A*61,1
1778780079184884436,$GPGGA,173651.000,1205.8914,S,07701.4702,W,1,08,1.0,150.2,M,8.4,M,,0000*65,1
1778780079310928361,$GPGSA,M,3,20,05,19,21,17,24,14,30,,,,,2.1,1.0,1.9*3E,1
1778780079475931898,$GPRMC,173651.000,A,1205.8914,S,07701.4702,W,0.00,212.54,140526,,,A*60,1
1778780080185272768,$GPGGA,173652.000,1205.8914,S,07701.4702,W,1,08,1.0,150.2,M,8.4,M,,0000*66,1
1778780080311286602,$GPGSA,M,3,20,05,19,21,17,24,14,30,,,,,2.1,1.0,1.9*3E,1
1778780080476321768,$GPRMC,173652.000,A,1205.8914,S,07701.4702,W,0.00,212.54,140526,,,A*63,1
1778780081184429786,$GPGGA,173653.000,1205.8915,S,07701.4709,W,1,08,1.0,150.7,M,8.4,M,,0000*68,1
1778780081310446601,$GPGSA,M,3,20,05,19,21,17,24,14,30,,,,,2.1,1.0,1.9*3E,1
1778780081470839527,$GPGSV,3,1,12,20,61,175,44,05,48,312,21,19,40,073,34,21,38,353,37*72,1
1778780081631244138,$GPGSV,3,2,12,17,29,106,33,24,20,229,20,14,14,145,33,30,09,113,22*77,1
1778780081782517971,$GPGSV,3,3,12,11,08,005,18,48,33,280,29,13,57,143,,26,49,109,*74,1
1778780081947535323,$GPRMC,173653.000,A,1205.8915,S,07701.4709,W,0.04,212.54,140526,,,A*6C,1
1778780082185591656,$GPGGA,173654.000,1205.8915,S,07701.4709,W,1,08,1.0,150.7,M,8.4,M,,0000*6F,1
1778780082311629915,$GPGSA,M,3,20,05,19,21,17,24,14,30,,,,,2.1,1.0,1.9*3E,1
1778780082476624119,$GPRMC,173654.000,A,1205.8915,S,07701.4709,W,0.00,212.54,140526,,,A*6F,1
1778780083185539248,$GPGGA,173655.000,1205.8915,S,07701.4709,W,1,08,1.0,150.8,M,8.4,M,,0000*61,1
1778780083311578970,$GPGSA,M,3,20,05,19,21,17,24,14,30,,,,,2.1,1.0,1.9*3E,1
1778780083476573044,$GPRMC,173655.000,A,1205.8915,S,07701.4709,W,0.00,212.54,140526,,,A*6E,1
1778780084185914284,$GPGGA,173656.000,1205.8915,S,07701.4709,W,1,08,1.0,150.8,M,8.4,M,,0000*62,1
1778780084311945136,$GPGSA,M,3,20,05,19,21,17,24,14,30,,,,,2.1,1.0,1.9*3E,1
1778780084476940655,$GPRMC,173656.000,A,1205.8915,S,07701.4709,W,0.00,212.54,140526,,,A*6D,1
1778780085186914858,$GPGGA,173657.000,1205.8915,S,07701.4709,W,1,08,1.0,150.8,M,8.4,M,,0000*63,1
1778780085312950673,$GPGSA,M,3,20,05,19,21,17,24,14,30,,,,,2.1,1.0,1.9*3E,1
1778780085477949821,$GPRMC,173657.000,A,1205.8915,S,07701.4709,W,0.00,212.54,140526,,,A*6C,1
1778780086186244209,$GPGGA,173658.000,1205.8915,S,07701.4710,W,1,08,1.0,150.8,M,8.4,M,,0000*64,1
1778780086312282542,$GPGSA,M,3,20,05,19,21,17,24,14,30,,,,,2.1,1.0,1.9*3E,1
1778780086472707931,$GPGSV,3,1,12,20,61,175,44,05,48,312,21,19,40,073,34,21,38,353,30*75,1
1778780086633088542,$GPGSV,3,2,12,17,29,106,34,24,20,229,21,14,14,145,33,30,09,113,24*77,1
1778780086784347487,$GPGSV,3,3,12,11,08,005,15,48,33,280,29,13,57,143,,26,49,109,*79,1
1778780086949333690,$GPRMC,173658.000,A,1205.8915,S,07701.4710,W,0.00,212.54,140526,,,A*6B,0
1778780087185985727,$GPGGA,173659.000,1205.8916,S,07701.4716,W,1,08,1.0,151.2,M,8.4,M,,0000*6B,0
1778780087312032597,$GPGSA,M,3,20,05,19,21,17,24,14,30,,,,,2.1,1.0,1.9*3E,0
1778780087477022727,$GPRMC,173659.000,A,1205.8916,S,07701.4716,W,0.37,212.54,140526,,,A*6B,0
1778780088184285486,$GPGGA,173700.000,1205.8920,S,07701.4726,W,1,08,1.0,150.9,M,8.4,M,,0000*6A,0
1778780088310314134,$GPGSA,M,3,20,05,19,21,17,24,14,30,,,,,2.1,1.0,1.9*3E,0
1778780088475308856,$GPRMC,173700.000,A,1205.8920,S,07701.4726,W,1.45,211.60,140526,,,A*60,0
1778780089204875393,$GPGGA,173701.000,1205.8928,S,07701.4735,W,1,08,1.0,151.7,M,8.4,M,,0000*6E,0
1778780089330903374,$GPGSA,M,3,20,05,19,21,17,24,14,30,,,,,2.1,1.0,1.9*3E,0
1778780089495889615,$GPRMC,173701.000,A,1205.8928,S,07701.4735,W,2.86,216.34,140526,,,A*61,0
1778780090185658873,$GPGGA,173702.000,1205.8935,S,07701.4748,W,1,08,1.0,152.6,M,8.4,M,,0000*69,0
1778780090311677410,$GPGSA,M,3,20,05,19,21,17,24,14,30,,,,,2.1,1.0,1.9*3E,0
1778780090476692373,$GPRMC,173702.000,A,1205.8935,S,07701.4748,W,3.73,223.64,140526,,,A*6C,0
1778780091183724132,$GPGGA,173703.000,1205.8940,S,07701.4762,W,1,08,1.0,154.1,M,8.4,M,,0000*63,0
1778780091309762391,$GPGSA,M,3,20,05,19,21,17,24,14,30,,,,,2.1,1.0,1.9*3E,0
1778780091470177428,$GPGSV,3,1,12,20,61,174,44,05,47,312,21,19,40,074,35,21,37,353,38*7A,0
1778780091630603058,$GPGSV,3,2,12,17,29,106,28,24,20,228,32,14,14,145,36,30,09,112,22*7B,0
1778780091777249169,$GPGSV,3,3,12,48,33,280,33,13,57,143,,26,49,108,,28,40,155,*75,0
1778780091942243539,$GPRMC,173703.000,A,1205.8940,S,07701.4762,W,4.19,223.50,140526,,,A*6B,0
1778780092185146298,$GPGGA,173704.000,1205.8950,S,07701.4776,W,1,08,1.0,155.6,M,8.4,M,,0000*66,0
1778780092311180761,$GPGSA,M,3,20,05,19,21,17,24,14,30,,,,,2.1,1.0,1.9*3E,0
1778780092476170242,$GPRMC,173704.000,A,1205.8950,S,07701.4776,W,5.17,220.71,140526,,,A*67,0
1778780093186769501,$GPGGA,173705.000,1205.8963,S,07701.4791,W,1,08,1.0,157.1,M,8.4,M,,0000*6B,0
1778780093312796501,$GPGSA,M,3,20,05,19,21,17,24,14,30,,,,,2.1,1.0,1.9*3E,0
1778780093477803408,$GPRMC,173705.000,A,1205.8963,S,07701.4791,W,6.05,218.36,140526,,,A*67,0
1778780094185473964,$GPGGA,173706.000,1205.8982,S,07701.4814,W,1,08,1.0,157.1,M,8.4,M,,0000*65,0
1778780094311522945,$GPGSA,M,3,20,05,19,21,17,24,14,30,,,,,2.1,1.0,1.9*3E,0
1778780094476499797,$GPRMC,173706.000,A,1205.8982,S,07701.4814,W,7.65,218.91,140526,,,A*63,0
1778780095185840370,$GPGGA,173707.000,1205.9006,S,07701.4831,W,1,08,1.0,157.4,M,8.4,M,,0000*62,0
1778780095311875389,$GPGSA,M,3,20,05,19,21,17,24,14,30,,,,,2.1,1.0,1.9*3E,0
1778780095476869667,$GPRMC,173707.000,A,1205.9006,S,07701.4831,W,9.42,219.70,140526,,,A*64,0
1778780096184336018,$GPGGA,173708.000,1205.9035,S,07701.4847,W,1,08,1.0,157.5,M,8.4,M,,0000*6D,0
1778780096310357610,$GPGSA,M,3,20,05,19,21,17,24,14,30,,,,,2.1,1.0,1.9*3E,0
1778780096470779740,$GPGSV,3,1,12,20,61,174,43,05,47,312,26,19,40,074,35,21,37,353,29*7A,0
1778780096631191851,$GPGSV,3,2,12,17,29,106,39,24,20,228,41,14,14,145,27,30,09,112,22*7F,0
1778780096782426795,$GPGSV,3,3,12,11,08,005,26,48,33,280,33,13,57,143,,26,49,108,*73,0
1778780096949705055,$GPRMC,173708.000,A,1205.9035,S,07701.4847,W,11.29,218.44,140526,,,A*58,0
1778780097183663462,$GPGGA,173709.000,1205.9070,S,07701.4864,W,1,08,1.0,157.3,M,8.4,M,,0000*6A,0
1778780097309695536,$GPGSA,M,3,20,05,19,21,17,24,14,30,,,,,2.1,1.0,1.9*3E,0
1778780097476991702,$GPRMC,173709.000,A,1205.9070,S,07701.4864,W,13.10,215.00,140526,,,A*5C,0
1778780098184873109,$GPGGA,173710.000,1205.9113,S,07701.4880,W,1,08,1.0,157.0,M,8.4,M,,0000*6F,0
1778780098310901850,$GPGSA,M,3,20,05,19,21,17,24,14,30,,,,,2.1,1.0,1.9*3E,0
1778780098478190980,$GPRMC,173710.000,A,1205.9113,S,07701.4880,W,16.01,206.88,140526,,,A*5D,0
1778780099182535850,$GPGGA,173711.000,1205.9174,S,07701.4887,W,1,08,1.0,156.4,M,8.4,M,,0000*6D,0
1778780099308572757,$GPGSA,M,3,20,05,19,21,17,24,14,30,,,,,2.1,1.0,1.9*3E,0
1778780099475858312,$GPRMC,173711.000,A,1205.9174,S,07701.4887,W,16.79,204.89,140526,,,A*56,0
1778780100184978034,$GPGGA,173712.000,1205.9231,S,07701.4898,W,1,09,0.9,155.5,M,8.4,M,,0000*69,0
1778780100315608534,$GPGSA,M,3,20,05,19,21,17,24,14,30,11,,,,1.6,0.9,1.4*3F,0
1778780100482883645,$GPRMC,173712.000,A,1205.9231,S,07701.4898,W,16.62,205.78,140526,,,A*5C,0
1778780101185569145,$GPGGA,173713.000,1205.9280,S,07701.4913,W,1,09,0.9,154.7,M,8.4,M,,0000*63,0
1778780101316191126,$GPGSA,M,3,20,05,19,21,17,24,14,30,11,,,,1.6,0.9,1.4*3F,0
1778780101476623163,$GPGSV,3,1,12,20,61,174,42,05,47,312,43,19,40,074,43,21,37,353,27*77,0
1778780101637019700,$GPGSV,3,2,12,17,29,106,31,24,20,228,35,14,14,145,23,30,09,112,21*73,0
1778780101788260292,$GPGSV,3,3,12,11,08,005,17,06,00,041,14,46,29,279,,13,57,143,*74,0
1778780101955562940,$GPRMC,173713.000,A,1205.9280,S,07701.4913,W,16.57,205.47,140526,,,A*5F,0
1778780102186352311,$GPGGA,173714.000,1205.9326,S,07701.4928,W,1,09,0.9,154.2,M,8.4,M,,0000*64,0
1778780102316984329,$GPGSA,M,3,20,05,19,21,17,24,14,30,11,,,,1.6,0.9,1.4*3F,0
1778780102484271662,$GPRMC,173714.000,A,1205.9326,S,07701.4928,W,16.18,205.70,140526,,,A*52,0
1778780103185739421,$GPGGA,173715.000,1205.9369,S,07701.4945,W,1,09,0.9,153.6,M,8.4,M,,0000*66,0
1778780103316312699,$GPGSA,M,3,20,05,19,21,17,24,14,30,11,,,,1.6,0.9,1.4*3F,0
1778780103483586865,$GPRMC,173715.000,A,1205.9369,S,07701.4945,W,15.72,203.68,140526,,,A*53,0
1778780104187521291,$GPGGA,173716.000,1205.9411,S,07701.4960,W,1,09,0.9,153.0,M,8.4,M,,0000*6C,0
1778780104318122458,$GPGSA,M,3,20,05,19,21,17,24,14,30,11,,,,1.6,0.9,1.4*3F,0
1778780104485408902,$GPRMC,173716.000,A,1205.9411,S,07701.4960,W,15.24,202.81,140526,,,A*5A,0
1778780105186050494,$GPGGA,173717.000,1205.9451,S,07701.4973,W,1,09,0.9,152.1,M,8.4,M,,0000*6B,0
1778780105316625587,$GPGSA,M,3,20,05,19,21,17,24,14,30,11,,,,1.6,0.9,1.4*3F,0
1778780105483919957,$GPRMC,173717.000,A,1205.9451,S,07701.4973,W,14.82,202.58,140526,,,A*54,0
1778780106187009456,$GPGGA,173718.000,1205.9488,S,07701.4988,W,1,09,0.9,151.9,M,8.4,M,,0000*6F,0
1778780106317613790,$GPGSA,M,3,20,05,19,21,17,24,14,30,11,,,,1.6,0.9,1.4*3F,0
1778780106478046234,$GPGSV,3,1,12,20,61,174,38,05,47,312,40,19,40,074,40,21,37,353,38*74,0
1778780106638434512,$GPGSV,3,2,12,17,29,106,35,24,20,228,35,14,14,145,16,30,09,112,20*70,0
1778780106789688049,$GPGSV,3,3,12,11,08,005,19,46,29,279,32,13,57,143,,26,49,108,*7D,0
1778780106956968382,$GPRMC,173718.000,A,1205.9488,S,07701.4988,W,13.83,201.63,140526,,,A*56,0
1778780107180503808,$GPGGA,173719.000,1205.9522,S,07701.5001,W,1,06,1.2,151.8,M,8.4,M,,0000*62,0
1778780107297367622,$GPGSA,M,3,20,05,19,21,24,11,,,,,,,2.2,1.2,1.8*3E,0
1778780107464669104,$GPRMC,173719.000,A,1205.9522,S,07701.5001,W,12.56,200.17,140526,,,A*54,0
1778780108182332437,$GPGGA,173720.000,1205.9553,S,07701.5014,W,1,07,1.0,151.7,M,8.4,M,,0000*66,0
1778780108303784455,$GPGSA,M,3,20,05,19,21,17,24,11,,,,,,2.0,1.0,1.7*37,0
1778780108471067344,$GPRMC,173720.000,A,1205.9553,S,07701.5014,W,11.39,202.56,140526,,,A*51,0
1778780109180842232,$GPGGA,173721.000,1205.9578,S,07701.5025,W,1,07,1.0,151.7,M,8.4,M,,0000*6C,0
1778780109302291158,$GPGSA,M,3,20,05,19,21,17,24,11,,,,,,2.0,1.0,1.7*37,0
1778780109467276806,$GPRMC,173721.000,A,1205.9578,S,07701.5025,W,9.00,203.63,140526,,,A*6F,0
1778780110180988880,$GPGGA,173722.000,1205.9597,S,07701.5033,W,1,07,1.0,151.7,M,8.4,M,,0000*69,0
1778780110302455528,$GPGSA,M,3,20,05,19,21,17,24,11,,,,,,2.0,1.0,1.7*37,0
1778780110467469009,$GPRMC,173722.000,A,1205.9597,S,07701.5033,W,5.98,203.37,140526,,,A*66,0
1778780111184954842,$GPGGA,173723.000,1205.9608,S,07701.5039,W,1,08,0.9,151.9,M,8.4,M,,0000*6E,0
1778780111310964083,$GPGSA,M,3,20,05,19,21,17,24,14,11,,,,,1.8,0.9,1.5*33,0
1778780111471363972,$GPGSV,3,1,12,20,61,174,34,05,47,312,36,19,40,074,23,21,37,353,34*70,0
1778780111631761657,$GPGSV,3,2,12,17,29,106,17,24,20,228,25,14,14,145,21,11,08,005,17*74,0
1778780111783044101,$GPGSV,3,3,12,30,09,112,04,46,29,279,38,13,57,143,,26,49,108,*7E,0
1778780111948065675,$GPRMC,173723.000,A,1205.9608,S,07701.5039,W,3.74,204.48,140526,,,A*63,0
1778780112184854471,$GPGGA,173724.000,1205.9616,S,07701.5044,W,1,08,0.9,152.0,M,8.4,M,,0000*66,0
1778780112310885416,$GPGSA,M,3,20,05,19,21,17,24,14,11,,,,,1.8,0.9,1.5*33,0
1778780112475898786,$GPRMC,173724.000,A,1205.9616,S,07701.5044,W,3.63,207.09,140526,,,A*61,0
1778780113184809637,$GPGGA,173725.000,1205.9625,S,07701.5049,W,1,08,0.9,152.1,M,8.4,M,,0000*6B,0
1778780113310851693,$GPGSA,M,3,20,05,19,21,17,24,14,11,,,,,1.8,0.9,1.5*33,0
1778780113475842156,$GPRMC,173725.000,A,1205.9625,S,07701.5049,W,3.82,204.36,140526,,,A*6D,0
1778780114187061563,$GPGGA,173726.000,1205.9635,S,07701.5055,W,1,09,0.9,152.3,M,8.4,M,,0000*67,0
1778780114317679155,$GPGSA,M,3,20,05,19,21,17,24,14,30,11,,,,1.6,0.9,1.4*3F,0
1778780114482682933,$GPRMC,173726.000,A,1205.9635,S,07701.5055,W,5.90,203.39,140526,,,A*6F,0
1778780115188470340,$GPGGA,173727.000,1205.9648,S,07701.5061,W,1,09,0.9,152.7,M,8.4,M,,0000*6F,0
1778780115319096284,$GPGSA,M,3,20,05,19,21,17,24,14,30,11,,,,1.6,0.9,1.4*3F,0
1778780115484102006,$GPRMC,173727.000,A,1205.9648,S,07701.5061,W,6.45,204.21,140526,,,A*66,0
1778780116186581988,$GPGGA,173728.000,1205.9664,S,07701.5070,W,1,09,0.9,152.8,M,8.4,M,,0000*61,0
1778780116317167950,$GPGSA,M,3,20,05,19,21,17,24,14,30,11,,,,1.6,0.9,1.4*3F,0
1778780116477573747,$GPGSV,3,1,12,20,61,174,41,05,47,312,43,19,40,074,25,21,37,353,40*75,0
1778780116638003950,$GPGSV,3,2,12,17,29,106,36,24,20,228,25,14,14,145,28,30,09,112,26*79,0
1778780116793822358,$GPGSV,3,3,12,11,08,005,18,06,00,041,11,46,29,279,30,13,57,143,*7D,0
1778780116958824839,$GPRMC,173728.000,A,1205.9664,S,07701.5070,W,7.54,204.39,140526,,,A*6F,0
1778780117187759320,$GPGGA,173729.000,1205.9680,S,07701.5077,W,1,09,0.9,152.6,M,8.4,M,,0000*63,0
1778780117318369079,$GPGSA,M,3,20,05,19,21,17,24,14,30,11,,,,1.6,0.9,1.4*3F,0
1778780117483366042,$GPRMC,173729.000,A,1205.9680,S,07701.5077,W,7.80,203.49,140526,,,A*6A,0
1778780118187509783,$GPGGA,173730.000,1205.9697,S,07701.5083,W,1,09,0.9,152.7,M,8.4,M,,0000*67,0
1778780118318134412,$GPGSA,M,3,20,05,19,21,17,24,14,30,11,,,,1.6,0.9,1.4*3F,0
1778780118483125190,$GPRMC,173730.000,A,1205.9697,S,07701.5083,W,7.63,202.50,140526,,,A*6B,0
1778780119187053578,$GPGGA,173731.000,1205.9713,S,07701.5085,W,1,09,0.9,152.7,M,8.4,M,,0000*6D,0
1778780119317670930,$GPGSA,M,3,20,05,19,21,17,24,14,30,11,,,,1.6,0.9,1.4*3F,0
1778780119482667393,$GPRMC,173731.000,A,1205.9713,S,07701.5085,W,6.73,197.58,140526,,,A*66,0
1778780120188312300,$GPGGA,173732.000,1205.9731,S,07701.5085,W,1,09,0.9,152.3,M,8.4,M,,0000*6A,0
1778780120318870448,$GPGSA,M,3,20,05,19,21,17,24,14,30,11,,,,1.6,0.9,1.4*3F,0
1778780120483862818,$GPRMC,173732.000,A,1205.9731,S,07701.5085,W,6.65,183.65,140526,,,A*69,0
1778780121185916836,$GPGGA,173733.000,1205.9749,S,07701.5077,W,1,09,0.9,152.1,M,8.4,M,,0000*6B,0
1778780121316526725,$GPGSA,M,3,20,05,19,21,17,24,14,30,11,,,,1.6,0.9,1.4*3F,0
1778780121476943429,$GPGSV,3,1,12,20,61,174,40,05,47,312,45,19,40,074,38,21,37,353,43*7D,0
1778780121637354781,$GPGSV,3,2,12,17,29,106,37,24,20,228,22,14,14,145,37,30,09,112,25*72,0
1778780121788589188,$GPGSV,3,3,12,11,08,005,24,46,29,279,33,13,57,143,,26,49,108,*72,0
1778780121953586947,$GPRMC,173733.000,A,1205.9749,S,07701.5077,W,7.77,157.75,140526,,,A*60,0
1778780122192340521,$GPGGA,173734.000,1205.9767,S,07701.5061,W,1,09,0.9,152.2,M,8.4,M,,0000*64,0
1778780122322947188,$GPGSA,M,3,20,05,19,21,17,24,14,30,11,,,,1.6,0.9,1.4*3F,0
1778780122487935743,$GPRMC,173734.000,A,1205.9767,S,07701.5061,W,8.93,137.43,140526,,,A*6A,0
1778780123185633094,$GPGGA,173735.000,1205.9784,S,07701.5040,W,1,09,0.9,149.9,M,8.4,M,,0000*6A,0
1778780123316223057,$GPGSA,M,3,20,05,19,21,17,24,14,30,11,,,,1.6,0.9,1.4*3F,0
1778780123481231002,$GPRMC,173735.000,A,1205.9784,S,07701.5040,W,9.41,124.31,140526,,,A*6C,0
1778780124185982353,$GPGGA,173736.000,1205.9800,S,07701.5010,W,1,09,0.9,148.2,M,8.4,M,,0000*65,0
1778780124316601927,$GPGSA,M,3,20,05,19,21,17,24,14,30,11,,,,1.6,0.9,1.4*3F,0
1778780124483956075,$GPRMC,173736.000,A,1205.9800,S,07701.5010,W,10.16,116.64,140526,,,A*52,0
1778780125185724241,$GPGGA,173737.000,1205.9813,S,07701.4977,W,1,08,1.0,147.5,M,8.4,M,,0000*6E,0
1778780125311767593,$GPGSA,M,3,20,05,19,21,17,24,14,30,,,,,2.1,1.0,1.8*3F,0
1778780125479108908,$GPRMC,173737.000,A,1205.9813,S,07701.4977,W,11.01,114.76,140526,,,A*5E,0
1778780126187217445,$GPGGA,173738.000,1205.9827,S,07701.4945,W,1,09,0.9,146.8,M,8.4,M,,0000*62,0
1778780126317759741,$GPGSA,M,3,20,05,19,21,17,24,14,30,11,,,,1.6,0.9,1.4*3F,0
1778780126478173167,$GPGSV,3,1,12,20,61,174,43,05,47,312,45,19,40,074,37,21,37,353,37*72,0
1778780126638571092,$GPGSV,3,2,12,17,29,106,43,24,20,228,37,14,14,145,37,30,09,112,38*79,0
1778780126794408555,$GPGSV,3,3,12,11,08,005,11,06,00,041,17,46,29,279,44,13,57,143,*71,0
1778780126961700463,$GPRMC,173738.000,A,1205.9827,S,07701.4945,W,11.72,115.11,140526,,,A*53,0
1778780127190637759,$GPGGA,173739.000,1205.9843,S,07701.4913,W,1,09,0.9,145.9,M,8.4,M,,0000*60,0
1778780127321261518,$GPGSA,M,3,20,05,19,21,17,24,14,30,11,,,,1.6,0.9,1.4*3F,0
1778780127488548092,$GPRMC,173739.000,A,1205.9843,S,07701.4913,W,12.10,115.71,140526,,,A*52,0
1778780128189972110,$GPGGA,173740.000,1205.9859,S,07701.4879,W,1,09,0.9,145.4,M,8.4,M,,0000*65,0
1778780128320592073,$GPGSA,M,3,20,05,19,21,17,24,14,30,11,,,,1.6,0.9,1.4*3F,0
1778780128487874239,$GPRMC,173740.000,A,1205.9859,S,07701.4879,W,12.61,114.96,140526,,,A*54,0
1778780129189716646,$GPGGA,173741.000,1205.9874,S,07701.4847,W,2,05,2.2,145.5,M,8.4,M,2.0,0000*4D,0
1778780129302004646,$GPGSA,M,3,20,05,19,21,11,,,,,,,,4.1,2.2,3.5*31,0
1778780129469285646,$GPRMC,173741.000,A,1205.9874,S,07701.4847,W,12.67,114.97,140526,,,D*55,0
1778780130189879664,$GPGGA,173742.000,1205.9888,S,07701.4814,W,2,05,2.2,145.6,M,8.4,M,2.0,0000*48,0
1778780130302154979,$GPGSA,M,3,20,05,19,21,11,,,,,,,,4.1,2.2,3.5*31,0
