Unix_time,GPS_data,flagStop
1778779480256179830,$GPGSA,M,3,05,21,17,24,14,30,11,,,,,,2.1,0.9,1.9*3C,0
1778779480256546607,$GPRMC,172620.000,A,1205.9942,S,07701.4549,W,0.00,0.00,140526,,,A*68,0
1778779480257261293,$GPGGA,172621.000,1205.9940,S,07701.4549,W,1,07,0.9,150.4,M,8.4,M,,0000*6F,0
1778779480258019922,$GPGSA,M,3,05,21,17,24,14,30,11,,,,,,2.1,0.9,1.9*3C,0
1778779480258550089,$GPRMC,172621.000,A,1205.9940,S,07701.4549,W,0.11,0.00,140526,,,A*6B,0
1778779480259227848,$GPGGA,172622.000,1205.9940,S,07701.4549,W,1,07,0.9,150.4,M,8.4,M,,0000*6C,0
1778779480259963644,$GPGSA,M,3,05,21,17,24,14,30,11,,,,,,2.1,0.9,1.9*3C,0
1778779480260476330,$GPRMC,172622.000,A,1205.9940,S,07701.4549,W,0.01,0.00,140526,,,A*69,0
1778779480261162644,$GPGGA,172623.000,1205.9940,S,07701.4549,W,1,07,0.9,150.4,M,8.4,M,,0000*6D,0
1778779480261898496,$GPGSA,M,3,05,21,17,24,14,30,11,,,,,,2.1,0.9,1.9*3C,0
1778779480262412922,$GPGSV,3,1,12,05,51,305,44,21,42,350,43,17,30,100,43,24,19,233,40*70,0
1778779480263091441,$GPGSV,3,2,12,14,18,146,43,30,10,117,37,11,09,001,20,13,55,151,45*7E,0
1778779480263771718,$GPGSV,3,3,12,44,42,284,39,26,48,117,,28,45,155,,23,26,060,*7E,0
1778779480264387607,$GPRMC,172623.000,A,1205.9940,S,07701.4549,W,0.00,0.00,140526,,,A*69,0
1778779480265072163,$GPGGA,172624.000,1205.9940,S,07701.4549,W,1,07,0.9,150.4,M,8.4,M,,0000*6A,0
1778779480265797052,$GPGSA,M,3,05,21,17,24,14,30,11,,,,,,2.1,0.9,1.9*3C,0
1778779480266300089,$GPRMC,172624.000,A,1205.9940,S,07701.4549,W,0.00,0.00,140526,,,A*6E,0
1778779480266963737,$GPGGA,172625.000,1205.9940,S,07701.4549,W,1,07,0.9,150.4,M,8.4,M,,0000*6B,0
1778779480267682830,$GPGSA,M,3,05,21,17,24,14,30,11,,,,,,2.1,0.9,1.9*3C,0
1778779480268123033,$GPRMC,172625.000,A,1205.9940,S,07701.4549,W,0.00,0.00,140526,,,A*6F,0
1778779480268789459,$GPGGA,172626.000,1205.9940,S,07701.4549,W,1,07,0.9,150.4,M,8.4,M,,0000*68,0
1778779480269031570,$GPGSA,M,3,05,21,17,24,14,30,11,,,,,,2.1,0.9,1.9*3C,0
1778779480269130422,$GPRMC,172626.000,A,1205.9940,S,07701.4549,W,0.00,0.00,140526,,,A*6C,0
1778779480269261718,$GPGGA,172627.000,1205.9940,S,07701.4549,W,1,07,0.9,150.4,M,8.4,M,,0000*69,0
1778779480269402959,$GPGSA,M,3,05,21,17,24,14,30,11,,,,,,2.1,0.9,1.9*3C,0
1778779480269502533,$GPRMC,172627.000,A,1205.9940,S,07701.4549,W,0.00,0.00,140526,,,A*6D,0
1778779480269633959,$GPGGA,172628.000,1205.9940,S,07701.4549,W,1,07,0.9,150.4,M,8.4,M,,0000*66,0
1778779480269776700,$GPGSA,M,3,05,21,17,24,14,30,11,,,,,,2.1,0.9,1.9*3C,0
1778779480269876330,$GPGSV,3,1,12,05,51,305,44,21,42,350,43,17,30,100,43,24,19,233,40*70,0
1778779480270008033,$GPGSV,3,2,12,14,18,146,43,30,10,117,37,11,09,001,22,13,55,151,44*7D,0
1778779480270139459,$GPGSV,3,3,12,44,42,284,39,26,48,117,,28,45,155,,23,26,060,*7E,0
1778779480270259367,$GPRMC,172628.000,A,1205.9940,S,07701.4549,W,0.00,0.00,140526,,,A*62,0
1778779480270390385,$GPGGA,172629.000,1205.9940,S,07701.4549,W,1,07,0.9,150.3,M,8.4,M,,0000*60,0
1778779480270532904,$GPGSA,M,3,05,21,17,24,14,30,11,,,,,,2.1,0.9,1.9*3C,0
1778779480270632255,$GPRMC,172629.000,A,1205.9940,S,07701.4549,W,0.00,0.00,140526,,,A*63,0
1778779480270762848,$GPGGA,172630.000,1205.9940,S,07701.4549,W,1,07,0.9,150.3,M,8.4,M,,0000*68,0
1778779480270904311,$GPGSA,M,3,05,21,17,24,14,30,11,,,,,,2.1,0.9,1.9*3C,0
1778779480271003237,$GPRMC,172630.000,A,1205.9940,S,07701.4549,W,0.00,0.00,140526,,,A*6B,0
1778779480271134885,$GPGGA,172631.000,1205.9940,S,07701.4549,W,1,07,0.9,150.3,M,8.4,M,,0000*69,0
1778779480271277774,$GPGSA,M,3,05,21,17,24,14,30,11,,,,,,2.1,0.9,1.9*3C,0
1778779480271377607,$GPRMC,172631.000,A,1205.9940,S,07701.4549,W,0.00,0.00,140526,,,A*6A,0
1778779480271509255,$GPGGA,172632.000,1205.9940,S,07701.4549,W,1,07,0.9,150.3,M,8.4,M,,0000*6A,0
1778779480271652070,$GPGSA,M,3,05,21,17,24,14,30,11,,,,,,2.1,0.9,1.9*3C,0
1778779480271752070,$GPRMC,172632.000,A,1205.9940,S,07701.4549,W,0.00,0.00,140526,,,A*69,0
1778779480271883626,$GPGGA,172633.000,1205.9940,S,07701.4549,W,1,07,0.9,150.3,M,8.4,M,,0000*6B,0
1778779480272026441,$GPGSA,M,3,05,21,17,24,14,30,11,,,,,,2.1,0.9,1.9*3C,0
1778779480272126255,$GPGSV,3,1,12,05,51,305,44,21,42,350,43,17,30,100,43,24,19,233,39*7E,0
1778779480272350867,$GPGSV,3,2,12,14,18,146,43,30,10,117,37,11,09,001,24,13,55,151,45*7A,0
1778779480272483144,$GPGSV,3,3,12,44,42,284,39,26,48,117,,28,45,155,,23,26,060,*7E,0
1778779480272603237,$GPRMC,172633.000,A,1205.9940,S,07701.4549,W,0.00,0.00,140526,,,A*68,0
1778779480273888755,$GPGGA,172634.000,1205.9940,S,07701.4549,W,1,07,0.9,150.3,M,8.4,M,,0000*6C,0
1778779480274606570,$GPGSA,M,3,05,21,17,24,14,30,11,,,,,,2.1,0.9,1.9*3C,0
1778779480275049144,$GPRMC,172634.000,A,1205.9940,S,07701.4549,W,0.00,0.00,140526,,,A*6F,0
1778779480275710311,$GPGGA,172635.000,1205.9940,S,07701.4549,W,1,07,0.9,150.3,M,8.4,M,,0000*6D,0
1778779480276024922,$GPGSA,M,3,05,21,17,24,14,30,11,,,,,,2.1,0.9,1.9*3C,0
1778779480276123978,$GPRMC,172635.000,A,1205.9940,S,07701.4549,W,0.00,0.00,140526,,,A*6E,0
1778779480276253718,$GPGGA,172636.000,1205.9940,S,07701.4549,W,1,07,0.9,150.3,M,8.4,M,,0000*6E,0
1778779480276395774,$GPGSA,M,3,05,21,17,24,14,30,11,,,,,,2.1,0.9,1.9*3C,0
1778779480276494348,$GPRMC,172636.000,A,1205.9940,S,07701.4549,W,0.00,0.00,140526,,,A*6D,0
1778779480276624570,$GPGGA,172637.000,1205.9940,S,07701.4549,W,1,07,0.9,150.3,M,8.4,M,,0000*6F,0
1778779480276791996,$GPGSA,M,3,05,21,17,24,14,30,11,,,,,,2.1,0.9,1.9*3C,0
1778779480276891144,$GPRMC,172637.000,A,1205.9940,S,07701.4549,W,0.00,0.00,140526,,,A*6C,0
1778779480277021607,$GPGGA,172638.000,1205.9939,S,07701.4548,W,1,07,0.9,149.9,M,8.4,M,,0000*6D,0
1778779480277163441,$GPGSA,M,3,05,21,17,24,14,30,11,,,,,,2.1,0.9,1.9*3C,0
1778779480277262385,$GPGSV,3,1,12,05,51,305,44,21,42,350,44,17,30,100,43,24,19,233,39*79,0
1778779480277392755,$GPGSV,3,2,12,14,18,146,43,30,10,117,38,11,09,001,24,13,55,151,45*75,0
1778779480277523385,$GPGSV,3,3,12,19,01,339,45,44,42,284,38,26,48,117,,28,45,155,*7D,0
1778779480277646885,$GPRMC,172638.000,A,1205.9939,S,07701.4548,W,0.09,0.00,140526,,,A*65,0
1778779480277777755,$GPGGA,172639.000,1205.9939,S,07701.4548,W,1,07,0.9,149.9,M,8.4,M,,0000*6C,0
1778779480277919830,$GPGSA,M,3,05,21,17,24,14,30,11,,,,,,2.1,0.9,1.9*3C,0
1778779480278019144,$GPRMC,172639.000,A,1205.9939,S,07701.4548,W,0.01,0.00,140526,,,A*6C,0
1778779480278150163,$GPGGA,172640.000,1205.9939,S,07701.4548,W,1,07,0.9,149.9,M,8.4,M,,0000*62,0
1778779480278292126,$GPGSA,M,3,05,21,17,24,14,30,11,,,,,,2.1,0.9,1.9*3C,0
1778779480278391496,$GPRMC,172640.000,A,1205.9939,S,07701.4548,W,0.00,0.00,140526,,,A*63,0
1778779480278522422,$GPGGA,172641.000,1205.9939,S,07701.4548,W,1,07,0.9,149.9,M,8.4,M,,0000*63,0
1778779480278664515,$GPGSA,M,3,05,21,17,24,14,30,11,,,,,,2.1,0.9,1.9*3C,0
1778779480278763830,$GPRMC,172641.000,A,1205.9939,S,07701.4548,W,0.00,0.00,140526,,,A*62,0
1778779480278894681,$GPGGA,172642.000,1205.9938,S,07701.4548,W,1,07,0.9,149.6,M,8.4,M,,0000*6E,0
1778779480279036774,$GPGSA,M,3,05,21,17,24,14,30,11,,,,,,2.1,0.9,1.9*3C,0
1778779480279135978,$GPRMC,172642.000,A,1205.9938,S,07701.4548,W,0.08,0.00,140526,,,A*68,0
1778779480279267274,$GPGGA,172643.000,1205.9938,S,07701.4548,W,1,07,0.9,149.6,M,8.4,M,,0000*6F,0
1778779480279409441,$GPGSA,M,3,05,21,17,24,14,30,11,,,,,,2.1,0.9,1.9*3C,0
1778779480279508737,$GPGSV,3,1,12,05,51,305,44,21,42,350,44,17,30,100,44,24,19,233,39*7E,0
1778779480279639663,$GPGSV,3,2,12,14,18,146,42,30,10,117,36,11,09,001,24,13,55,151,45*7A,0
1778779480279770607,$GPGSV,3,3,12,19,01,339,45,44,42,284,39,26,48,117,,28,45,155,*7C,0
1778779480279894107,$GPRMC,172643.000,A,1205.9938,S,07701.4548,W,0.01,0.00,140526,,,A*60,0
1778779480280025052,$GPGGA,172644.000,1205.9938,S,07701.4548,W,1,07,0.9,149.5,M,8.4,M,,0000*6B,0
1778779480280166978,$GPGSA,M,3,05,21,17,24,14,30,11,,,,,,2.1,0.9,1.9*3C,0
1778779480280266330,$GPRMC,172644.000,A,1205.9938,S,07701.4548,W,0.00,0.00,140526,,,A*66,0
1778779480280397126,$GPGGA,172645.000,1205.9938,S,07701.4548,W,1,07,0.9,149.5,M,8.4,M,,0000*6A,0
1778779480280539163,$GPGSA,M,3,05,21,17,24,14,30,11,,,,,,2.1,0.9,1.9*3C,0
1778779480280645367,$GPRMC,172645.000,A,1205.9938,S,07701.4548,W,0.00,0.00,140526,,,A*67,0
1778779480280774959,$GPGGA,172646.000,1205.9938,S,07701.4548,W,1,07,0.9,149.5,M,8.4,M,,0000*69,0
1778779480280916330,$GPGSA,M,3,05,21,17,24,14,30,11,,,,,,2.1,0.9,1.9*3C,0
1778779480281037311,$GPRMC,172646.000,A,1205.9938,S,07701.4548,W,0.00,0.00,140526,,,A*64,0
1778779480281169478,$GPGGA,172647.000,1205.9938,S,07701.4548,W,1,07,0.9,149.5,M,8.4,M,,0000*68,0
1778779480281311774,$GPGSA,M,3,05,21,17,24,14,30,11,,,,,,2.1,0.9,1.9*3C,0
1778779480281410867,$GPRMC,172647.000,A,1205.9938,S,07701.4548,W,0.00,0.00,140526,,,A*65,0
1778779480281541015,$GPGGA,172648.000,1205.9938,S,07701.4548,W,1,07,0.9,149.5,M,8.4,M,,0000*67,0
1778779480281681996,$GPGSA,M,3,05,21,17,24,14,30,11,,,,,,2.1,0.9,1.9*3C,0
1778779480281781367,$GPGSV,3,1,12,05,51,305,44,21,42,350,44,17,30,100,44,24,19,233,39*7E,0
1778779480281912496,$GPGSV,3,2,12,14,18,146,43,30,10,117,35,11,09,001,25,13,55,151,46*7A,0
1778779480282043644,$GPGSV,3,3,12,19,01,339,45,44,42,284,39,26,48,117,,28,45,155,*7C,0
1778779480282167163,$GPRMC,172648.000,A,1205.9938,S,07701.4548,W,0.00,0.00,140526,,,A*6A,0
1778779480282298255,$GPGGA,172649.000,1205.9938,S,07701.4548,W,1,07,0.9,149.5,M,8.4,M,,0000*66,0
1778779480282440607,$GPGSA,M,3,05,21,17,24,14,30,11,,,,,,2.1,0.9,1.9*3C,0
1778779480282540015,$GPRMC,172649.000,A,1205.9938,S,07701.4548,W,0.00,0.00,140526,,,A*6B,0
1778779480282671089,$GPGGA,172650.000,1205.9938,S,07701.4548,W,1,07,0.9,149.5,M,8.4,M,,0000*6E,0
1778779480282813515,$GPGSA,M,3,05,21,17,24,14,30,11,,,,,,2.1,0.9,1.9*3C,0
1778779480282912996,$GPRMC,172650.000,A,1205.9938,S,07701.4548,W,0.00,0.00,140526,,,A*63,0
1778779480283044070,$GPGGA,172651.000,1205.9937,S,07701.4548,W,1,07,0.9,149.5,M,8.4,M,,0000*60,0
1778779480283186404,$GPGSA,M,3,05,21,17,24,14,30,11,,,,,,2.1,0.9,1.9*3C,0
1778779480283285941,$GPRMC,172651.000,A,1205.9937,S,07701.4548,W,0.00,0.00,140526,,,A*6D,0
1778779480283420292,$GPGGA,172652.000,1205.9937,S,07701.4548,W,1,07,0.9,149.5,M,8.4,M,,0000*63,0
1778779480299812774,$GPGSA,M,3,05,21,17,24,14,30,11,,,,,,2.1,0.9,1.9*3C,0
1778779480460269200,$GPRMC,172652.000,A,1205.9937,S,07701.4548,W,0.00,0.00,140526,,,A*6E,0
1778779481178770570,$GPGGA,172653.000,1205.9937,S,07701.4548,W,1,07,0.9,149.5,M,8.4,M,,0000*62,0
1778779481300211292,$GPGSA,M,3,05,21,17,24,14,30,11,,,,,,2.1,0.9,1.9*3C,0
1778779481460607829,$GPGSV,3,1,12,05,51,305,44,21,42,350,44,17,30,100,45,24,19,233,39*7F,0
1778779481621009329,$GPGSV,3,2,12,14,18,146,43,30,10,117,35,11,09,001,25,13,55,151,46*7A,0
1778779481772273218,$GPGSV,3,3,12,19,01,339,46,44,42,284,40,26,48,117,,28,45,155,*71,0
1778779481932654662,$GPRMC,172653.000,A,1205.9937,S,07701.4548,W,0.00,0.00,140526,,,A*6F,0
1778779482173088273,$GPGGA,172654.000,1205.9937,S,07701.4548,W,1,07,0.9,149.5,M,8.4,M,,0000*65,0
1778779482294539106,$GPGSA,M,3,05,21,17,24,14,30,11,,,,,,2.1,0.9,1.9*3C,0
1778779482454960013,$GPRMC,172654.000,A,1205.9937,S,07701.4548,W,0.00,0.00,140526,,,A*68,0
1778779483179065328,$GPGGA,172655.000,1205.9937,S,07701.4548,W,1,07,0.9,149.5,M,8.4,M,,0000*64,1
1778779483300567550,$GPGSA,M,3,05,21,17,24,14,30,11,,,,,,2.1,0.9,1.9*3C,1
1778779483460968383,$GPRMC,172655.000,A,1205.9937,S,07701.4548,W,0.00,0.00,140526,,,A*69,1
1778779484178393753,$GPGGA,172656.000,1205.9937,S,07701.4548,W,1,07,0.9,149.5,M,8.4,M,,0000*67,1
1778779484299892216,$GPGSA,M,3,05,21,17,24,14,30,11,,,,,,2.1,0.9,1.9*3C,1
1778779484460260512,$GPRMC,172656.000,A,1205.9937,S,07701.4548,W,0.00,0.00,140526,,,A*6A,1
1778779485178416253,$GPGGA,172657.000,1205.9937,S,07701.4548,W,1,07,0.9,149.5,M,8.4,M,,0000*66,1
1778779485299801364,$GPGSA,M,3,05,21,17,24,14,30,11,,,,,,2.1,0.9,1.9*3C,1
1778779485460252086,$GPRMC,172657.000,A,1205.9937,S,07701.4548,W,0.00,0.00,140526,,,A*6B,1
1778779486177710789,$GPGGA,172658.000,1205.9937,S,07701.4548,W,1,07,0.9,149.5,M,8.4,M,,0000*69,1
1778779486299149178,$GPGSA,M,3,05,21,17,24,14,30,11,,,,,,2.1,0.9,1.9*3C,1
1778779486459573455,$GPGSV,3,1,12,05,51,305,44,21,42,350,44,17,30,100,45,24,19,233,38*7E,1
1778779486619955529,$GPGSV,3,2,12,14,18,146,43,30,10,117,35,11,09,001,25,13,55,151,46*7A,1
1778779486771215066,$GPGSV,3,3,12,19,01,339,45,44,42,284,39,26,48,117,,28,45,155,*7C,1
1778779486931635270,$GPRMC,172658.000,A,1205.9937,S,07701.4548,W,0.00,0.00,140526,,,A*64,1
1778779487178280140,$GPGGA,172659.000,1205.9937,S,07701.4548,W,1,07,0.9,149.5,M,8.4,M,,0000*68,1
1778779487299750177,$GPGSA,M,3,05,21,17,24,14,30,11,,,,,,2.1,0.9,1.9*3C,1
1778779487460143955,$GPRMC,172659.000,A,1205.9937,S,07701.4548,W,0.00,0.00,140526,,,A*65,1
1778779488178062695,$GPGGA,172700.000,1205.9937,S,07701.4548,W,1,07,0.9,149.5,M,8.4,M,,0000*65,1
1778779488299508936,$GPGSA,M,3,05,21,17,24,14,30,11,,,,,,2.1,0.9,1.9*3C,1
1778779488459862325,$GPRMC,172700.000,A,1205.9937,S,07701.4548,W,0.00,0.00,140526,,,A*68,1
1778779489193641046,$GPGGA,172701.000,1205.9937,S,07701.4548,W,1,08,0.9,149.5,M,8.4,M,,0000*6B,1
1778779489319666713,$GPGSA,M,3,05,21,17,24,14,30,11,19,,,,,1.9,0.9,1.7*31,1
1778779489480084417,$GPRMC,172701.000,A,1205.9937,S,07701.4548,W,0.00,0.00,140526,,,A*69,1
1778779490180436194,$GPGGA,172702.000,1205.9937,S,07701.4548,W,1,08,0.9,149.5,M,8.4,M,,0000*68,1
1778779490306510138,$GPGSA,M,3,05,21,19,17,24,14,30,11,,,,,1.9,0.9,1.7*31,1
1778779490466911749,$GPRMC,172702.000,A,1205.9937,S,07701.4548,W,0.00,0.00,140526,,,A*6A,1
1778779491181649749,$GPGGA,172703.000,1205.9937,S,07701.4548,W,1,08,0.9,149.5,M,8.4,M,,0000*69,1
1778779491307661601,$GPGSA,M,3,05,21,19,17,24,14,30,11,,,,,1.9,0.9,1.7*31,1
1778779491468116971,$GPGSV,3,1,12,05,50,306,44,21,42,350,44,19,39,067,45,17,30,101,45*78,1
1778779491628531693,$GPGSV,3,2,12,24,19,232,38,14,17,146,42,30,10,116,36,11,09,001,18*7B,1
1778779491779736878,$GPGSV,3,3,12,13,55,150,46,44,42,284,40,26,48,116,,28,45,155,*76,1
1778779491940125600,$GPRMC,172703.000,A,1205.9937,S,07701.4548,W,0.00,0.00,140526,,,A*6B,1
1778779492181614322,$GPGGA,172704.000,1205.9937,S,07701.4548,W,1,08,0.9,149.5,M,8.4,M,,0000*6E,1
1778779492307624026,$GPGSA,M,3,05,21,19,17,24,14,30,11,,,,,1.9,0.9,1.7*31,1
1778779492468024619,$GPRMC,172704.000,A,1205.9937,S,07701.4548,W,0.00,0.00,140526,,,A*6C,1
1778779493181132803,$GPGGA,172705.000,1205.9937,S,07701.4548,W,1,08,0.9,149.5,M,8.4,M,,0000*6F,1
1778779493307149803,$GPGSA,M,3,05,21,19,17,24,14,30,11,,,,,1.9,0.9,1.7*31,1
1778779493467619988,$GPRMC,172705.000,A,1205.9937,S,07701.4548,W,0.00,0.00,140526,,,A*6D,1
1778779494180731729,$GPGGA,172706.000,1205.9937,S,07701.4548,W,1,08,0.9,149.1,M,8.4,M,,0000*68,1
1778779494306753303,$GPGSA,M,3,05,21,19,17,24,14,30,11,,,,,1.9,0.9,1.7*31,1
1778779494467155617,$GPRMC,172706.000,A,1205.9937,S,07701.4548,W,0.07,0.00,140526,,,A*69,1
1778779495177493228,$GPGGA,172707.000,1205.9937,S,07701.4548,W,1,08,0.9,149.1,M,8.4,M,,0000*69,1
1778779495303518858,$GPGSA,M,3,05,21,19,17,24,14,30,11,,,,,1.9,0.9,1.7*31,1
1778779495463940080,$GPRMC,172707.000,A,1205.9937,S,07701.4548,W,0.01,0.00,140526,,,A*6E,1
1778779496181612376,$GPGGA,172708.000,1205.9937,S,07701.4548,W,1,08,0.9,149.1,M,8.4,M,,0000*66,1
1778779496307638635,$GPGSA,M,3,05,21,19,17,24,14,30,11,,,,,1.9,0.9,1.7*31,1
1778779496468100987,$GPGSV,3,1,12,05,50,306,43,21,42,350,44,19,39,067,45,17,30,101,46*7C,1
1778779496628474042,$GPGSV,3,2,12,24,19,232,39,14,17,146,42,30,10,116,36,11,09,001,20*71,1
1778779496779709246,$GPGSV,3,3,12,13,55,150,45,44,42,284,39,26,48,116,,28,45,155,*7B,1
1778779496940143949,$GPRMC,172708.000,A,1205.9937,S,07701.4548,W,0.00,0.00,140526,,,A*60,1
1778779497181182449,$GPGGA,172709.000,1205.9937,S,07701.4549,W,1,08,0.9,148.8,M,8.4,M,,0000*6E,1
1778779497307206597,$GPGSA,M,3,05,21,19,17,24,14,30,11,,,,,1.9,0.9,1.7*31,1
1778779497467595190,$GPRMC,172709.000,A,1205.9937,S,07701.4549,W,0.04,0.00,140526,,,A*64,1
1778779498181113800,$GPGGA,172710.000,1205.9937,S,07701.4549,W,1,08,0.9,148.8,M,8.4,M,,0000*66,1
1778779498307130985,$GPGSA,M,3,05,21,19,17,24,14,30,11,,,,,1.9,0.9,1.7*31,1
1778779498467544893,$GPRMC,172710.000,A,1205.9937,S,07701.4549,W,0.00,0.00,140526,,,A*68,1
1778779499181269022,$GPGGA,172711.000,1205.9937,S,07701.4549,W,1,08,0.9,148.8,M,8.4,M,,0000*67,1
1778779499307295337,$GPGSA,M,3,05,21,19,17,24,14,30,11,,,,,1.9,0.9,1.7*31,1
1778779499467718503,$GPRMC,172711.000,A,1205.9937,S,07701.4549,W,0.00,0.00,140526,,,A*69,1
1778779500181432188,$GPGGA,172712.000,1205.9937,S,07701.4549,W,1,08,0.9,148.8,M,8.4,M,,0000*64,1
1778779500307457373,$GPGSA,M,3,05,21,19,17,24,14,30,11,,,,,1.9,0.9,1.7*31,1
1778779500467875225,$GPRMC,172712.000,A,1205.9937,S,07701.4549,W,0.00,0.00,140526,,,A*6A,1
1778779501182030002,$GPGGA,172713.000,1205.9936,S,07701.4549,W,1,08,0.9,148.5,M,8.4,M,,0000*69,1
1778779501308051224,$GPGSA,M,3,05,21,19,17,24,14,30,11,,,,,1.9,0.9,1.7*31,1
1778779501468462280,$GPGSV,3,1,12,05,50,306,43,21,42,350,44,19,39,067,44,17,30,101,46*7D,1
1778779501628857817,$GPGSV,3,2,12,24,19,232,39,14,17,146,42,30,10,116,37,11,09,001,27*77,1
1778779501780125446,$GPGSV,3,3,12,13,55,150,45,44,42,284,39,26,48,116,,28,45,155,*7B,1
1778779501940533965,$GPRMC,172713.000,A,1205.9936,S,07701.4549,W,0.06,0.00,140526,,,A*6C,1
1778779502176561187,$GPGGA,172714.000,1205.9936,S,07701.4549,W,1,08,0.9,148.5,M,8.4,M,,0000*6E,1
1778779502302579205,$GPGSA,M,3,05,21,19,17,24,14,30,11,,,,,1.9,0.9,1.7*31,1
1778779502462997520,$GPRMC,172714.000,A,1205.9936,S,07701.4549,W,0.01,0.00,140526,,,A*6C,1
1778779503181294594,$GPGGA,172715.000,1205.9936,S,07701.4549,W,1,08,0.9,148.5,M,8.4,M,,0000*6F,1
1778779503307327131,$GPGSA,M,3,05,21,19,17,24,14,30,11,,,,,1.9,0.9,1.7*31,1
1778779503467744538,$GPRMC,172715.000,A,1205.9936,S,07701.4549,W,0.00,0.00,140526,,,A*6C,1
1778779504181253482,$GPGGA,172716.000,1205.9936,S,07701.4549,W,1,07,1.7,148.5,M,8.4,M,,0000*6C,1
1778779504302704223,$GPGSA,M,3,05,21,19,17,24,14,30,,,,,,4.5,1.7,4.1*34,1
1778779504463106723,$GPRMC,172716.000,A,1205.9936,S,07701.4549,W,0.00,0.00,140526,,,A*6F,1
1778779505181418815,$GPGGA,172717.000,1205.9936,S,07701.4549,W,1,08,0.9,148.5,M,8.4,M,,0000*6D,1
1778779505307451759,$GPGSA,M,3,05,21,19,17,24,14,30,11,,,,,1.9,0.9,1.7*31,1
1778779505467860352,$GPRMC,172717.000,A,1205.9936,S,07701.4549,W,0.00,0.00,140526,,,A*6E,1
1778779506180742796,$GPGGA,172718.000,1205.9936,S,07701.4549,W,1,08,0.9,148.5,M,8.4,M,,0000*62,1
1778779506306780907,$GPGSA,M,3,05,21,19,17,24,14,30,11,,,,,1.9,0.9,1.7*31,1
1778779506467194944,$GPGSV,3,1,12,05,50,306,43,21,42,350,44,19,39,067,44,17,30,101,45*7E,1
1778779506627619795,$GPGSV,3,2,12,24,19,232,40,14,17,146,43,30,10,116,37,11,09,001,26*79,1
1778779506778865703,$GPGSV,3,3,12,13,55,150,45,44,42,284,40,26,48,116,,28,45,155,*75,1
1778779506939266277,$GPRMC,172718.000,A,1205.9936,S,07701.4549,W,0.00,0.00,140526,,,A*61,1
1778779507177781388,$GPGGA,172719.000,1205.9936,S,07701.4549,W,1,08,0.9,148.5,M,8.4,M,,0000*63,1
1778779507303809221,$GPGSA,M,3,05,21,19,17,24,14,30,11,,,,,1.9,0.9,1.7*31,1
1778779507464235350,$GPRMC,172719.000,A,1205.9936,S,07701.4549,W,0.00,0.00,140526,,,A*60,1
1778779508181500887,$GPGGA,172720.000,1205.9936,S,07701.4549,W,1,08,0.9,148.5,M,8.4,M,,0000*69,1
1778779508307517202,$GPGSA,M,3,05,21,19,17,24,14,30,11,,,,,1.9,0.9,1.7*31,1
1778779508467932813,$GPRMC,172720.000,A,1205.9936,S,07701.4549,W,0.00,0.00,140526,,,A*6A,1
1778779509181653979,$GPGGA,172721.000,1205.9936,S,07701.4549,W,1,08,0.9,148.5,M,8.4,M,,0000*68,1
1778779509307688423,$GPGSA,M,3,05,21,19,17,24,14,30,11,,,,,1.9,0.9,1.7*31,1
1778779509468088053,$GPRMC,172721.000,A,1205.9936,S,07701.4549,W,0.00,0.00,140526,,,A*6B,1
1778779510181193367,$GPGGA,172722.000,1205.9936,S,07701.4549,W,1,08,0.9,148.5,M,8.4,M,,0000*6B,1
1778779510307223034,$GPGSA,M,3,05,21,19,17,24,14,30,11,,,,,1.9,0.9,1.7*31,1
1778779510467631700,$GPRMC,172722.000,A,1205.9936,S,07701.4549,W,0.00,0.00,140526,,,A*68,1
1778779511180939256,$GPGGA,172723.000,1205.9937,S,07701.4550,W,1,08,0.9,148.1,M,8.4,M,,0000*67,1
1778779511306976700,$GPGSA,M,3,05,21,19,17,24,14,30,11,,,,,1.9,0.9,1.7*31,1
1778779511467388441,$GPGSV,3,1,12,05,50,306,42,21,42,350,44,19,39,067,44,17,30,101,45*7F,1
1778779511627798774,$GPGSV,3,2,12,24,19,232,41,14,17,146,43,30,10,116,37,11,09,001,21*7F,1
1778779511779030681,$GPGSV,3,3,12,13,55,150,45,44,42,284,40,26,48,116,,28,45,155,*75,1
1778779511939438014,$GPRMC,172723.000,A,1205.9937,S,07701.4550,W,0.07,0.00,140526,,,A*67,1
1778779512176950366,$GPGGA,172724.000,1205.9936,S,07701.4551,W,1,08,0.9,147.8,M,8.4,M,,0000*66,1
1778779512302968125,$GPGSA,M,3,05,21,19,17,24,14,30,11,,,,,1.9,0.9,1.7*31,1
1778779512463378736,$GPRMC,172724.000,A,1205.9936,S,07701.4551,W,0.05,0.00,140526,,,A*62,1
1778779513183151458,$GPGGA,172725.000,1205.9936,S,07701.4551,W,1,08,0.9,147.8,M,8.4,M,,0000*67,1
1778779513309170995,$GPGSA,M,3,05,21,19,17,24,14,30,11,,,,,1.9,0.9,1.7*31,1
1778779513469652532,$GPRMC,172725.000,A,1205.9936,S,07701.4551,W,0.01,0.00,140526,,,A*67,1
1778779514176634439,$GPGGA,172726.000,1205.9936,S,07701.4551,W,1,08,0.9,147.8,M,8.4,M,,0000*64,1
1778779514302673587,$GPGSA,M,3,05,21,19,17,24,14,30,11,,,,,1.9,0.9,1.7*31,1
1778779514463088976,$GPRMC,172726.000,A,1205.9936,S,07701.4551,W,0.00,0.00,140526,,,A*65,1
1778779515181799809,$GPGGA,172727.000,1205.9936,S,07701.4551,W,1,08,0.9,147.8,M,8.4,M,,0000*65,1
1778779515307833994,$GPGSA,M,3,05,21,19,17,24,14,30,11,,,,,1.9,0.9,1.7*31,1
1778779515468245309,$GPRMC,172727.000,A,1205.9936,S,07701.4551,W,0.00,0.00,140526,,,A*64,1
1778779516180944160,$GPGGA,172728.000,1205.9936,S,07701.4551,W,1,08,0.9,147.8,M,8.4,M,,0000*6A,1
1778779516306962215,$GPGSA,M,3,05,21,19,17,24,14,30,11,,,,,1.9,0.9,1.7*31,1
1778779516467363456,$GPGSV,3,1,12,05,50,306,41,21,42,350,43,19,39,067,44,17,30,101,45*7B,1
1778779516627773734,$GPGSV,3,2,12,24,19,232,41,14,17,146,42,30,10,116,36,11,09,001,20*7E,1
1778779516779031919,$GPGSV,3,3,12,13,55,150,45,44,42,284,39,26,48,116,,28,45,155,*7B,1
1778779516939421493,$GPRMC,172728.000,A,1205.9936,S,07701.4551,W,0.00,0.00,140526,,,A*6B,1
1778779517181706308,$GPGGA,172729.000,1205.9936,S,07701.4551,W,1,08,0.9,147.6,M,8.4,M,,0000*65,1
1778779517307738011,$GPGSA,M,3,05,21,19,17,24,14,30,11,,,,,1.9,0.9,1.7*31,1
1778779517468160067,$GPRMC,172729.000,A,1205.9936,S,07701.4551,W,0.05,0.00,140526,,,A*6F,1
1778779518181252937,$GPGGA,172730.000,1205.9936,S,07701.4551,W,1,08,0.9,147.6,M,8.4,M,,0000*6D,1
1778779518307283270,$GPGSA,M,3,05,21,19,17,24,14,30,11,,,,,1.9,0.9,1.7*31,1
1778779518467707510,$GPRMC,172730.000,A,1205.9936,S,07701.4551,W,0.01,0.00,140526,,,A*63,1
1778779519183523992,$GPGGA,172731.000,1205.9936,S,07701.4551,W,1,08,0.9,147.6,M,8.4,M,,0000*6C,1
1778779519309541584,$GPGSA,M,3,05,21,19,17,24,14,30,11,,,,,1.9,0.9,1.7*31,1
1778779519469946954,$GPRMC,172731.000,A,1205.9936,S,07701.4551,W,0.00,0.00,140526,,,A*63,1
1778779520177426972,$GPGGA,172732.000,1205.9936,S,07701.4551,W,1,08,0.9,147.6,M,8.4,M,,0000*6F,1
1778779520303439824,$GPGSA,M,3,05,21,19,17,24,14,30,11,,,,,1.9,0.9,1.7*31,1
1778779520463856102,$GPRMC,172732.000,A,1205.9936,S,07701.4551,W,0.00,0.00,140526,,,A*60,1
1778779521181944398,$GPGGA,172733.000,1205.9936,S,07701.4551,W,1,08,0.9,147.6,M,8.4,M,,0000*6E,1
1778779521307974268,$GPGSA,M,3,05,21,19,17,24,14,30,11,,,,,1.9,0.9,1.7*31,1
1778779521468391268,$GPGSV,3,1,12,05,50,306,40,21,42,350,42,19,39,067,44,17,30,101,44*7A,1
1778779521628812472,$GPGSV,3,2,12,24,19,232,41,14,17,146,42,30,10,116,36,11,09,001,22*7C,1
1778779521780041286,$GPGSV,3,3,12,13,55,150,46,44,42,284,39,26,48,116,,28,45,155,*78,1
1778779521940459453,$GPRMC,172733.000,A,1205.9936,S,07701.4551,W,0.00,0.00,140526,,,A*61,1
1778779522181271434,$GPGGA,172734.000,1205.9936,S,07701.4551,W,1,08,0.9,147.6,M,8.4,M,,0000*69,1
1778779522307304008,$GPGSA,M,3,05,21,19,17,24,14,30,11,,,,,1.9,0.9,1.7*31,1
1778779522467739545,$GPRMC,172734.000,A,1205.9936,S,07701.4551,W,0.00,0.00,140526,,,A*66,1
1778779523181651582,$GPGGA,172735.000,1205.9936,S,07701.4551,W,1,08,0.9,147.6,M,8.4,M,,0000*68,1
1778779523307680730,$GPGSA,M,3,05,21,19,17,24,14,30,11,,,,,1.9,0.9,1.7*31,1
1778779523468172433,$GPRMC,172735.000,A,1205.9936,S,07701.4551,W,0.00,0.00,140526,,,A*67,1
1778779524177445322,$GPGGA,172736.000,1205.9936,S,07701.4552,W,1,08,0.9,147.5,M,8.4,M,,0000*6B,1
1778779524303475933,$GPGSA,M,3,05,21,19,17,24,14,30,11,,,,,1.9,0.9,1.7*31,1
1778779524463884359,$GPRMC,172736.000,A,1205.9936,S,07701.4552,W,0.05,0.00,140526,,,A*62,1
1778779525182822414,$GPGGA,172737.000,1205.9936,S,07701.4552,W,1,08,0.9,147.5,M,8.4,M,,0000*6A,1
1778779525308851173,$GPGSA,M,3,05,21,19,17,24,14,30,11,,,,,1.9,0.9,1.7*31,1
1778779525469251525,$GPRMC,172737.000,A,1205.9936,S,07701.4552,W,0.01,0.00,140526,,,A*67,1
1778779526181097321,$GPGGA,172738.000,1205.9936,S,07701.4552,W,1,08,0.9,147.5,M,8.4,M,,0000*65,1
1778779526307122284,$GPGSA,M,3,05,21,19,17,24,14,30,11,,,,,1.9,0.9,1.7*31,1
1778779526467550913,$GPGSV,3,1,12,05,50,306,40,21,42,350,42,19,39,067,44,17,30,101,44*7A,0
1778779526627960543,$GPGSV,3,2,12,24,19,232,40,14,17,146,42,30,10,116,36,11,09,001,23*7C,0
1778779526779213691,$GPGSV,3,3,12,13,55,150,45,44,42,284,39,26,48,116,,28,45,155,*7B,0
1778779526939612654,$GPRMC,172738.000,A,1205.9936,S,07701.4552,W,0.00,0.00,140526,,,A*69,0
1778779527181878265,$GPGGA,172739.000,1205.9936,S,07701.4552,W,1,08,0.9,147.4,M,8.4,M,,0000*65,0
1778779527307929727,$GPGSA,M,3,05,21,19,17,24,14,30,11,,,,,1.9,0.9,1.7*31,0
1778779527468338801,$GPRMC,172739.000,A,1205.9936,S,07701.4552,W,0.08,0.00,140526,,,A*60,0
1778779528182264801,$GPGGA,172740.000,1205.9936,S,07701.4552,W,1,08,0.9,147.4,M,8.4,M,,0000*6B,0
1778779528308290042,$GPGSA,M,3,05,21,19,17,24,14,30,11,,,,,1.9,0.9,1.7*31,0
1778779528468697986,$GPRMC,172740.000,A,1205.9936,S,07701.4552,W,0.02,0.00,140526,,,A*64,0
1778779529181167597,$GPGGA,172741.000,1205.9936,S,07701.4554,W,1,08,0.9,147.3,M,8.4,M,,0000*6B,0
1778779529307204985,$GPGSA,M,3,05,21,19,17,24,14,30,11,,,,,1.9,0.9,1.7*31,0
1778779529472197337,$GPRMC,172741.000,A,1205.9936,S,07701.4554,W,1.21,300.02,140526,,,A*62,0
1778779530177381559,$GPGGA,172742.000,1205.9932,S,07701.4561,W,1,08,0.9,147.2,M,8.4,M,,0000*6B,0
1778779530303402577,$GPGSA,M,3,05,21,19,17,24,14,30,11,,,,,1.9,0.9,1.7*31,0
1778779530468417226,$GPRMC,172742.000,A,1205.9932,S,07701.4561,W,4.15,300.70,140526,,,A*64,0
1778779531180048429,$GPGGA,172743.000,1205.9923,S,07701.4574,W,1,08,0.9,147.1,M,8.4,M,,0000*6D,0
1778779531306068558,$GPGSA,M,3,05,21,19,17,24,14,30,11,,,,,1.9,0.9,1.7*31,0
1778779531466488873,$GPGSV,3,1,12,05,50,306,40,21,42,350,42,19,39,067,45,17,30,101,44*7B,0
1778779531626910447,$GPGSV,3,2,12,24,19,232,31,14,17,146,42,30,10,116,35,11,09,001,23*79,0
1778779531778142632,$GPGSV,3,3,12,13,55,150,45,44,42,284,41,26,48,116,,28,45,155,*74,0
1778779531943124095,$GPRMC,172743.000,A,1205.9923,S,07701.4574,W,6.51,300.97,140526,,,A*6A,0
1778779532182703928,$GPGGA,172744.000,1205.9913,S,07701.4591,W,1,08,0.9,147.1,M,8.4,M,,0000*62,0
1778779532308734761,$GPGSA,M,3,05,21,19,17,24,14,30,11,,,,,1.9,0.9,1.7*31,0
1778779532473725798,$GPRMC,172744.000,A,1205.9913,S,07701.4591,W,6.98,302.31,140526,,,A*6E,0
1778779533181830557,$GPGGA,172745.000,1205.9902,S,07701.4608,W,1,08,0.9,147.0,M,8.4,M,,0000*61,0
1778779533307859594,$GPGSA,M,3,05,21,19,17,24,14,30,11,,,,,1.9,0.9,1.7*31,0
1778779533472860594,$GPRMC,172745.000,A,1205.9902,S,07701.4608,W,6.74,304.07,140526,,,A*6D,0
1778779534182421186,$GPGGA,172746.000,1205.9891,S,07701.4623,W,1,08,0.9,147.0,M,8.4,M,,0000*60,0
1778779534308439223,$GPGSA,M,3,05,21,19,17,24,14,30,11,,,,,1.9,0.9,1.7*31,0
1778779534473448408,$GPRMC,172746.000,A,1205.9891,S,07701.4623,W,6.44,309.73,140526,,,A*61,0
1778779535181330704,$GPGGA,172747.000,1205.9879,S,07701.4636,W,1,08,0.9,147.1,M,8.4,M,,0000*62,0
1778779535307352426,$GPGSA,M,3,05,21,19,17,24,14,30,11,,,,,1.9,0.9,1.7*31,0
1778779535472358982,$GPRMC,172747.000,A,1205.9879,S,07701.4636,W,6.42,315.75,140526,,,A*6F,0
1778779536182116426,$GPGGA,172748.000,1205.9861,S,07701.4646,W,1,08,0.9,147.2,M,8.4,M,,0000*60,0
1778779536308147315,$GPGSA,M,3,05,21,19,17,24,14,30,11,,,,,1.9,0.9,1.7*31,0
1778779536468558389,$GPGSV,3,1,12,05,50,306,46,21,42,350,42,19,39,067,35,17,30,101,29*71,0
1778779536628969851,$GPGSV,3,2,12,24,19,232,34,14,17,146,34,30,10,116,26,11,09,001,31*7C,0
1778779536780203314,$GPGSV,3,3,12,13,55,150,40,44,42,284,42,26,48,116,,28,45,155,*72,0
1778779536945205148,$GPRMC,172748.000,A,1205.9861,S,07701.4646,W,7.22,329.93,140526,,,A*6E,0
1778779537178312110,$GPGGA,172749.000,1205.9840,S,07701.4649,W,1,08,0.9,147.1,M,8.4,M,,0000*6E,0
1778779537304350740,$GPGSA,M,3,05,21,19,17,24,14,30,11,,,,,1.9,0.9,1.7*31,0
1778779537469352499,$GPRMC,172749.000,A,1205.9840,S,07701.4649,W,7.20,345.60,140526,,,A*67,0
1778779538180782795,$GPGGA,172750.000,1205.9817,S,07701.4643,W,1,08,0.9,146.9,M,8.4,M,,0000*67,0
1778779538306796739,$GPGSA,M,3,05,21,19,17,24,14,30,11,,,,,1.9,0.9,1.7*31,0
1778779538467214721,$GPRMC,172750.000,A,1205.9817,S,07701.4643,W,7.93,8.59,140526,,,A*6F,0
1778779539183230313,$GPGGA,172751.000,1205.9786,S,07701.4630,W,1,08,0.9,146.9,M,8.4,M,,0000*65,0
1778779539309262905,$GPGSA,M,3,05,21,19,17,24,14,30,11,,,,,1.9,0.9,1.7*31,0
1778779539474257220,$GPRMC,172751.000,A,1205.9786,S,07701.4630,W,12.78,22.43,140526,,,A*6F,0
1778779540182974535,$GPGGA,172752.000,1205.9748,S,07701.4613,W,1,08,0.9,147.0,M,8.4,M,,0000*6D,0
1778779540309010831,$GPGSA,M,3,05,21,19,17,24,14,30,11,,,,,1.9,0.9,1.7*31,0
1778779540474000053,$GPRMC,172752.000,A,1205.9748,S,07701.4613,W,13.99,24.20,140526,,,A*62,0
1778779541182941923,$GPGGA,172753.000,1205.9709,S,07701.4594,W,1,08,0.9,147.2,M,8.4,M,,0000*67,0
1778779541308957664,$GPGSA,M,3,05,21,19,17,24,14,30,11,,,,,1.9,0.9,1.7*31,0
1778779541469377997,$GPGSV,3,1,12,05,50,306,45,21,42,350,42,19,39,067,45,17,30,101,40*7A,0
1778779541629802274,$GPGSV,3,2,12,24,19,232,38,14,17,146,28,30,10,116,23,11,09,001,22*7A,0
1778779541781028330,$GPGSV,3,3,12,13,55,150,35,44,42,284,41,26,48,116,,28,45,155,*73,0
1778779541946018552,$GPRMC,172753.000,A,1205.9709,S,07701.4594,W,14.68,24.57,140526,,,A*63,0
1778779542181216774,$GPGGA,172754.000,1205.9670,S,07701.4576,W,1,08,0.9,147.3,M,8.4,M,,0000*62,0
1778779542307270811,$GPGSA,M,3,05,21,19,17,24,14,30,11,,,,,1.9,0.9,1.7*31,0
1778779542472254515,$GPRMC,172754.000,A,1205.9670,S,07701.4576,W,13.97,24.46,140526,,,A*60,0
1778779543183284718,$GPGGA,172755.000,1205.9633,S,07701.4559,W,1,08,0.9,147.3,M,8.4,M,,0000*69,0
1778779543309296903,$GPGSA,M,3,05,21,19,17,24,14,30,11,,,,,1.9,0.9,1.7*31,0
1778779543474285403,$GPRMC,172755.000,A,1205.9633,S,07701.4559,W,13.94,24.31,140526,,,A*68,0
1778779544178432643,$GPGGA,172756.000,1205.9596,S,07701.4542,W,1,08,0.9,147.3,M,8.4,M,,0000*6C,0
1778779544304447514,$GPGSA,M,3,05,21,19,17,24,14,30,11,,,,,1.9,0.9,1.7*31,0
1778779544469458754,$GPRMC,172756.000,A,1205.9596,S,07701.4542,W,14.11,24.30,140526,,,A*66,0
1778779545182341606,$GPGGA,172757.000,1205.9557,S,07701.4525,W,1,08,0.9,147.3,M,8.4,M,,0000*61,0
1778779545308368920,$GPGSA,M,3,05,21,19,17,24,14,30,11,,,,,1.9,0.9,1.7*31,0
1778779545473380717,$GPRMC,172757.000,A,1205.9557,S,07701.4525,W,14.22,23.61,140526,,,A*68,0
1778779546179789012,$GPGGA,172758.000,1205.9519,S,07701.4509,W,1,07,0.9,147.2,M,8.4,M,,0000*64,0
1778779546301251512,$GPGSA,M,3,05,21,19,24,14,30,11,,,,,,2.0,0.9,1.8*32,0
1778779546461656531,$GPGSV,3,1,12,05,50,306,45,21,42,350,41,19,39,067,45,24,19,232,37*71,0
1778779546622060123,$GPGSV,3,2,12,14,17,146,30,30,10,116,22,11,09,001,32,13,55,150,35*75,0
1778779546773304438,$GPGSV,3,3,12,17,30,101,35,44,42,284,42,26,48,116,,28,45,155,*73,0
1778779546938297197,$GPRMC,172758.000,A,1205.9519,S,07701.4509,W,14.34,24.00,140526,,,A*64,0
1778779547181206049,$GPGGA,172759.000,1205.9481,S,07701.4492,W,1,08,0.9,147.2,M,8.4,M,,0000*69,0
1778779547307235327,$GPGSA,M,3,05,21,19,17,24,14,30,11,,,,,1.9,0.9,1.7*31,0
1778779547472230789,$GPRMC,172759.000,A,1205.9481,S,07701.4492,W,14.48,24.01,140526,,,A*6C,0
1778779548181579808,$GPGGA,172800.000,1205.9442,S,07701.4476,W,1,08,0.9,147.2,M,8.4,M,,0000*6F,0
1778779548307608233,$GPGSA,M,3,05,21,19,17,24,14,30,11,,,,,1.9,0.9,1.7*31,0
1778779548472610807,$GPRMC,172800.000,A,1205.9442,S,07701.4476,W,14.62,24.83,140526,,,A*68,0
1778779549176527029,$GPGGA,172801.000,1205.9405,S,07701.4458,W,1,08,0.9,147.3,M,8.4,M,,0000*60,0
1778779549302564733,$GPGSA,M,3,05,21,19,17,24,14,30,11,,,,,1.9,0.9,1.7*31,0
1778779549467550177,$GPRMC,172801.000,A,1205.9405,S,07701.4458,W,14.77,26.03,140526,,,A*68,0
1778779550171908843,$GPGGA,172802.000,1205.9368,S,07701.4439,W,1,07,1.7,147.2,M,8.4,M,,0000*69,0
1778779550293351140,$GPGSA,M,3,05,21,19,17,24,14,30,,,,,,4.4,1.7,4.1*35,0
1778779550458355677,$GPRMC,172802.000,A,1205.9368,S,07701.4439,W,14.78,25.18,140526,,,A*66,0
1778779551176873935,$GPGGA,172803.000,1205.9329,S,07701.4421,W,1,07,1.7,146.7,M,8.4,M,,0000*60,0
1778779551298302232,$GPGSA,M,3,05,21,19,17,24,14,30,,,,,,4.4,1.7,4.1*35,0
1778779551458717287,$GPGSV,3,1,12,05,50,306,43,21,42,350,41,19,39,067,37,17,30,101,40*7A,0
1778779551619125806,$GPGSV,3,2,12,24,19,232,34,14,17,146,38,30,10,116,21,11,09,001,23*74,0
1778779551770373639,$GPGSV,3,3,12,13,55,150,37,44,42,284,43,26,48,116,,28,45,155,*73,0
1778779551935364435,$GPRMC,172803.000,A,1205.9329,S,07701.4421,W,14.78,25.77,140526,,,A*62,0
1778779552179733009,$GPGGA,172804.000,1205.9290,S,07701.4402,W,1,08,0.9,146.5,M,8.4,M,,0000*67,0
1778779552305767601,$GPGSA,M,3,05,21,19,17,24,14,30,11,,,,,1.9,0.9,1.7*31,0
1778779552470756749,$GPRMC,172804.000,A,1205.9290,S,07701.4402,W,14.94,25.66,140526,,,A*65,0
1778779553179489879,$GPGGA,172805.000,1205.9250,S,07701.4383,W,1,08,0.9,146.1,M,8.4,M,,0000*60,0
1778779553305509786,$GPGSA,M,3,05,21,19,17,24,14,30,11,,,,,1.9,0.9,1.7*31,0
1778779553470505193,$GPRMC,172805.000,A,1205.9250,S,07701.4383,W,14.82,25.31,140526,,,A*63,0
1778779554174646637,$GPGGA,172806.000,1205.9213,S,07701.4365,W,1,08,0.9,146.0,M,8.4,M,,0000*6D,0
1778779554300677415,$GPGSA,M,3,05,21,19,17,24,14,30,11,,,,,1.9,0.9,1.7*31,0
1778779554465686267,$GPRMC,172806.000,A,1205.9213,S,07701.4365,W,14.74,25.40,140526,,,A*60,0
1778779555176675322,$GPGGA,172807.000,1205.9175,S,07701.4347,W,1,08,0.9,145.8,M,8.4,M,,0000*64,0
1778779555302721322,$GPGSA,M,3,05,21,19,17,24,14,30,11,,,,,1.9,0.9,1.7*31,0
1778779555467713062,$GPRMC,172807.000,A,1205.9175,S,07701.4347,W,14.66,25.38,140526,,,A*6E,0
1778779556176004951,$GPGGA,172808.000,1205.9136,S,07701.4330,W,1,08,0.9,145.5,M,8.4,M,,0000*61,0
1778779556302045340,$GPGSA,M,3,05,21,19,17,24,14,30,11,,,,,1.9,0.9,1.7*31,0
1778779556462465099,$GPGSV,3,1,12,05,50,306,43,21,42,350,38,19,39,067,42,17,30,101,42*74,0
1778779556622869414,$GPGSV,3,2,12,24,19,232,35,14,17,146,25,30,10,116,28,11,09,001,24*77,0
1778779556774111173,$GPGSV,3,3,12,13,55,150,14,44,42,284,39,26,48,116,,28,45,155,*7F,0
1778779556939120691,$GPRMC,172808.000,A,1205.9136,S,07701.4330,W,14.78,25.10,140526,,,A*63,0
1778779557181596895,$GPGGA,172809.000,1205.9097,S,07701.4311,W,1,08,0.9,145.2,M,8.4,M,,0000*6E,0
1778779557307616839,$GPGSA,M,3,05,21,19,17,24,14,30,11,,,,,1.9,0.9,1.7*31,0
1778779557472623784,$GPRMC,172809.000,A,1205.9097,S,07701.4311,W,15.11,24.97,140526,,,A*6B,0
1778779558176343579,$GPGGA,172810.000,1205.9058,S,07701.4293,W,1,08,0.9,144.9,M,8.4,M,,0000*64,0
1778779558302367468,$GPGSA,M,3,05,21,19,17,24,14,30,11,,,,,1.9,0.9,1.7*31,0
1778779558467375505,$GPRMC,172810.000,A,1205.9058,S,07701.4293,W,15.24,24.79,140526,,,A*6D,0
1778779559176703579,$GPGGA,172811.000,1205.9020,S,07701.4276,W,1,08,0.9,144.7,M,8.4,M,,0000*6F,0
1778779559302739838,$GPGSA,M,3,05,21,19,17,24,14,30,11,,,,,1.9,0.9,1.7*31,0
1778779559467745134,$GPRMC,172811.000,A,1205.9020,S,07701.4276,W,14.74,24.35,140526,,,A*64,0
1778779560176466467,$GPGGA,172812.000,1205.8982,S,07701.4259,W,1,08,0.9,144.7,M,8.4,M,,0000*61,0
1778779560302498578,$GPGSA,M,3,05,21,19,17,24,14,30,11,,,,,1.9,0.9,1.7*31,0
1778779560467483541,$GPRMC,172812.000,A,1205.8982,S,07701.4259,W,14.50,23.20,140526,,,A*6F,0
1778779561187894652,$GPGGA,172813.000,1205.8943,S,07701.4243,W,1,08,0.9,144.3,M,8.4,M,,0000*62,0
1778779561313901429,$GPGSA,M,3,05,21,19,17,24,14,30,11,,,,,1.9,0.9,1.7*31,0
1778779561474307522,$GPGSV,3,1,12,05,50,306,44,21,42,350,40,19,39,067,39,17,30,101,26*72,0
1778779561634725244,$GPGSV,3,2,12,24,19,232,36,14,17,146,35,30,10,116,23,11,09,001,30*7B,0
1778779561785972318,$GPGSV,3,3,12,13,55,150,37,44,42,284,43,26,48,116,,28,45,155,*73,0
1778779561951009503,$GPRMC,172813.000,A,1205.8943,S,07701.4243,W,14.30,23.20,140526,,,A*6E,0
1778779562178870929,$GPGGA,172814.000,1205.8906,S,07701.4226,W,1,07,0.9,144.0,M,8.4,M,,0000*6B,0
1778779562300317447,$GPGSA,M,3,05,21,19,17,24,14,11,,,,,,2.1,0.9,1.9*37,0
1778779562465320503,$GPRMC,172814.000,A,1205.8906,S,07701.4226,W,14.33,24.11,140526,,,A*6D,0
1778779563177796317,$GPGGA,172815.000,1205.8868,S,07701.4210,W,1,08,0.9,143.8,M,8.4,M,,0000*66,0
1778779563303812354,$GPGSA,M,3,05,21,19,17,24,14,30,11,,,,,1.9,0.9,1.7*31,0
1778779563468813447,$GPRMC,172815.000,A,1205.8868,S,07701.4210,W,14.46,23.96,140526,,,A*6A,0
1778779564181337391,$GPGGA,172816.000,1205.8831,S,07701.4192,W,1,08,0.9,143.5,M,8.4,M,,0000*6D,0
1778779564307358168,$GPGSA,M,3,05,21,19,17,24,14,30,11,,,,,1.9,0.9,1.7*31,0
1778779564472382761,$GPRMC,172816.000,A,1205.8831,S,07701.4192,W,14.06,23.96,140526,,,A*68,0
1778779565181020890,$GPGGA,172817.000,1205.8794,S,07701.4176,W,1,08,0.9,143.1,M,8.4,M,,0000*62,0
1778779565307055038,$GPGSA,M,3,05,21,19,17,24,14,30,11,,,,,1.9,0.9,1.7*31,0
1778779565472048131,$GPRMC,172817.000,A,1205.8794,S,07701.4176,W,13.58,24.13,140526,,,A*65,0
1778779566180354778,$GPGGA,172818.000,1205.8761,S,07701.4160,W,1,08,0.9,142.7,M,8.4,M,,0000*67,0
1778779566306387038,$GPGSA,M,3,05,21,19,17,24,14,30,11,,,,,1.9,0.9,1.7*31,0
1778779566466814352,$GPGSV,3,1,12,05,50,306,44,21,42,350,41,19,39,067,43,17,30,101,24*7C,0
1778779566627210204,$GPGSV,3,2,12,24,19,232,40,14,17,146,27,30,10,116,18,11,09,001,21*71,0
1778779566778459926,$GPGSV,3,3,12,13,55,150,37,44,42,284,43,26,48,116,,28,45,155,*73,0
1778779566943441333,$GPRMC,172818.000,A,1205.8761,S,07701.4160,W,11.98,24.55,140526,,,A*6B,0
1778779567181793778,$GPGGA,172819.000,1205.8732,S,07701.4148,W,1,08,0.9,142.3,M,8.4,M,,0000*6E,0
1778779567307816370,$GPGSA,M,3,05,21,19,17,24,14,30,11,,,,,1.9,0.9,1.7*31,0
1778779567472839444,$GPRMC,172819.000,A,1205.8732,S,07701.4148,W,10.05,21.62,140526,,,A*62,0
1778779568178602777,$GPGGA,172820.000,1205.8708,S,07701.4141,W,1,08,0.9,141.9,M,8.4,M,,0000*6D,0
1778779568304632925,$GPGSA,M,3,05,21,19,17,24,14,30,11,,,,,1.9,0.9,1.7*31,0
1778779568467344036,$GPRMC,172820.000,A,1205.8708,S,07701.4141,W,7.35,13.67,140526,,,A*59,0
1778779569182301499,$GPGGA,172821.000,1205.8688,S,07701.4141,W,1,08,0.9,141.6,M,8.4,M,,0000*6A,0
1778779569308327499,$GPGSA,M,3,05,21,19,17,24,14,30,11,,,,,1.9,0.9,1.7*31,0
1778779569473338702,$GPRMC,172821.000,A,1205.8688,S,07701.4141,W,6.79,354.95,140526,,,A*65,0
1778779570182266887,$GPGGA,172822.000,1205.8670,S,07701.4147,W,1,08,0.9,141.4,M,8.4,M,,0000*6A,0
1778779570308293628,$GPGSA,M,3,05,21,19,17,24,14,30,11,,,,,1.9,0.9,1.7*31,0
1778779570473294165,$GPRMC,172822.000,A,1205.8670,S,07701.4147,W,6.74,330.82,140526,,,A*6E,0
1778779570519111109,$PSRF156,23,1,0*09,0
1778779571182211294,$GPGGA,172823.000,1205.8657,S,07701.4162,W,1,08,0.9,141.3,M,8.4,M,,0000*6E,0
1778779571308240220,$GPGSA,M,3,05,21,19,17,24,14,30,11,,,,,1.9,0.9,1.7*31,0
1778779571468658349,$GPGSV,3,1,12,05,50,306,44,21,42,350,46,19,39,067,43,17,30,101,44*7D,0
1778779571629060331,$GPGSV,3,2,12,24,19,232,39,14,17,146,29,30,10,116,24,11,09,001,21*7E,0
1778779571780302016,$GPGSV,3,3,12,13,55,150,41,44,42,284,42,26,48,116,,28,45,155,*73,0
1778779571945297219,$GPRMC,172823.000,A,1205.8657,S,07701.4162,W,7.46,303.53,140526,,,A*61,0
1778779572182797367,$GPGGA,172824.000,1205.8649,S,07701.4184,W,1,08,0.9,141.6,M,8.4,M,,0000*6B,0
1778779572308832552,$GPGSA,M,3,05,21,19,17,24,14,30,11,,,,,1.9,0.9,1.7*31,0
1778779572473829423,$GPRMC,172824.000,A,1205.8649,S,07701.4184,W,8.59,285.06,140526,,,A*6F,0
1778779573183164367,$GPGGA,172825.000,1205.8645,S,07701.4210,W,1,08,0.9,142.1,M,8.4,M,,0000*6C,0
1778779573309218293,$GPGSA,M,3,05,21,19,17,24,14,30,11,,,,,1.9,0.9,1.7*31,0
1778779573474194089,$GPRMC,172825.000,A,1205.8645,S,07701.4210,W,9.38,278.95,140526,,,A*62,0
1778779574182504588,$GPGGA,172826.000,1205.8641,S,07701.4237,W,1,08,0.9,142.7,M,8.4,M,,0000*68,0
1778779574308529551,$GPGSA,M,3,05,21,19,17,24,14,30,11,,,,,1.9,0.9,1.7*31,0
1778779574475825162,$GPRMC,172826.000,A,1205.8641,S,07701.4237,W,10.10,279.22,140526,,,A*5F,0
1778779575182255125,$GPGGA,172827.000,1205.8635,S,07701.4266,W,1,08,0.9,142.9,M,8.4,M,,0000*60,0
1778779575308274977,$GPGSA,M,3,05,21,19,17,24,14,30,11,,,,,1.9,0.9,1.7*31,0
1778779575475566402,$GPRMC,172827.000,A,1205.8635,S,07701.4266,W,11.18,280.05,140526,,,A*53,0
1778779576182414495,$GPGGA,172828.000,1205.8629,S,07701.4299,W,1,08,0.9,143.2,M,8.4,M,,0000*68,0
1778779576308430846,$GPGSA,M,3,05,21,19,17,24,14,30,11,,,,,1.9,0.9,1.7*31,0
1778779576468848606,$GPGSV,3,1,12,05,50,306,46,21,42,350,41,19,39,067,32,17,30,101,47*7D,0
1778779576629270235,$GPGSV,3,2,12,24,19,232,30,14,17,146,30,30,10,116,29,11,09,001,10*70,0
1778779576780498698,$GPGSV,3,3,12,13,55,150,27,44,42,284,46,26,48,116,,28,45,155,*77,0
1778779576947788846,$GPRMC,172828.000,A,1205.8629,S,07701.4299,W,11.86,280.07,140526,,,A*54,0
1778779577180076364,$GPGGA,172829.000,1205.8622,S,07701.4332,W,1,07,1.7,143.7,M,8.4,M,,0000*67,0
1778779577301526179,$GPGSA,M,3,05,21,19,17,24,14,30,,,,,,4.4,1.7,4.1*35,0
1778779577468813420,$GPRMC,172829.000,A,1205.8622,S,07701.4332,W,12.46,279.76,140526,,,A*51,0
1778779578174207419,$GPGGA,172830.000,1205.8617,S,07701.4368,W,1,07,1.7,143.8,M,8.4,M,,0000*69,0
1778779578295644530,$GPGSA,M,3,05,21,19,17,24,14,30,,,,,,4.4,1.7,4.1*35,0
1778779578462930938,$GPRMC,172830.000,A,1205.8617,S,07701.4368,W,12.96,277.30,140526,,,A*51,0
1778779579179153400,$GPGGA,172831.000,1205.8613,S,07701.4404,W,1,07,1.7,144.0,M,8.4,M,,0000*6E,0
1778779579300632567,$GPGSA,M,3,05,21,19,17,24,14,30,,,,,,4.4,1.7,4.1*35,0
1778779579467885900,$GPRMC,172831.000,A,1205.8613,S,07701.4404,W,12.56,276.86,140526,,,A*59,0
1778779580178893714,$GPGGA,172832.000,1205.8609,S,07701.4439,W,1,07,1.7,143.7,M,8.4,M,,0000*68,0
1778779580300334048,$GPGSA,M,3,05,21,19,17,24,14,30,,,,,,4.4,1.7,4.1*35,0
1778779580467623992,$GPRMC,172832.000,A,1205.8609,S,07701.4439,W,11.51,277.61,140526,,,A*53,0
1778779581178636973,$GPGGA,172833.000,1205.8607,S,07701.4470,W,1,07,1.7,143.5,M,8.4,M,,0000*68,0
1778779581300085047,$GPGSA,M,3,05,21,19,17,24,14,30,,,,,,4.4,1.7,4.1*35,0
1778779581460499343,$GPGSV,3,1,12,05,50,306,46,21,42,350,38,19,39,067,45,17,30,101,47*73,0
1778779581620904380,$GPGSV,3,2,12,24,19,232,36,14,17,146,33,30,10,116,39,13,55,150,26*7F,0
1778779581767566788,$GPGSV,3,3,12,44,42,284,46,26,48,116,,28,45,155,,23,26,059,*7D,0
1778779581934867028,$GPRMC,172833.000,A,1205.8607,S,07701.4470,W,10.22,277.45,140526,,,A*52,0
1778779582178374158,$GPGGA,172834.000,1205.8605,S,07701.4497,W,1,07,1.7,143.4,M,8.4,M,,0000*65,0
1778779582299874750,$GPGSA,M,3,05,21,19,17,24,14,30,,,,,,4.4,1.7,4.1*35,0
1778779582464848880,$GPRMC,172834.000,A,1205.8605,S,07701.4497,W,8.69,276.38,140526,,,A*63,0
1778779583178351472,$GPGGA,172835.000,1205.8606,S,07701.4519,W,1,07,1.7,144.0,M,8.4,M,,0000*63,0
1778779583299788379,$GPGSA,M,3,05,21,19,17,24,14,30,,,,,,4.4,1.7,4.1*35,0
1778779583464785305,$GPRMC,172835.000,A,1205.8606,S,07701.4519,W,7.01,272.89,140526,,,A*69,0
1778779584174366786,$GPGGA,172836.000,1205.8611,S,07701.4537,W,1,07,1.7,144.6,M,8.4,M,,0000*6C,0
1778779584295784175,$GPGSA,M,3,05,21,19,17,24,14,30,,,,,,4.4,1.7,4.1*35,0
1778779584460786379,$GPRMC,172836.000,A,1205.8611,S,07701.4537,W,6.54,261.93,140526,,,A*68,0
1778779585177220545,$GPGGA,172837.000,1205.8621,S,07701.4554,W,1,07,1.7,145.7,M,8.4,M,,0000*6B,0
1778779585298658489,$GPGSA,M,3,05,21,19,17,24,14,30,,,,,,4.4,1.7,4.1*35,0
1778779585463648045,$GPRMC,172837.000,A,1205.8621,S,07701.4554,W,6.93,244.18,140526,,,A*60,0
1778779586175087026,$GPGGA,172838.000,1205.8637,S,07701.4568,W,1,07,1.7,146.6,M,8.4,M,,0000*6E,0
1778779586296550655,$GPGSA,M,3,05,21,19,17,24,14,30,,,,,,4.4,1.7,4.1*35,0
1778779586456953729,$GPGSV,3,1,12,05,50,306,35,21,42,350,43,19,39,067,45,17,30,101,43*7F,0
1778779586617364451,$GPGSV,3,2,12,24,19,232,17,14,17,146,31,30,10,116,32,13,55,150,24*77,0
1778779586764000544,$GPGSV,3,3,12,44,42,284,24,26,48,116,,28,45,155,,23,26,059,*79,0
1778779586929018081,$GPRMC,172838.000,A,1205.8637,S,07701.4568,W,7.95,218.09,140526,,,A*69,0
1778779587175461766,$GPGGA,172839.000,1205.8658,S,07701.4578,W,1,07,1.7,147.6,M,8.4,M,,0000*66,0
1778779587296903729,$GPGSA,M,3,05,21,19,17,24,14,30,,,,,,4.4,1.7,4.1*35,0
1778779587461906877,$GPRMC,172839.000,A,1205.8658,S,07701.4578,W,7.89,210.03,140526,,,A*6F,0
1778779588175627450,$GPGGA,172840.000,1205.8680,S,07701.4588,W,1,07,1.7,148.2,M,8.4,M,,0000*69,0
1778779588297061710,$GPGSA,M,3,05,21,19,17,24,14,30,,,,,,4.4,1.7,4.1*35,0
1778779588462064728,$GPRMC,172840.000,A,1205.8680,S,07701.4588,W,8.60,205.54,140526,,,A*65,0
1778779589174754802,$GPGGA,172841.000,1205.8703,S,07701.4597,W,1,07,1.7,148.7,M,8.4,M,,0000*69,0
1778779589296192709,$GPGSA,M,3,05,21,19,17,24,14,30,,,,,,4.4,1.7,4.1*35,0
1778779589461187061,$GPRMC,172841.000,A,1205.8703,S,07701.4597,W,8.71,203.25,140526,,,A*60,0
1778779590174072357,$GPGGA,172842.000,1205.8728,S,07701.4608,W,1,07,1.7,149.2,M,8.4,M,,0000*62,0
1778779590295534745,$GPGSA,M,3,05,21,19,17,24,14,30,,,,,,4.4,1.7,4.1*35,0
1778779590460520375,$GPRMC,172842.000,A,1205.8728,S,07701.4608,W,9.21,205.39,140526,,,A*60,0
1778779591176120263,$GPGGA,172843.000,1205.8751,S,07701.4621,W,1,07,1.7,149.3,M,8.4,M,,0000*67,0
1778779591297562449,$GPGSA,M,3,05,21,19,17,24,14,30,,,,,,4.4,1.7,4.1*35,0
1778779591457973393,$GPGSV,3,1,12,05,50,306,29,21,42,350,44,19,39,067,45,17,30,101,40*76,0
1778779591618385485,$GPGSV,3,2,12,24,19,232,29,14,17,146,28,30,10,116,30,13,55,150,20*74,0
1778779591765040096,$GPGSV,3,3,12,44,42,284,21,26,48,116,,28,45,155,,23,26,059,*7C,0
1778779591930038763,$GPRMC,172843.000,A,1205.8751,S,07701.4621,W,8.97,209.51,140526,,,A*6A,0
1778779592174822300,$GPGGA,172844.000,1205.8764,S,07701.4633,W,1,07,1.7,149.2,M,8.4,M,,0000*64,0
1778779592296261763,$GPGSA,M,3,05,21,19,17,24,14,30,,,,,,4.4,1.7,4.1*35,0
1778779592461247837,$GPRMC,172844.000,A,1205.8764,S,07701.4633,W,7.76,213.63,140526,,,A*62,0
1778779593175200503,$GPGGA,172845.000,1205.8777,S,07701.4642,W,1,07,1.7,149.3,M,8.4,M,,0000*60,1
1778779593296632429,$GPGSA,M,3,05,21,19,17,24,14,30,,,,,,4.4,1.7,4.1*35,1
1778779593461637688,$GPRMC,172845.000,A,1205.8777,S,07701.4642,W,6.78,214.34,140526,,,A*6D,1
1778779594167652910,$GPGGA,172846.000,1205.8789,S,07701.4647,W,1,05,2.2,149.4,M,8.4,M,,0000*64,1
1778779594279927669,$GPGSA,M,3,05,21,19,17,24,,,,,,,,6.9,2.2,6.5*3C,1
1778779594444936150,$GPRMC,172846.000,A,1205.8789,S,07701.4647,W,5.76,211.98,140526,,,A*64,1
1778779595175937187,$GPGGA,172847.000,1205.8793,S,07701.4648,W,1,07,1.7,149.7,M,8.4,M,,0000*66,1
1778779595297373465,$GPGSA,M,3,05,21,19,17,24,14,30,,,,,,4.4,1.7,4.1*35,1
1778779595462375205,$GPRMC,172847.000,A,1205.8793,S,07701.4648,W,3.74,211.68,140526,,,A*6A,1
1778779596175065057,$GPGGA,172848.000,1205.8781,S,07701.4642,W,1,07,1.7,149.5,M,8.4,M,,0000*62,1
1778779596296502001,$GPGSA,M,3,05,21,19,17,24,14,30,,,,,,4.4,1.7,4.1*35,1
1778779596456919482,$GPGSV,3,1,12,05,50,306,11,21,42,350,38,19,39,067,46,17,30,101,34*76,1
1778779596617318056,$GPGSV,3,2,12,24,19,232,29,14,17,146,31,30,10,116,27,11,09,001,28*7C,1
1778779596763980168,$GPGSV,3,3,12,13,55,150,19,44,42,284,,26,48,116,,28,45,155,*78,1
1778779596928974390,$GPRMC,172848.000,A,1205.8781,S,07701.4642,W,0.00,211.68,140526,,,A*6C,1
1778779597177328927,$GPGGA,172849.000,1205.8781,S,07701.4642,W,1,07,1.7,149.5,M,8.4,M,,0000*63,1
1778779597298740704,$GPGSA,M,3,05,21,19,17,24,14,30,,,,,,4.4,1.7,4.1*35,1
1778779597463750741,$GPRMC,172849.000,A,1205.8781,S,07701.4642,W,0.00,211.68,140526,,,A*6D,1
1778779598177044426,$GPGGA,172850.000,1205.8781,S,07701.4642,W,1,07,1.7,149.5,M,8.4,M,,0000*6B,1
1778779598298505000,$GPGSA,M,3,05,21,19,17,24,14,30,,,,,,4.4,1.7,4.1*35,1
1778779598463533296,$GPRMC,172850.000,A,1205.8781,S,07701.4642,W,0.00,211.68,140526,,,A*65,1
1778779599178675222,$GPGGA,172851.000,1205.8781,S,07701.4642,W,1,08,0.9,149.6,M,8.4,M,,0000*69,0
1778779599304696240,$GPGSA,M,3,05,21,19,17,24,14,30,11,,,,,2.0,0.9,1.7*3B,0
1778779599469695925,$GPRMC,172851.000,A,1205.8781,S,07701.4642,W,0.00,211.68,140526,,,A*64,0
1778779600178209628,$GPGGA,172852.000,1205.8783,S,07701.4642,W,1,08,0.9,149.8,M,8.4,M,,0000*66,0
1778779600304237591,$GPGSA,M,3,05,21,19,17,24,14,30,11,,,,,2.0,0.9,1.7*3B,0
1778779600469233980,$GPRMC,172852.000,A,1205.8783,S,07701.4642,W,0.04,211.68,140526,,,A*61,0
1778779601178573239,$GPGGA,172853.000,1205.8784,S,07701.4641,W,1,08,0.9,150.0,M,8.4,M,,0000*63,0
1778779601304608480,$GPGSA,M,3,05,21,19,17,24,14,30,11,,,,,2.0,0.9,1.7*3B,0
1778779601465025350,$GPGSV,3,1,12,05,50,306,11,21,42,350,38,19,39,067,46,17,30,101,34*76,0
1778779601625432053,$GPGSV,3,2,12,24,19,232,29,14,17,146,31,30,10,116,30,11,09,001,29*7B,0
1778779601772117702,$GPGSV,3,3,12,13,55,150,20,44,42,284,,26,48,116,,28,45,155,*72,0
1778779601937079627,$GPRMC,172853.000,A,1205.8784,S,07701.4641,W,0.28,211.68,140526,,,A*6A,0
1778779602176862405,$GPGGA,172854.000,1205.8785,S,07701.4643,W,1,08,0.9,150.3,M,8.4,M,,0000*64,0
1778779602302901127,$GPGSA,M,3,05,21,19,17,24,14,30,11,,,,,2.0,0.9,1.7*3B,0
1778779602467895627,$GPRMC,172854.000,A,1205.8785,S,07701.4643,W,0.71,211.68,140526,,,A*62,0
1778779603177664553,$GPGGA,172855.000,1205.8787,S,07701.4646,W,1,08,0.9,150.4,M,8.4,M,,0000*65,0
1778779603303682793,$GPGSA,M,3,05,21,19,17,24,14,30,11,,,,,2.0,0.9,1.7*3B,0
1778779603468679997,$GPRMC,172855.000,A,1205.8787,S,07701.4646,W,1.37,210.18,140526,,,A*61,0
1778779604176788756,$GPGGA,172856.000,1205.8788,S,07701.4651,W,1,08,0.9,150.5,M,8.4,M,,0000*6E,0
1778779604302812570,$GPGSA,M,3,05,21,19,17,24,14,30,11,,,,,2.0,0.9,1.7*3B,0
1778779604467796941,$GPRMC,172856.000,A,1205.8788,S,07701.4651,W,1.75,212.33,140526,,,A*66,0
1778779605176544033,$GPGGA,172857.000,1205.8790,S,07701.4658,W,1,07,1.7,150.4,M,8.4,M,,0000*6E,0
1778779605297971681,$GPGSA,M,3,05,21,19,17,24,14,30,,,,,,4.4,1.7,4.1*35,0
1778779605462968496,$GPRMC,172857.000,A,1205.8790,S,07701.4658,W,2.28,216.31,140526,,,A*6A,0
1778779606175433662,$GPGGA,172858.000,1205.8789,S,07701.4664,W,1,07,1.7,150.3,M,8.4,M,,0000*61,0
1778779606296881514,$GPGSA,M,3,05,21,19,17,24,14,30,,,,,,4.4,1.7,4.1*35,0
1778779606457313995,$GPGSV,3,1,12,05,50,306,17,21,42,350,36,19,39,067,36,17,30,101,34*79,0
1778779606617771680,$GPGSV,3,2,12,24,19,232,29,14,17,146,31,30,10,116,24,11,09,001,21*76,0
1778779606768939625,$GPGSV,3,3,12,13,55,150,20,44,42,284,33,26,48,116,,28,45,155,*72,0
1778779606933941939,$GPRMC,172858.000,A,1205.8789,S,07701.4664,W,1.85,218.85,140526,,,A*67,0
1778779607177467643,$GPGGA,172859.000,1205.8796,S,07701.4669,W,1,07,1.7,150.2,M,8.4,M,,0000*62,0
1778779607298926883,$GPGSA,M,3,05,21,19,17,24,14,30,,,,,,4.4,1.7,4.1*35,0
1778779607463916902,$GPRMC,172859.000,A,1205.8796,S,07701.4669,W,2.28,217.30,140526,,,A*60,0
1778779608178471846,$GPGGA,172900.000,1205.8807,S,07701.4671,W,1,07,1.7,150.1,M,8.4,M,,0000*62,0
1778779608299918883,$GPGSA,M,3,05,21,19,17,24,14,30,,,,,,4.4,1.7,4.1*35,0
1778779608464929623,$GPRMC,172900.000,A,1205.8807,S,07701.4671,W,2.94,205.34,140526,,,A*63,0
1778779609178429105,$GPGGA,172901.000,1205.8828,S,07701.4684,W,1,08,0.9,150.1,M,8.4,M,,0000*64,0
1778779609304458475,$GPGSA,M,3,05,21,19,17,24,14,30,11,,,,,2.0,0.9,1.7*3B,0
1778779609469451882,$GPRMC,172901.000,A,1205.8828,S,07701.4684,W,4.02,200.94,140526,,,A*63,0
1778779610177754900,$GPGGA,172902.000,1205.8857,S,07701.4697,W,1,08,0.9,150.2,M,8.4,M,,0000*6E,0
1778779610303787548,$GPGSA,M,3,05,21,19,17,24,14,30,11,,,,,2.0,0.9,1.7*3B,0
1778779610468790270,$GPRMC,172902.000,A,1205.8857,S,07701.4697,W,5.91,198.76,140526,,,A*6F,0
1778779611177287752,$GPGGA,172903.000,1205.8912,S,07701.4719,W,1,08,0.9,150.3,M,8.4,M,,0000*69,0
1778779611303343844,$GPGSA,M,3,05,21,19,17,24,14,30,11,,,,,2.0,0.9,1.7*3B,0
1778779611463743288,$GPGSV,3,1,12,05,50,306,27,21,42,350,26,19,39,067,38,17,30,101,36*77,0
1778779611624147714,$GPGSV,3,2,12,24,19,232,39,14,17,146,31,30,10,116,24,11,09,001,32*75,0
1778779611775414603,$GPGSV,3,3,12,13,55,150,23,44,42,284,38,26,48,116,,28,45,155,*7A,0
1778779611940383862,$GPRMC,172903.000,A,1205.8912,S,07701.4719,W,9.81,200.12,140526,,,A*64,0
1778779612177249140,$GPGGA,172904.000,1205.8986,S,07701.4758,W,1,08,0.9,150.6,M,8.4,M,,0000*63,0
1778779612303277992,$GPGSA,M,3,05,21,19,17,24,14,30,11,,,,,2.0,0.9,1.7*3B,0
1778779612470649121,$GPRMC,172904.000,A,1205.8986,S,07701.4758,W,14.44,203.91,140526,,,A*56,0
1778779613174281973,$GPGGA,172905.000,1205.9053,S,07701.4803,W,1,07,1.6,151.2,M,8.4,M,,0000*67,0
1778779613295778658,$GPGSA,M,3,05,21,19,17,24,14,30,,,,,,4.4,1.6,4.1*34,0
1778779613463030546,$GPRMC,172905.000,A,1205.9053,S,07701.4803,W,14.74,203.19,140526,,,A*55,0
1778779614173823953,$GPGGA,172906.000,1205.9105,S,07701.4829,W,1,07,1.6,151.6,M,8.4,M,,0000*6A,0
1778779614295277176,$GPGSA,M,3,05,21,19,17,24,14,30,,,,,,4.4,1.6,4.1*34,0
1778779614462564879,$GPRMC,172906.000,A,1205.9105,S,07701.4829,W,14.64,205.72,140526,,,A*56,0
1778779615174611916,$GPGGA,172907.000,1205.9159,S,07701.4853,W,1,07,1.6,151.7,M,8.4,M,,0000*6E,0
1778779615296071064,$GPGSA,M,3,05,21,19,17,24,14,30,,,,,,4.4,1.6,4.1*34,0
1778779615463355805,$GPRMC,172907.000,A,1205.9159,S,07701.4853,W,14.89,205.84,140526,,,A*59,0
1778779616174984749,$GPGGA,172908.000,1205.9215,S,07701.4874,W,1,07,1.6,152.0,M,8.4,M,,0000*6B,0
1778779616296455008,$GPGSA,M,3,05,21,19,17,24,14,30,,,,,,4.4,1.6,4.1*34,0
1778779616456845897,$GPGSV,3,1,12,05,50,306,38,21,42,350,36,19,39,067,41,17,30,101,37*77,0
1778779616617278970,$GPGSV,3,2,12,24,19,232,32,14,17,146,25,30,10,116,20,13,55,150,40*74,0
1778779616763924415,$GPGSV,3,3,12,44,42,284,38,26,48,116,,28,45,155,,23,26,059,*74,0
1778779616931205581,$GPRMC,172908.000,A,1205.9215,S,07701.4874,W,15.18,205.66,140526,,,A*5D,0
1778779617174726452,$GPGGA,172909.000,1205.9267,S,07701.4896,W,1,07,1.6,152.2,M,8.4,M,,0000*61,0
1778779617296191748,$GPGSA,M,3,05,21,19,17,24,14,30,,,,,,4.4,1.6,4.1*34,0
1778779617463473840,$GPRMC,172909.000,A,1205.9267,S,07701.4896,W,14.97,205.76,140526,,,A*52,0
1778779618173852414,$GPGGA,172910.000,1205.9312,S,07701.4915,W,1,07,1.6,152.3,M,8.4,M,,0000*61,0
1778779618295300525,$GPGSA,M,3,05,21,19,17,24,14,30,,,,,,4.4,1.6,4.1*34,0
1778779618462599562,$GPRMC,172910.000,A,1205.9312,S,07701.4915,W,14.38,204.16,140526,,,A*51,0
1778779619173400450,$GPGGA,172911.000,1205.9359,S,07701.4931,W,1,06,2.2,152.4,M,8.4,M,,0000*68,0
1778779619290257395,$GPGSA,M,3,05,21,19,17,24,14,,,,,,,6.8,2.2,6.5*38,0
1778779619457547339,$GPRMC,172911.000,A,1205.9359,S,07701.4931,W,14.79,202.09,140526,,,A*54,0
1778779620173815468,$GPGGA,172912.000,1205.9404,S,07701.4946,W,1,06,2.2,152.5,M,8.4,M,,0000*65,0
1778779620290625765,$GPGSA,M,3,05,21,19,17,24,14,,,,,,,6.8,2.2,6.5*38,0
1778779620457924505,$GPRMC,172912.000,A,1205.9404,S,07701.4946,W,14.72,200.85,140526,,,A*55,0
1778779621180606820,$GPGGA,172913.000,1205.9446,S,07701.4961,W,1,07,1.6,152.3,M,8.4,M,,0000*67,0
1778779621302049560,$GPGSA,M,3,05,21,19,17,24,14,30,,,,,,4.4,1.6,4.1*34,0
1778779621462457616,$GPGSV,3,1,12,05,50,306,39,21,42,350,39,19,39,067,39,17,30,101,39*78,0
1778779621622870912,$GPGSV,3,2,12,24,19,232,31,14,17,146,18,30,10,116,20,13,55,150,33*7D,0
1778779621769537004,$GPGSV,3,3,12,44,42,284,36,26,48,116,,28,45,155,,23,26,059,*7A,0
1778779621936812875,$GPRMC,172913.000,A,1205.9446,S,07701.4961,W,13.98,201.81,140526,,,A*51,0
1778779622177636856,$GPGGA,172914.000,1205.9482,S,07701.4976,W,1,06,2.2,152.2,M,8.4,M,,0000*69,0
1778779622294500189,$GPGSA,M,3,05,21,19,17,24,14,,,,,,,6.8,2.2,6.5*38,0
1778779622461788578,$GPRMC,172914.000,A,1205.9482,S,07701.4976,W,13.80,202.37,140526,,,A*5F,0
1778779623172802837,$GPGGA,172915.000,1205.9516,S,07701.4991,W,1,06,2.2,152.2,M,8.4,M,,0000*6D,0
1778779623289663281,$GPGSA,M,3,05,21,19,17,24,14,,,,,,,6.8,2.2,6.5*38,0
1778779623456948596,$GPRMC,172915.000,A,1205.9516,S,07701.4991,W,13.23,203.06,140526,,,A*51,0
1778779624171711873,$GPGGA,172916.000,1205.9549,S,07701.5005,W,1,06,2.2,152.2,M,8.4,M,,0000*61,0
1778779624288585447,$GPGSA,M,3,05,21,19,17,24,14,,,,,,,6.8,2.2,6.5*38,0
1778779624455866262,$GPRMC,172916.000,A,1205.9549,S,07701.5005,W,12.63,201.40,140526,,,A*58,0
1778779625170436576,$GPGGA,172917.000,1205.9578,S,07701.5017,W,1,05,2.2,152.0,M,8.4,M,,0000*60,0
1778779625282694873,$GPGSA,M,3,05,21,17,24,14,,,,,,,,6.9,2.2,6.5*31,0
1778779625449981317,$GPRMC,172917.000,A,1205.9578,S,07701.5017,W,11.88,202.43,140526,,,A*5E,0
1778779626170375224,$GPGGA,172918.000,1205.9601,S,07701.5029,W,1,06,2.2,151.9,M,8.4,M,,0000*66,0
1778779626287239742,$GPGSA,M,3,05,21,19,17,24,14,,,,,,,6.8,2.2,6.5*38,0
1778779626447657335,$GPGSV,3,1,12,05,50,307,35,21,41,351,36,19,39,069,24,17,30,102,18*7A,0
1778779626608061483,$GPGSV,3,2,12,24,20,232,25,14,17,146,23,11,08,002,07,13,55,149,29*72,0
1778779626750133501,$GPGSV,3,3,12,51,52,289,,26,48,114,,28,44,155,,23,25,059,*77,0
1778779626917419964,$GPRMC,172918.000,A,1205.9601,S,07701.5029,W,10.31,203.96,140526,,,A*5B,0
1778779627170749686,$GPGGA,172919.000,1205.9615,S,07701.5036,W,1,06,2.2,151.8,M,8.4,M,,0000*6D,0
1778779627287605909,$GPGSA,M,3,05,21,19,17,24,14,,,,,,,6.8,2.2,6.5*38,0
1778779627452626446,$GPRMC,172919.000,A,1205.9615,S,07701.5036,W,8.03,204.22,140526,,,A*61,0
1778779628170285130,$GPGGA,172920.000,1205.9619,S,07701.5040,W,1,06,2.2,152.0,M,8.4,M,,0000*61,0
1778779628287159612,$GPGSA,M,3,05,21,19,17,24,14,,,,,,,6.8,2.2,6.5*38,0
1778779628452149667,$GPRMC,172920.000,A,1205.9619,S,07701.5040,W,5.22,206.43,140526,,,A*6D,0
1778779629173572796,$GPGGA,172921.000,1205.9631,S,07701.5044,W,1,07,1.6,152.0,M,8.4,M,,0000*68,0
1778779629295012074,$GPGSA,M,3,05,21,19,17,24,14,30,,,,,,4.4,1.6,4.0*35,0
1778779629460006407,$GPRMC,172921.000,A,1205.9631,S,07701.5044,W,5.10,205.19,140526,,,A*6F,0
1778779630172709870,$GPGGA,172922.000,1205.9643,S,07701.5049,W,1,07,1.6,151.6,M,8.4,M,,0000*66,0
1778779630294139296,$GPGSA,M,3,05,21,19,17,24,14,30,,,,,,4.4,1.6,4.0*35,0
1778779630459142444,$GPRMC,172922.000,A,1205.9643,S,07701.5049,W,5.56,203.19,140526,,,A*60,0
1778779631178271128,$GPGGA,172923.000,1205.9659,S,07701.5053,W,1,07,1.6,151.5,M,8.4,M,,0000*64,0
1778779631299724906,$GPGSA,M,3,05,21,19,17,24,14,30,,,,,,4.4,1.6,4.0*35,0
1778779631460143962,$GPGSV,3,1,12,05,50,307,44,21,41,351,44,19,39,069,27,17,30,102,34*74,0
1778779631620546869,$GPGSV,3,2,12,24,20,232,32,14,17,146,33,30,10,115,28,11,08,002,18*73,0
1778779631767213480,$GPGSV,3,3,12,13,55,149,33,51,52,289,,26,48,114,,28,44,155,*73,0
1778779631932210165,$GPRMC,172923.000,A,1205.9659,S,07701.5053,W,6.05,203.79,140526,,,A*62,0
1778779632173220646,$GPGGA,172924.000,1205.9677,S,07701.5059,W,1,07,1.6,151.4,M,8.4,M,,0000*64,0
1778779632294682609,$GPGSA,M,3,05,21,19,17,24,14,30,,,,,,4.4,1.6,4.0*35,0
1778779632459672424,$GPRMC,172924.000,A,1205.9677,S,07701.5059,W,7.01,202.46,140526,,,A*6B,0
1778779633177150757,$GPGGA,172925.000,1205.9699,S,07701.5064,W,1,07,1.6,151.5,M,8.4,M,,0000*6A,0
1778779633298585701,$GPGSA,M,3,05,21,19,17,24,14,30,,,,,,4.4,1.6,4.0*35,0
1778779633463583220,$GPRMC,172925.000,A,1205.9699,S,07701.5064,W,7.45,201.94,140526,,,A*68,0
1778779634176684701,$GPGGA,172926.000,1205.9720,S,07701.5070,W,1,08,0.9,151.4,M,8.4,M,,0000*6F,0
1778779634302714867,$GPGSA,M,3,05,21,19,17,24,14,30,11,,,,,2.0,0.9,1.7*3B,0
1778779634467728904,$GPRMC,172926.000,A,1205.9720,S,07701.5070,W,7.19,199.49,140526,,,A*66,0
1778779635178097348,$GPGGA,172927.000,1205.9739,S,07701.5074,W,1,08,0.9,151.2,M,8.4,M,,0000*64,0
1778779635304116219,$GPGSA,M,3,05,21,19,17,24,14,30,11,,,,,2.0,0.9,1.7*3B,0
1778779635469129719,$GPRMC,172927.000,A,1205.9739,S,07701.5074,W,7.06,189.56,140526,,,A*6A,0
1778779636176373070,$GPGGA,172928.000,1205.9762,S,07701.5072,W,1,08,0.9,150.5,M,8.4,M,,0000*65,0
1778779636302410477,$GPGSA,M,3,05,21,19,17,24,14,30,11,,,,,2.0,0.9,1.7*3B,0
1778779636462817125,$GPGSV,3,1,12,05,50,307,45,21,41,351,45,19,39,069,37,17,30,102,36*77,0
1778779636623297847,$GPGSV,3,2,12,24,20,231,24,14,17,145,36,30,10,115,24,11,08,002,29*7F,0
1778779636769893773,$GPGSV,3,3,12,13,55,149,30,51,52,289,,26,48,114,,28,44,155,*70,0
