Unix_time,GPS_data,flagStop
1778779709473490693,$GPRMC,173041.000,A,1205.9930,S,07701.4555,W,0.06,292.95,140526,,,A*63,0
1778779742717327766,$GPGGA,173042.000,1205.9930,S,07701.4555,W,1,07,1.6,143.2,M,8.4,M,,0000*6D,0
1778779742718092173,$GPGSA,M,3,05,21,19,17,24,14,30,,,,,,4.3,1.6,4.0*32,0
1778779742718629192,$GPRMC,173042.000,A,1205.9930,S,07701.4555,W,0.01,292.95,140526,,,A*67,0
1778779742719348914,$GPGGA,173043.000,1205.9930,S,07701.4555,W,1,07,1.6,143.2,M,8.4,M,,0000*6C,0
1778779742720094821,$GPGSA,M,3,05,21,19,17,24,14,30,,,,,,4.3,1.6,4.0*32,0
1778779742720612803,$GPGSV,3,1,12,05,50,307,46,21,41,351,41,19,39,069,45,17,30,102,46*72,0
1778779742721346025,$GPGSV,3,2,12,24,20,231,39,14,17,145,36,30,10,115,38,11,08,002,08*7D,0
1778779742722018821,$GPGSV,3,3,12,13,55,149,43,48,33,280,37,26,48,114,,28,44,155,*76,0
1778779742722652340,$GPRMC,173043.000,A,1205.9930,S,07701.4555,W,0.00,292.95,140526,,,A*67,0
1778779742723345377,$GPGGA,173044.000,1205.9930,S,07701.4555,W,1,08,0.9,143.2,M,8.4,M,,0000*6A,0
1778779742724074692,$GPGSA,M,3,05,21,19,17,24,14,30,11,,,,,2.0,0.9,1.7*3B,0
1778779742724605692,$GPRMC,173044.000,A,1205.9930,S,07701.4555,W,0.00,292.95,140526,,,A*60,0
1778779742724785636,$GPGGA,173045.000,1205.9930,S,07701.4555,W,1,08,0.9,143.2,M,8.4,M,,0000*6B,0
1778779742724929210,$GPGSA,M,3,05,21,19,17,24,14,30,11,,,,,2.0,0.9,1.7*3B,0
1778779742725032951,$GPRMC,173045.000,A,1205.9930,S,07701.4555,W,0.00,292.95,140526,,,A*61,0
1778779742725169506,$GPGGA,173046.000,1205.9930,S,07701.4555,W,1,08,0.9,143.3,M,8.4,M,,0000*69,0
1778779742725313932,$GPGSA,M,3,05,21,19,17,24,14,30,11,,,,,2.0,0.9,1.7*3B,0
1778779742725418673,$GPRMC,173046.000,A,1205.9930,S,07701.4555,W,0.06,292.95,140526,,,A*64,0
1778779742725555506,$GPGGA,173047.000,1205.9930,S,07701.4555,W,1,08,0.9,143.3,M,8.4,M,,0000*68,0
1778779742725699766,$GPGSA,M,3,05,21,19,17,24,14,30,11,,,,,2.0,0.9,1.7*3B,0
1778779742725804432,$GPRMC,173047.000,A,1205.9930,S,07701.4555,W,0.01,292.95,140526,,,A*62,0
1778779742725941210,$GPGGA,173048.000,1205.9930,S,07701.4555,W,1,08,0.9,143.3,M,8.4,M,,0000*67,0
1778779742726084803,$GPGSA,M,3,05,21,19,17,24,14,30,11,,,,,2.0,0.9,1.7*3B,0
1778779742726188895,$GPGSV,3,1,12,05,50,307,45,21,41,351,39,19,39,069,45,17,30,102,45*7D,0
1778779742726321358,$GPGSV,3,2,12,24,20,231,40,14,17,145,35,30,10,115,37,11,08,002,19*7F,0
1778779742726453858,$GPGSV,3,3,12,13,55,149,43,48,33,280,37,26,48,114,,28,44,155,*76,0
1778779742726579173,$GPRMC,173048.000,A,1205.9930,S,07701.4555,W,0.00,292.95,140526,,,A*6C,0
1778779742726715321,$GPGGA,173049.000,1205.9930,S,07701.4555,W,1,08,0.9,143.3,M,8.4,M,,0000*66,0
1778779742726859192,$GPGSA,M,3,05,21,19,17,24,14,30,11,,,,,2.0,0.9,1.7*3B,0
1778779742726963451,$GPRMC,173049.000,A,1205.9930,S,07701.4555,W,0.00,292.95,140526,,,A*6D,0
1778779742727100636,$GPGGA,173050.000,1205.9930,S,07701.4555,W,1,08,0.9,143.3,M,8.4,M,,0000*6E,0
1778779742727244210,$GPGSA,M,3,05,21,19,17,24,14,30,11,,,,,2.0,0.9,1.7*3B,0
1778779742727348673,$GPRMC,173050.000,A,1205.9930,S,07701.4555,W,0.00,292.95,140526,,,A*65,0
1778779742727484303,$GPGGA,173051.000,1205.9930,S,07701.4555,W,1,08,0.9,143.3,M,8.4,M,,0000*6F,0
1778779742727627729,$GPGSA,M,3,05,21,19,17,24,14,30,11,,,,,2.0,0.9,1.7*3B,0
1778779742727731784,$GPRMC,173051.000,A,1205.9930,S,07701.4555,W,0.00,292.95,140526,,,A*64,0
1778779742727867840,$GPGGA,173052.000,1205.9930,S,07701.4555,W,1,08,0.9,143.3,M,8.4,M,,0000*6C,0
1778779742728011377,$GPGSA,M,3,05,21,19,17,24,14,30,11,,,,,2.0,0.9,1.7*3B,0
1778779742728115414,$GPRMC,173052.000,A,1205.9930,S,07701.4555,W,0.00,292.95,140526,,,A*67,0
1778779742728251414,$GPGGA,173053.000,1205.9930,S,07701.4555,W,1,08,0.9,143.3,M,8.4,M,,0000*6D,0
1778779742728395025,$GPGSA,M,3,05,21,19,17,24,14,30,11,,,,,2.0,0.9,1.7*3B,0
1778779742728499192,$GPGSV,3,1,12,05,50,307,44,21,41,351,39,19,39,069,45,17,30,102,45*7C,0
1778779742728631543,$GPGSV,3,2,12,24,20,231,39,14,17,145,35,30,10,115,37,11,08,002,24*7F,0
1778779742728800006,$GPGSV,3,3,12,13,55,149,42,48,33,280,38,26,48,114,,28,44,155,*78,0
1778779742728933080,$GPRMC,173053.000,A,1205.9930,S,07701.4555,W,0.00,292.95,140526,,,A*66,0
1778779742729156358,$GPGGA,173054.000,1205.9930,S,07701.4555,W,1,08,0.9,143.3,M,8.4,M,,0000*6A,0
1778779742729316655,$GPGSA,M,3,05,21,19,17,24,14,30,11,,,,,2.0,0.9,1.7*3B,0
1778779742729431229,$GPRMC,173054.000,A,1205.9930,S,07701.4555,W,0.00,292.95,140526,,,A*61,0
1778779742729578840,$GPGGA,173055.000,1205.9930,S,07701.4555,W,1,08,0.9,143.3,M,8.4,M,,0000*6B,0
1778779742729924784,$GPGSA,M,3,05,21,19,17,24,14,30,11,,,,,2.0,0.9,1.7*3B,0
1778779742730454599,$GPRMC,173055.000,A,1205.9930,S,07701.4555,W,0.00,292.95,140526,,,A*60,0
1778779742731145266,$GPGGA,173056.000,1205.9930,S,07701.4555,W,1,08,0.9,143.3,M,8.4,M,,0000*68,0
1778779742731861284,$GPGSA,M,3,05,21,19,17,24,14,30,11,,,,,2.0,0.9,1.7*3B,0
1778779742732378080,$GPRMC,173056.000,A,1205.9930,S,07701.4555,W,0.00,292.95,140526,,,A*63,0
1778779742733062877,$GPGGA,173057.000,1205.9931,S,07701.4555,W,1,08,0.9,143.6,M,8.4,M,,0000*6D,0
1778779742733777969,$GPGSA,M,3,05,21,19,17,24,14,30,11,,,,,2.0,0.9,1.7*3B,0
1778779742734296395,$GPRMC,173057.000,A,1205.9931,S,07701.4555,W,0.06,292.95,140526,,,A*65,0
1778779742734972340,$GPGGA,173058.000,1205.9931,S,07701.4555,W,1,08,0.9,143.6,M,8.4,M,,0000*62,0
1778779742735685229,$GPGSA,M,3,05,21,19,17,24,14,30,11,,,,,2.0,0.9,1.7*3B,0
1778779742736200951,$GPGSV,3,1,12,05,50,307,44,21,41,351,39,19,39,069,46,17,30,102,45*7F,0
1778779742736504303,$GPGSV,3,2,12,24,20,231,40,14,17,145,35,30,10,115,37,11,08,002,23*76,0
1778779742736649118,$GPGSV,3,3,12,13,55,149,42,48,33,280,38,26,48,114,,28,44,155,*78,0
1778779742736773673,$GPRMC,173058.000,A,1205.9931,S,07701.4555,W,0.01,292.95,140526,,,A*6D,0
1778779742736908747,$GPGGA,173059.000,1205.9931,S,07701.4555,W,1,08,0.9,143.6,M,8.4,M,,0000*63,0
1778779742737050840,$GPGSA,M,3,05,21,19,17,24,14,30,11,,,,,2.0,0.9,1.7*3B,0
1778779742737153877,$GPRMC,173059.000,A,1205.9931,S,07701.4555,W,0.00,292.95,140526,,,A*6D,0
1778779742737288877,$GPGGA,173100.000,1205.9931,S,07701.4555,W,1,08,0.9,143.6,M,8.4,M,,0000*6E,0
1778779742737431877,$GPGSA,M,3,05,21,19,17,24,14,30,11,,,,,2.0,0.9,1.7*3B,0
1778779742737535210,$GPRMC,173100.000,A,1205.9931,S,07701.4555,W,0.00,292.95,140526,,,A*60,0
1778779742737670247,$GPGGA,173101.000,1205.9931,S,07701.4555,W,1,08,0.9,143.6,M,8.4,M,,0000*6F,0
1778779742737813432,$GPGSA,M,3,05,21,19,17,24,14,30,11,,,,,2.0,0.9,1.7*3B,0
1778779742737916858,$GPRMC,173101.000,A,1205.9931,S,07701.4555,W,0.00,292.95,140526,,,A*61,0
1778779742738052006,$GPGGA,173102.000,1205.9931,S,07701.4555,W,1,07,1.6,143.6,M,8.4,M,,0000*6D,0
1778779742738194636,$GPGSA,M,3,05,21,19,17,24,14,30,,,,,,4.3,1.6,3.9*3C,0
1778779742738294247,$GPRMC,173102.000,A,1205.9931,S,07701.4555,W,0.00,292.95,140526,,,A*62,0
1778779742738429340,$GPGGA,173103.000,1205.9931,S,07701.4554,W,1,07,1.6,143.8,M,8.4,M,,0000*63,0
1778779742738571895,$GPGSA,M,3,05,21,19,17,24,14,30,,,,,,4.3,1.6,3.9*3C,0
1778779742738671636,$GPGSV,3,1,12,05,50,307,43,21,41,351,40,19,39,069,45,17,30,102,44*74,0
1778779742738803340,$GPGSV,3,2,12,24,20,231,40,14,17,145,35,30,10,115,37,11,08,002,06*71,0
1778779742738934692,$GPGSV,3,3,12,13,55,149,42,48,33,280,38,26,48,114,,28,44,155,*78,0
1778779742739058580,$GPRMC,173103.000,A,1205.9931,S,07701.4554,W,0.06,292.95,140526,,,A*64,0
1778779742739194006,$GPGGA,173104.000,1205.9931,S,07701.4554,W,1,07,1.6,143.8,M,8.4,M,,0000*64,0
1778779742739336821,$GPGSA,M,3,05,21,19,17,24,14,30,,,,,,4.3,1.6,3.9*3C,0
1778779742739436562,$GPRMC,173104.000,A,1205.9931,S,07701.4554,W,0.01,292.95,140526,,,A*64,0
1778779742739571710,$GPGGA,173105.000,1205.9931,S,07701.4554,W,1,07,1.6,143.9,M,8.4,M,,0000*64,0
1778779742739714303,$GPGSA,M,3,05,21,19,17,24,14,30,,,,,,4.3,1.6,3.9*3C,0
1778779742739813821,$GPRMC,173105.000,A,1205.9931,S,07701.4554,W,0.00,292.95,140526,,,A*64,0
1778779742739949488,$GPGGA,173106.000,1205.9931,S,07701.4554,W,1,07,1.6,143.9,M,8.4,M,,0000*67,0
1778779742740092025,$GPGSA,M,3,05,21,19,17,24,14,30,,,,,,4.3,1.6,3.9*3C,0
1778779742740191692,$GPRMC,173106.000,A,1205.9931,S,07701.4554,W,0.00,292.95,140526,,,A*67,0
1778779742740326747,$GPGGA,173107.000,1205.9932,S,07701.4554,W,1,07,1.6,144.1,M,8.4,M,,0000*6A,0
1778779742740500266,$GPGSA,M,3,05,21,19,17,24,14,30,,,,,,4.3,1.6,3.9*3C,0
1778779742740601025,$GPRMC,173107.000,A,1205.9932,S,07701.4554,W,0.07,292.95,140526,,,A*62,0
1778779742740744266,$GPGGA,173108.000,1205.9932,S,07701.4554,W,1,07,1.6,144.4,M,8.4,M,,0000*60,0
1778779742740888358,$GPGSA,M,3,05,21,19,17,24,14,30,,,,,,4.3,1.6,3.9*3C,0
1778779742740989192,$GPGSV,3,1,12,05,50,307,43,21,41,351,40,19,39,069,45,17,30,102,44*74,0
1778779742741121932,$GPGSV,3,2,12,24,20,231,39,14,17,145,35,30,10,115,37,11,08,002,15*7D,0
1778779742741254710,$GPGSV,3,3,12,13,55,149,42,48,33,280,38,26,48,114,,28,44,155,*78,0
1778779742741379821,$GPRMC,173108.000,A,1205.9932,S,07701.4554,W,0.07,292.95,140526,,,A*6D,0
1778779742741516377,$GPGGA,173109.000,1205.9932,S,07701.4554,W,1,07,1.6,144.4,M,8.4,M,,0000*61,0
1778779742741660525,$GPGSA,M,3,05,21,19,17,24,14,30,,,,,,4.3,1.6,3.9*3C,0
1778779742741761247,$GPRMC,173109.000,A,1205.9932,S,07701.4554,W,0.01,292.95,140526,,,A*6A,0
1778779742741897858,$GPGGA,173110.000,1205.9932,S,07701.4554,W,1,07,1.6,144.4,M,8.4,M,,0000*69,0
1778779742742041562,$GPGSA,M,3,05,21,19,17,24,14,30,,,,,,4.3,1.6,3.9*3C,0
1778779742742142266,$GPRMC,173110.000,A,1205.9932,S,07701.4554,W,0.00,292.95,140526,,,A*63,0
1778779742742278488,$GPGGA,173111.000,1205.9932,S,07701.4554,W,1,07,1.6,144.4,M,8.4,M,,0000*68,0
1778779742742422469,$GPGSA,M,3,05,21,19,17,24,14,30,,,,,,4.2,1.6,3.9*3D,0
1778779742742523173,$GPRMC,173111.000,A,1205.9932,S,07701.4554,W,0.00,292.95,140526,,,A*62,0
1778779742742659506,$GPGGA,173112.000,1205.9932,S,07701.4554,W,1,07,1.6,144.4,M,8.4,M,,0000*6B,0
1778779742742803451,$GPGSA,M,3,05,21,19,17,24,14,30,,,,,,4.2,1.6,3.9*3D,0
1778779742742904136,$GPRMC,173112.000,A,1205.9932,S,07701.4554,W,0.00,292.95,140526,,,A*61,0
1778779742743040580,$GPGGA,173113.000,1205.9932,S,07701.4554,W,1,07,1.6,144.4,M,8.4,M,,0000*6A,0
1778779742743184747,$GPGSA,M,3,05,21,19,17,24,14,30,,,,,,4.2,1.6,3.9*3D,0
1778779742743285451,$GPGSV,3,1,12,05,50,307,43,21,41,351,40,19,39,069,45,17,30,102,44*74,0
1778779742743417969,$GPGSV,3,2,12,24,20,231,39,14,17,145,36,30,10,115,37,11,08,002,22*7A,0
1778779742743550673,$GPGSV,3,3,12,13,55,149,42,48,33,280,38,26,48,114,,28,44,155,*78,0
1778779742743675821,$GPRMC,173113.000,A,1205.9932,S,07701.4554,W,0.00,292.95,140526,,,A*60,0
1778779742743812284,$GPGGA,173114.000,1205.9932,S,07701.4554,W,1,07,1.6,144.4,M,8.4,M,,0000*6D,0
1778779742743957080,$GPGSA,M,3,05,21,19,17,24,14,30,,,,,,4.2,1.6,3.9*3D,0
1778779742744060969,$GPRMC,173114.000,A,1205.9932,S,07701.4554,W,0.00,292.95,140526,,,A*67,0
1778779743183063247,$GPGGA,173115.000,1205.9932,S,07701.4554,W,1,07,1.6,144.4,M,8.4,M,,0000*6C,0
1778779743304483802,$GPGSA,M,3,05,21,19,17,24,14,30,,,,,,4.2,1.6,3.9*3D,0
1778779743469463969,$GPRMC,173115.000,A,1205.9932,S,07701.4554,W,0.00,292.95,140526,,,A*66,0
1778779744184234524,$GPGGA,173116.000,1205.9932,S,07701.4554,W,1,07,1.6,144.4,M,8.4,M,,0000*6F,0
1778779744305693209,$GPGSA,M,3,05,21,19,17,24,14,30,,,,,,4.2,1.6,3.9*3D,0
1778779744470669968,$GPRMC,173116.000,A,1205.9932,S,07701.4554,W,0.00,292.95,140526,,,A*65,0
1778779745183763838,$GPGGA,173117.000,1205.9932,S,07701.4554,W,1,07,1.6,144.4,M,8.4,M,,0000*6E,0
1778779745305219727,$GPGSA,M,3,05,21,19,17,24,14,30,,,,,,4.2,1.6,3.9*3D,1
1778779745470249394,$GPRMC,173117.000,A,1205.9932,S,07701.4554,W,0.00,292.95,140526,,,A*64,1
1778779746183920023,$GPGGA,173118.000,1205.9932,S,07701.4554,W,1,07,1.6,144.4,M,8.4,M,,0000*61,1
1778779746305362801,$GPGSA,M,3,05,21,19,17,24,14,30,,,,,,4.2,1.6,3.9*3D,1
1778779746465906856,$GPGSV,3,1,12,05,50,307,43,21,41,351,40,19,39,069,45,17,30,102,44*74,1
1778779746626227115,$GPGSV,3,2,12,24,20,231,39,14,17,145,36,30,10,115,36,11,08,002,22*7B,1
1778779746777434189,$GPGSV,3,3,12,13,55,149,42,48,33,280,38,26,48,114,,28,44,155,*78,1
1778779746942451467,$GPRMC,173118.000,A,1205.9932,S,07701.4554,W,0.00,292.95,140526,,,A*6B,1
1778779747184499985,$GPGGA,173119.000,1205.9933,S,07701.4553,W,1,07,1.6,144.6,M,8.4,M,,0000*64,1
1778779747306021578,$GPGSA,M,3,05,21,19,17,24,14,30,,,,,,4.2,1.6,3.9*3D,1
1778779747471067818,$GPRMC,173119.000,A,1205.9933,S,07701.4553,W,0.06,292.95,140526,,,A*6A,1
1778779748184655411,$GPGGA,173120.000,1205.9933,S,07701.4553,W,1,07,1.6,144.6,M,8.4,M,,0000*6E,1
1778779748306177485,$GPGSA,M,3,05,21,19,17,24,14,30,,,,,,4.2,1.6,3.9*3D,1
1778779748471218577,$GPRMC,173120.000,A,1205.9933,S,07701.4553,W,0.01,292.95,140526,,,A*67,1
1778779749184432262,$GPGGA,173121.000,1205.9934,S,07701.4553,W,1,07,1.6,144.7,M,8.4,M,,0000*69,1
1778779749305875132,$GPGSA,M,3,05,21,19,17,24,14,30,,,,,,4.2,1.6,3.9*3D,1
1778779749470858521,$GPRMC,173121.000,A,1205.9934,S,07701.4553,W,0.06,292.95,140526,,,A*66,1
1778779750182321724,$GPGGA,173122.000,1205.9934,S,07701.4553,W,1,07,1.6,144.7,M,8.4,M,,0000*6A,1
1778779750303776595,$GPGSA,M,3,05,21,19,17,24,14,30,,,,,,4.2,1.6,3.9*3D,1
1778779750468760613,$GPRMC,173122.000,A,1205.9934,S,07701.4553,W,0.01,292.95,140526,,,A*62,1
1778779751181615650,$GPGGA,173123.000,1205.9934,S,07701.4553,W,1,07,1.6,144.7,M,8.4,M,,0000*6B,1
1778779751303058020,$GPGSA,M,3,05,21,19,17,24,14,30,,,,,,4.2,1.6,3.9*3D,1
1778779751463524575,$GPGSV,3,1,12,05,50,307,43,21,41,351,40,19,39,069,45,17,30,102,44*74,1
1778779751623919427,$GPGSV,3,2,12,24,20,231,39,14,17,145,36,30,10,115,36,13,55,149,42*79,1
1778779751770560131,$GPGSV,3,3,12,48,33,280,38,26,48,114,,28,44,155,,23,25,058,*7B,1
1778779751935519056,$GPRMC,173123.000,A,1205.9934,S,07701.4553,W,0.00,292.95,140526,,,A*62,1
1778779752177621501,$GPGGA,173124.000,1205.9934,S,07701.4553,W,1,07,1.6,144.9,M,8.4,M,,0000*62,1
1778779752299081575,$GPGSA,M,3,05,21,19,17,24,14,30,,,,,,4.2,1.6,3.9*3D,1
1778779752464062797,$GPRMC,173124.000,A,1205.9934,S,07701.4553,W,0.06,292.95,140526,,,A*63,1
1778779753182774611,$GPGGA,173125.000,1205.9934,S,07701.4553,W,1,07,1.6,144.9,M,8.4,M,,0000*63,1
1778779753304227167,$GPGSA,M,3,05,21,19,17,24,14,30,,,,,,4.2,1.6,3.9*3D,1
1778779753469211389,$GPRMC,173125.000,A,1205.9934,S,07701.4553,W,0.01,292.95,140526,,,A*65,1
1778779754176928666,$GPGGA,173126.000,1205.9934,S,07701.4555,W,1,07,1.6,145.1,M,8.4,M,,0000*6F,1
1778779754298319888,$GPGSA,M,3,05,21,19,17,24,14,30,,,,,,4.2,1.6,3.9*3D,1
1778779754463369536,$GPRMC,173126.000,A,1205.9934,S,07701.4555,W,1.24,296.46,140526,,,A*6C,1
1778779755183521721,$GPGGA,173127.000,1205.9932,S,07701.4561,W,1,07,1.6,145.2,M,8.4,M,,0000*6C,1
1778779755304969462,$GPGSA,M,3,05,21,19,17,24,14,30,,,,,,4.2,1.6,3.9*3D,1
1778779755470008017,$GPRMC,173127.000,A,1205.9932,S,07701.4561,W,3.30,298.12,140526,,,A*64,1
1778779756185549813,$GPGGA,173128.000,1205.9927,S,07701.4570,W,1,08,0.9,145.5,M,8.4,M,,0000*61,1
1778779756311564813,$GPGSA,M,3,05,21,19,17,24,14,30,11,,,,,2.0,0.9,1.7*3B,1
1778779756472041035,$GPGSV,3,1,12,05,50,307,43,21,41,351,41,19,39,069,45,17,30,102,45*74,1
1778779756632428220,$GPGSV,3,2,12,24,20,231,34,14,17,145,37,30,10,115,34,11,08,002,23*74,1
1778779756783644924,$GPGSV,3,3,12,13,55,149,43,48,33,280,38,26,48,114,,28,44,155,*79,1
1778779756948662720,$GPRMC,173128.000,A,1205.9927,S,07701.4570,W,4.16,300.38,140526,,,A*64,0
1778779757184705702,$GPGGA,173129.000,1205.9920,S,07701.4583,W,1,08,0.9,145.8,M,8.4,M,,0000*66,0
1778779757310724035,$GPGSA,M,3,05,21,19,17,24,14,30,11,,,,,2.0,0.9,1.7*3B,0
1778779757475694998,$GPRMC,173129.000,A,1205.9920,S,07701.4583,W,6.33,300.30,140526,,,A*63,0
1778779758180287016,$GPGGA,173130.000,1205.9911,S,07701.4599,W,1,08,0.9,146.0,M,8.4,M,,0000*6C,0
1778779758306298053,$GPGSA,M,3,05,21,19,17,24,14,30,11,,,,,2.0,0.9,1.7*3B,0
1778779758471337608,$GPRMC,173130.000,A,1205.9911,S,07701.4599,W,6.78,303.96,140526,,,A*62,0
1778779759185828404,$GPGGA,173131.000,1205.9901,S,07701.4614,W,1,08,0.9,146.1,M,8.4,M,,0000*6B,0
1778779759311867200,$GPGSA,M,3,05,21,19,17,24,14,30,11,,,,,2.0,0.9,1.7*3B,0
1778779759476872478,$GPRMC,173131.000,A,1205.9901,S,07701.4614,W,5.92,306.33,140526,,,A*69,0
1778779760180152181,$GPGGA,173132.000,1205.9891,S,07701.4626,W,1,08,0.9,146.2,M,8.4,M,,0000*62,0
1778779760306188422,$GPGSA,M,3,05,21,19,17,24,14,30,11,,,,,2.0,0.9,1.7*3B,0
1778779760471198070,$GPRMC,173132.000,A,1205.9891,S,07701.4626,W,5.38,314.74,140526,,,A*63,0
1778779761180313310,$GPGGA,173133.000,1205.9878,S,07701.4637,W,1,08,0.9,146.3,M,8.4,M,,0000*65,0
1778779761306370458,$GPGSA,M,3,05,21,19,17,24,14,30,11,,,,,2.0,0.9,1.7*3B,0
1778779761466781717,$GPGSV,3,1,12,05,50,307,44,21,41,351,41,19,39,069,31,17,30,102,40*75,0
1778779761627185699,$GPGSV,3,2,12,24,20,231,33,14,17,145,36,30,10,115,35,11,08,002,24*74,0
1778779761778419569,$GPGSV,3,3,12,13,55,149,43,48,33,280,38,26,48,114,,28,44,155,*79,0
1778779761943411069,$GPRMC,173133.000,A,1205.9878,S,07701.4637,W,6.11,319.86,140526,,,A*6D,0
1778779762184439013,$GPGGA,173134.000,1205.9862,S,07701.4645,W,1,08,0.9,146.5,M,8.4,M,,0000*6A,0
1778779762310470032,$GPGSA,M,3,05,21,19,17,24,14,30,11,,,,,2.0,0.9,1.7*3B,0
1778779762475480291,$GPRMC,173134.000,A,1205.9862,S,07701.4645,W,6.90,334.19,140526,,,A*64,0
1778779763180447753,$GPGGA,173135.000,1205.9842,S,07701.4648,W,1,08,0.9,146.7,M,8.4,M,,0000*66,0
1778779763306472994,$GPGSA,M,3,05,21,19,17,24,14,30,11,,,,,2.0,0.9,1.7*3B,0
1778779763471480827,$GPRMC,173135.000,A,1205.9842,S,07701.4648,W,7.24,351.15,140526,,,A*6B,0
1778779764184981438,$GPGGA,173136.000,1205.9820,S,07701.4645,W,1,08,0.9,146.6,M,8.4,M,,0000*6D,0
1778779764311005660,$GPGSA,M,3,05,21,19,17,24,14,30,11,,,,,2.0,0.9,1.7*3B,0
1778779764471438716,$GPRMC,173136.000,A,1205.9820,S,07701.4645,W,7.93,4.99,140526,,,A*6A,0
1778779765181392697,$GPGGA,173137.000,1205.9790,S,07701.4633,W,1,08,0.9,146.6,M,8.4,M,,0000*69,0
1778779765307425752,$GPGSA,M,3,05,21,19,17,24,14,30,11,,,,,2.0,0.9,1.7*3B,0
1778779765472432956,$GPRMC,173137.000,A,1205.9790,S,07701.4633,W,12.15,21.65,140526,,,A*60,0
1778779766180110437,$GPGGA,173138.000,1205.9755,S,07701.4617,W,1,08,0.9,146.5,M,8.4,M,,0000*6A,0
1778779766306124529,$GPGSA,M,3,05,21,19,17,24,14,30,11,,,,,2.0,0.9,1.7*3B,0
1778779766466554418,$GPGSV,3,1,12,05,50,307,43,21,41,351,41,19,39,069,43,17,30,102,43*74,0
1778779766626940492,$GPGSV,3,2,12,24,20,231,39,14,17,145,26,30,10,115,25,11,08,002,21*7B,0
1778779766778189307,$GPGSV,3,3,12,13,55,149,26,48,33,280,30,26,48,114,,28,44,155,*72,0
1778779766943183436,$GPRMC,173138.000,A,1205.9755,S,07701.4617,W,13.90,25.43,140526,,,A*6C,0
1778779767180272381,$GPGGA,173139.000,1205.9717,S,07701.4598,W,1,08,0.9,146.5,M,8.4,M,,0000*69,0
1778779767306288584,$GPGSA,M,3,05,21,19,17,24,14,30,11,,,,,2.0,0.9,1.7*3B,0
1778779767471300455,$GPRMC,173139.000,A,1205.9717,S,07701.4598,W,14.72,25.35,140526,,,A*65,0
1778779768177301473,$GPGGA,173140.000,1205.9677,S,07701.4578,W,1,07,0.9,146.6,M,8.4,M,,0000*62,0
1778779768298753806,$GPGSA,M,3,05,21,19,17,24,30,11,,,,,,2.0,0.9,1.8*31,0
1778779768463748176,$GPRMC,173140.000,A,1205.9677,S,07701.4578,W,15.18,25.16,140526,,,A*6E,0
1778779769184571454,$GPGGA,173141.000,1205.9637,S,07701.4559,W,1,07,0.9,146.6,M,8.4,M,,0000*64,0
1778779769305992065,$GPGSA,M,3,05,21,19,17,24,30,11,,,,,,2.0,0.9,1.8*31,0
1778779769470992435,$GPRMC,173141.000,A,1205.9637,S,07701.4559,W,14.94,24.95,140526,,,A*67,0
1778779770180536416,$GPGGA,173142.000,1205.9599,S,07701.4540,W,1,08,0.9,146.9,M,8.4,M,,0000*68,0
1778779770306562879,$GPGSA,M,3,05,21,19,17,24,14,30,11,,,,,2.0,0.9,1.7*3B,0
1778779770471573879,$GPRMC,173142.000,A,1205.9599,S,07701.4540,W,14.58,24.88,140526,,,A*67,0
1778779771184464397,$GPGGA,173143.000,1205.9560,S,07701.4523,W,1,08,0.9,147.3,M,8.4,M,,0000*61,0
1778779771310493619,$GPGSA,M,3,05,21,19,17,24,14,30,11,,,,,2.0,0.9,1.7*3B,0
1778779771470917360,$GPGSV,3,1,12,05,50,307,44,21,41,351,40,19,39,069,44,17,30,102,36*77,0
1778779771631301619,$GPGSV,3,2,12,24,20,231,39,14,17,145,29,30,10,115,18,11,08,002,16*7E,0
1778779771782550397,$GPGSV,3,3,12,13,55,149,40,48,33,280,42,26,48,114,,28,44,155,*77,0
1778779771947541582,$GPRMC,173143.000,A,1205.9560,S,07701.4523,W,14.34,24.53,140526,,,A*69,0
1778779772183364304,$GPGGA,173144.000,1205.9523,S,07701.4505,W,1,08,0.9,147.5,M,8.4,M,,0000*63,0
1778779772309405730,$GPGSA,M,3,05,21,19,17,24,14,30,11,,,,,2.0,0.9,1.7*3B,0
1778779772474408044,$GPRMC,173144.000,A,1205.9523,S,07701.4505,W,14.30,25.19,140526,,,A*66,0
1778779773184568118,$GPGGA,173145.000,1205.9484,S,07701.4488,W,1,08,0.9,147.4,M,8.4,M,,0000*6B,0
1778779773310604451,$GPGSA,M,3,05,21,19,17,24,14,30,11,,,,,2.0,0.9,1.7*3B,0
1778779773475599970,$GPRMC,173145.000,A,1205.9484,S,07701.4488,W,14.57,25.19,140526,,,A*6E,0
1778779774180572228,$GPGGA,173146.000,1205.9445,S,07701.4470,W,1,07,1.6,147.1,M,8.4,M,,0000*66,0
1778779774302009988,$GPGSA,M,3,05,21,19,17,24,14,30,,,,,,4.2,1.6,3.9*3D,0
1778779774467020562,$GPRMC,173146.000,A,1205.9445,S,07701.4470,W,14.75,25.37,140526,,,A*6B,0
1778779775180950043,$GPGGA,173147.000,1205.9407,S,07701.4452,W,1,07,1.6,147.3,M,8.4,M,,0000*63,0
1778779775302383431,$GPGSA,M,3,05,21,19,17,24,14,30,,,,,,4.2,1.6,3.9*3D,0
1778779775467396598,$GPRMC,173147.000,A,1205.9407,S,07701.4452,W,14.86,25.10,140526,,,A*65,0
1778779776180685561,$GPGGA,173148.000,1205.9369,S,07701.4433,W,1,08,0.9,147.2,M,8.4,M,,0000*64,0
1778779776306707820,$GPGSA,M,3,05,21,19,17,24,14,30,11,,,,,2.0,0.9,1.7*3B,0
1778779776467143634,$GPGSV,3,1,12,05,50,307,41,21,41,351,36,19,39,069,44,17,30,102,41*73,0
1778779776627537801,$GPGSV,3,2,12,24,20,231,39,14,17,145,31,30,10,115,21,11,08,002,25*7D,0
1778779776778771116,$GPGSV,3,3,12,13,55,149,36,48,33,280,38,26,48,114,,28,44,155,*7B,0
1778779776943767505,$GPRMC,173148.000,A,1205.9369,S,07701.4433,W,14.97,24.81,140526,,,A*6B,0
1778779777179816671,$GPGGA,173149.000,1205.9330,S,07701.4415,W,1,08,0.9,147.1,M,8.4,M,,0000*6E,0
1778779777305836893,$GPGSA,M,3,05,21,19,17,24,14,30,11,,,,,2.0,0.9,1.7*3B,0
1778779777470838356,$GPRMC,173149.000,A,1205.9330,S,07701.4415,W,15.01,24.45,140526,,,A*64,0
1778779778183937837,$GPGGA,173150.000,1205.9290,S,07701.4397,W,1,08,0.9,147.1,M,8.4,M,,0000*60,0
1778779778309954652,$GPGSA,M,3,05,21,19,17,24,14,30,11,,,,,2.0,0.9,1.7*3B,0
1778779778474956911,$GPRMC,173150.000,A,1205.9290,S,07701.4397,W,15.23,24.79,140526,,,A*65,0
1778779779184296670,$GPGGA,173151.000,1205.9251,S,07701.4380,W,1,08,0.9,147.1,M,8.4,M,,0000*6A,0
1778779779310327114,$GPGSA,M,3,05,21,19,17,24,14,30,11,,,,,2.0,0.9,1.7*3B,0
1778779779475343485,$GPRMC,173151.000,A,1205.9251,S,07701.4380,W,15.20,24.08,140526,,,A*6A,0
1778779780180290003,$GPGGA,173152.000,1205.9213,S,07701.4361,W,1,08,0.9,147.3,M,8.4,M,,0000*62,0
1778779780306324577,$GPGSA,M,3,05,21,19,17,24,14,30,11,,,,,2.0,0.9,1.7*3B,0
1778779780471333114,$GPRMC,173152.000,A,1205.9213,S,07701.4361,W,15.36,25.33,140526,,,A*6E,0
1778779781180462113,$GPGGA,173153.000,1205.9175,S,07701.4342,W,1,08,0.9,146.8,M,8.4,M,,0000*6B,0
1778779781306523243,$GPGSA,M,3,05,21,19,17,24,14,30,11,,,,,2.0,0.9,1.7*3B,0
1778779781466942631,$GPGSV,3,1,12,05,50,307,42,21,41,351,37,19,39,069,39,17,30,102,43*79,0
1778779781627301520,$GPGSV,3,2,12,24,20,231,36,14,17,145,25,30,10,115,20,11,08,002,26*75,0
1778779781778554391,$GPGSV,3,3,12,13,55,149,33,48,33,280,40,26,48,114,,28,44,155,*71,0
1778779781943549576,$GPRMC,173153.000,A,1205.9175,S,07701.4342,W,14.50,25.63,140526,,,A*69,0
1778779782184588261,$GPGGA,173154.000,1205.9134,S,07701.4326,W,1,08,0.9,146.3,M,8.4,M,,0000*60,0
1778779782310613353,$GPGSA,M,3,05,21,19,17,24,14,30,11,,,,,2.0,0.9,1.7*3B,0
1778779782475619149,$GPRMC,173154.000,A,1205.9134,S,07701.4326,W,14.85,25.10,140526,,,A*65,0
1778779783183289834,$GPGGA,173155.000,1205.9094,S,07701.4309,W,1,08,0.9,145.9,M,8.4,M,,0000*6E,0
1778779783309326704,$GPGSA,M,3,05,21,19,17,24,14,30,11,,,,,2.0,0.9,1.7*3B,0
1778779783474323223,$GPRMC,173155.000,A,1205.9094,S,07701.4309,W,14.95,24.95,140526,,,A*6F,0
1778779784179902648,$GPGGA,173156.000,1205.9054,S,07701.4291,W,1,08,0.9,145.8,M,8.4,M,,0000*60,0
1778779784305940371,$GPGSA,M,3,05,21,19,17,24,14,30,11,,,,,2.0,0.9,1.7*3B,0
1778779784470942074,$GPRMC,173156.000,A,1205.9054,S,07701.4291,W,15.18,24.69,140526,,,A*67,0
1778779785183402222,$GPGGA,173157.000,1205.9014,S,07701.4273,W,1,08,0.9,145.8,M,8.4,M,,0000*69,0
1778779785309436518,$GPGSA,M,3,05,21,19,17,24,14,30,11,,,,,2.0,0.9,1.7*3B,0
1778779785474445648,$GPRMC,173157.000,A,1205.9014,S,07701.4273,W,14.74,24.06,140526,,,A*6C,0
1778779786183972240,$GPGGA,173158.000,1205.8975,S,07701.4256,W,1,08,0.9,145.4,M,8.4,M,,0000*62,0
1778779786310029036,$GPGSA,M,3,05,21,19,17,24,14,30,11,,,,,2.0,0.9,1.7*3B,0
1778779786470457962,$GPGSV,3,1,12,05,50,307,44,21,41,351,39,19,39,069,35,17,30,102,29*71,0
1778779786630842147,$GPGSV,3,2,12,24,20,231,37,14,17,145,28,30,10,115,25,11,08,002,30*7B,0
1778779786782080851,$GPGSV,3,3,12,13,55,149,15,48,33,280,43,26,48,114,,28,44,155,*76,0
1778779786947074054,$GPRMC,173158.000,A,1205.8975,S,07701.4256,W,14.87,23.38,140526,,,A*6D,0
1778779787184582498,$GPGGA,173159.000,1205.8936,S,07701.4239,W,1,08,0.9,145.0,M,8.4,M,,0000*69,0
1778779787310596721,$GPGSA,M,3,05,21,19,17,24,14,30,11,,,,,2.0,0.9,1.7*3B,0
1778779787475608646,$GPRMC,173159.000,A,1205.8936,S,07701.4239,W,14.57,25.14,140526,,,A*67,0
1778779788180354998,$GPGGA,173200.000,1205.8898,S,07701.4222,W,1,08,0.9,144.8,M,8.4,M,,0000*60,0
1778779788306398479,$GPGSA,M,3,05,21,19,17,24,14,30,11,,,,,2.0,0.9,1.7*3B,0
1778779788471392627,$GPRMC,173200.000,A,1205.8898,S,07701.4222,W,14.55,23.63,140526,,,A*63,0
1778779789180511034,$GPGGA,173201.000,1205.8859,S,07701.4206,W,1,08,0.9,144.6,M,8.4,M,,0000*64,0
1778779789306552164,$GPGSA,M,3,05,21,19,17,24,14,30,11,,,,,2.0,0.9,1.7*3B,0
1778779789471560182,$GPRMC,173201.000,A,1205.8859,S,07701.4206,W,14.39,22.98,140526,,,A*66,0
1778779790180673923,$GPGGA,173202.000,1205.8822,S,07701.4191,W,1,08,0.9,144.4,M,8.4,M,,0000*64,0
1778779790306721626,$GPGSA,M,3,05,21,19,17,24,14,30,11,,,,,2.0,0.9,1.7*3B,0
1778779790471717404,$GPRMC,173202.000,A,1205.8822,S,07701.4191,W,13.87,22.68,140526,,,A*69,0
1778779791183349329,$GPGGA,173203.000,1205.8786,S,07701.4176,W,1,08,0.9,144.2,M,8.4,M,,0000*6B,0
1778779791309375144,$GPGSA,M,3,05,21,19,17,24,14,30,11,,,,,2.0,0.9,1.7*3B,0
1778779791469794311,$GPGSV,3,1,12,05,50,307,43,21,41,351,40,19,39,069,38,17,30,102,25*79,0
1778779791630185607,$GPGSV,3,2,12,24,20,231,39,14,17,145,25,30,10,115,19,11,08,002,21*77,0
1778779791781435792,$GPGSV,3,3,12,13,55,149,12,48,33,280,41,26,48,114,,28,44,155,*73,0
1778779791946420847,$GPRMC,173203.000,A,1205.8786,S,07701.4176,W,13.28,23.25,140526,,,A*6D,0
1778779792184126329,$GPGGA,173204.000,1205.8754,S,07701.4162,W,1,08,0.9,144.0,M,8.4,M,,0000*64,0
1778779792310163181,$GPGSA,M,3,05,21,19,17,24,14,30,11,,,,,2.0,0.9,1.7*3B,0
1778779792475166699,$GPRMC,173204.000,A,1205.8754,S,07701.4162,W,11.81,24.57,140526,,,A*63,0
1778779793183464328,$GPGGA,173205.000,1205.8727,S,07701.4151,W,1,08,0.9,143.8,M,8.4,M,,0000*6E,0
1778779793309500310,$GPGSA,M,3,05,21,19,17,24,14,30,11,,,,,2.0,0.9,1.7*3B,0
1778779793472209754,$GPRMC,173205.000,A,1205.8727,S,07701.4151,W,9.98,20.66,140526,,,A*51,0
1778779794189107531,$GPGGA,173206.000,1205.8704,S,07701.4145,W,1,08,0.9,143.3,M,8.4,M,,0000*62,0
1778779794315127161,$GPGSA,M,3,05,21,19,17,24,14,30,11,,,,,2.0,0.9,1.7*3B,0
1778779794477792698,$GPRMC,173206.000,A,1205.8704,S,07701.4145,W,5.98,12.55,140526,,,A*5B,0
1778779795182760216,$GPGGA,173207.000,1205.8688,S,07701.4145,W,1,08,0.9,143.1,M,8.4,M,,0000*64,0
1778779795308787808,$GPGSA,M,3,05,21,19,17,24,14,30,11,,,,,2.0,0.9,1.7*3B,0
1778779795469196494,$GPRMC,173207.000,A,1205.8688,S,07701.4145,W,4.13,0.04,140526,,,A*6A,0
1778779796185196308,$GPGGA,173208.000,1205.8678,S,07701.4148,W,1,08,0.9,143.0,M,8.4,M,,0000*68,0
1778779796311231641,$GPGSA,M,3,05,21,19,17,24,14,30,11,,,,,2.0,0.9,1.7*3B,0
1778779796471653382,$GPGSV,3,1,12,05,50,307,43,21,41,351,46,19,39,069,42,17,30,102,41*70,0
1778779796632047271,$GPGSV,3,2,12,24,20,231,39,14,17,145,27,30,10,115,24,11,08,002,21*7B,0
1778779796783291178,$GPGSV,3,3,12,13,55,149,40,48,33,280,41,26,48,114,,28,44,155,*74,0
1778779796948293733,$GPRMC,173208.000,A,1205.8678,S,07701.4148,W,1.78,354.31,140526,,,A*6B,0
1778779797185154122,$GPGGA,173209.000,1205.8674,S,07701.4149,W,1,08,0.9,142.9,M,8.4,M,,0000*6C,0
1778779797311188770,$GPGSA,M,3,05,21,19,17,24,14,30,11,,,,,2.0,0.9,1.7*3B,0
1778779797476192252,$GPRMC,173209.000,A,1205.8674,S,07701.4149,W,0.47,354.31,140526,,,A*6A,0
1778779798178223696,$GPGGA,173210.000,1205.8672,S,07701.4150,W,1,06,2.1,142.5,M,8.4,M,,0000*62,0
1778779798295103381,$GPGSA,M,3,05,21,19,17,24,14,,,,,,,6.6,2.1,6.3*33,0
1778779798460099566,$GPRMC,173210.000,A,1205.8672,S,07701.4150,W,0.97,354.31,140526,,,A*61,0
1778779799187368880,$GPGGA,173211.000,1205.8667,S,07701.4152,W,1,06,2.1,142.3,M,8.4,M,,0000*63,0
1778779799304225139,$GPGSA,M,3,05,21,19,17,24,14,,,,,,,6.6,2.1,6.3*33,0
1778779799469230676,$GPRMC,173211.000,A,1205.8667,S,07701.4152,W,2.92,336.49,140526,,,A*6A,0
1778779800179624194,$GPGGA,173212.000,1205.8659,S,07701.4159,W,1,07,1.6,142.0,M,8.4,M,,0000*60,0
1778779800301049268,$GPGSA,M,3,05,21,19,17,24,14,30,,,,,,4.2,1.6,3.9*3D,0
1778779800466070268,$GPRMC,173212.000,A,1205.8659,S,07701.4159,W,4.63,322.86,140526,,,A*61,0
1778779801181443305,$GPGGA,173213.000,1205.8650,S,07701.4172,W,1,06,2.1,141.8,M,8.4,M,,0000*6F,0
1778779801298310305,$GPGSA,M,3,05,21,19,17,24,14,,,,,,,6.6,2.1,6.3*33,0
1778779801458715064,$GPGSV,3,1,12,05,50,307,44,21,41,351,46,19,39,069,44,17,30,102,44*74,0
1778779801619125879,$GPGSV,3,2,12,24,20,231,38,14,17,145,29,11,08,002,16,13,55,149,41*7A,0
1778779801770366879,$GPGSV,3,3,12,30,10,115,18,48,33,280,40,26,48,114,,28,44,155,*71,0
1778779801935360934,$GPRMC,173213.000,A,1205.8650,S,07701.4172,W,6.55,299.14,140526,,,A*6D,0
1778779802180963582,$GPGGA,173214.000,1205.8645,S,07701.4191,W,1,08,0.9,141.7,M,8.4,M,,0000*6A,0
1778779802307006860,$GPGSA,M,3,05,21,19,17,24,14,30,11,,,,,2.0,0.9,1.7*3B,0
1778779802472001989,$GPRMC,173214.000,A,1205.8645,S,07701.4191,W,7.56,283.33,140526,,,A*6F,0
1778779803183635026,$GPGGA,173215.000,1205.8641,S,07701.4214,W,1,06,2.1,141.7,M,8.4,M,,0000*65,0
1778779803300506248,$GPGSA,M,3,05,21,19,17,24,14,,,,,,,6.6,2.1,6.3*33,0
1778779803465520822,$GPRMC,173215.000,A,1205.8641,S,07701.4214,W,8.70,279.40,140526,,,A*6E,0
1778779804183174062,$GPGGA,173216.000,1205.8637,S,07701.4241,W,1,07,1.6,141.9,M,8.4,M,,0000*6C,0
1778779804304643210,$GPGSA,M,3,05,21,19,17,24,14,30,,,,,,4.2,1.6,3.9*3D,0
1778779804469667507,$GPRMC,173216.000,A,1205.8637,S,07701.4241,W,9.91,278.35,140526,,,A*61,0
1778779805182772525,$GPGGA,173217.000,1205.8634,S,07701.4270,W,1,07,1.6,142.1,M,8.4,M,,0000*67,0
1778779805304164191,$GPGSA,M,3,05,21,19,17,24,14,30,,,,,,4.2,1.6,3.9*3D,0
1778779805471459951,$GPRMC,173217.000,A,1205.8634,S,07701.4270,W,10.31,278.80,140526,,,A*5D,0
1778779806186206043,$GPGGA,173218.000,1205.8629,S,07701.4300,W,1,07,1.6,142.4,M,8.4,M,,0000*67,0
1778779806307660783,$GPGSA,M,3,05,21,19,17,24,14,30,,,,,,4.2,1.6,3.9*3D,0
1778779806468067617,$GPGSV,3,1,12,05,50,307,46,21,41,351,43,19,39,069,40,17,30,102,47*74,0
1778779806628479154,$GPGSV,3,2,12,24,20,231,32,14,17,145,30,30,10,115,33,13,55,149,33*77,0
1778779806775135820,$GPGSV,3,3,12,48,33,280,45,26,48,114,,28,44,155,,23,25,058,*71,0
1778779806942410727,$GPRMC,173218.000,A,1205.8629,S,07701.4300,W,11.44,278.54,140526,,,A*52,0
1778779807178072264,$GPGGA,173219.000,1205.8622,S,07701.4332,W,1,07,1.6,143.1,M,8.4,M,,0000*68,0
1778779807299485727,$GPGSA,M,3,05,21,19,17,24,14,30,,,,,,4.2,1.6,3.9*3D,0
1778779807466847023,$GPRMC,173219.000,A,1205.8622,S,07701.4332,W,11.69,278.96,140526,,,A*58,0
1778779808183414708,$GPGGA,173220.000,1205.8618,S,07701.4363,W,1,07,1.6,143.4,M,8.4,M,,0000*6A,0
1778779808304864949,$GPGSA,M,3,05,21,19,17,24,14,30,,,,,,4.2,1.6,3.9*3D,0
1778779808472158652,$GPRMC,173220.000,A,1205.8618,S,07701.4363,W,11.25,276.37,140526,,,A*52,0
1778779809181701245,$GPGGA,173221.000,1205.8616,S,07701.4395,W,1,07,1.6,143.7,M,8.4,M,,0000*6F,0
1778779809303142985,$GPGSA,M,3,05,21,19,17,24,14,30,,,,,,4.2,1.6,3.9*3D,0
1778779809470445337,$GPRMC,173221.000,A,1205.8616,S,07701.4395,W,10.73,275.11,140526,,,A*51,0
1778779810180828337,$GPGGA,173222.000,1205.8613,S,07701.4424,W,1,07,1.6,143.9,M,8.4,M,,0000*6A,0
1778779810302278392,$GPGSA,M,3,05,21,19,17,24,14,30,,,,,,4.2,1.6,3.9*3D,0
1778779810469579410,$GPRMC,173222.000,A,1205.8613,S,07701.4424,W,10.13,277.06,140526,,,A*58,0
1778779811181184817,$GPGGA,173223.000,1205.8609,S,07701.4451,W,1,07,1.6,144.3,M,8.4,M,,0000*6F,0
1778779811302697854,$GPGSA,M,3,05,21,19,17,24,14,30,,,,,,4.2,1.6,3.9*3D,0
1778779811463052188,$GPGSV,3,1,12,05,50,307,47,21,41,351,32,19,39,069,47,17,30,102,48*7B,0
1778779811623457947,$GPGSV,3,2,12,24,20,231,33,14,17,145,37,30,10,115,30,13,55,149,38*79,0
1778779811770125502,$GPGSV,3,3,12,48,33,280,44,26,48,114,,28,44,155,,23,25,058,*70,0
1778779811935103576,$GPRMC,173223.000,A,1205.8609,S,07701.4451,W,9.68,277.55,140526,,,A*62,0
1778779812182595613,$GPGGA,173224.000,1205.8608,S,07701.4477,W,1,07,1.6,144.5,M,8.4,M,,0000*6B,0
1778779812304047224,$GPGSA,M,3,05,21,19,17,24,14,30,,,,,,4.2,1.6,3.9*3D,0
1778779812469055317,$GPRMC,173224.000,A,1205.8608,S,07701.4477,W,9.07,276.70,140526,,,A*6F,0
1778779813178394298,$GPGGA,173225.000,1205.8606,S,07701.4501,W,1,07,1.6,144.4,M,8.4,M,,0000*65,0
1778779813299862538,$GPGSA,M,3,05,21,19,17,24,14,30,,,,,,4.2,1.6,3.9*3D,0
1778779813464848594,$GPRMC,173225.000,A,1205.8606,S,07701.4501,W,7.84,277.08,140526,,,A*6B,0
1778779814179386945,$GPGGA,173226.000,1205.8606,S,07701.4521,W,1,06,1.7,143.1,M,8.4,M,,0000*66,0
1778779814296265556,$GPGSA,M,3,05,21,19,17,24,30,,,,,,,4.3,1.7,3.9*38,0
1778779814461268649,$GPRMC,173226.000,A,1205.8606,S,07701.4521,W,6.06,276.67,140526,,,A*69,0
1778779815178094074,$GPGGA,173227.000,1205.8607,S,07701.4537,W,1,06,1.7,142.2,M,8.4,M,,0000*63,0
1778779815294965278,$GPGSA,M,3,05,21,19,17,24,30,,,,,,,4.3,1.7,3.9*38,0
1778779815459959278,$GPRMC,173227.000,A,1205.8607,S,07701.4537,W,5.10,270.60,140526,,,A*6B,0
1778779816178886148,$GPGGA,173228.000,1205.8611,S,07701.4550,W,1,07,1.6,142.6,M,8.4,M,,0000*6E,0
1778779816300325759,$GPGSA,M,3,05,19,21,17,24,14,30,,,,,,4.2,1.6,3.9*3D,0
1778779816460740388,$GPGSV,3,1,12,05,49,309,47,19,40,071,47,21,39,352,44,17,29,104,48*79,0
1778779816621141333,$GPGSV,3,2,12,24,20,230,23,14,15,145,27,30,09,114,38,13,56,146,25*7B,0
1778779816767805240,$GPGSV,3,3,12,48,33,280,24,26,48,112,,28,42,155,,23,24,057,*78,0
1778779816932838203,$GPRMC,173228.000,A,1205.8611,S,07701.4550,W,5.04,258.50,140526,,,A*6E,0
1778779817177997203,$GPGGA,173229.000,1205.8618,S,07701.4563,W,1,07,1.6,143.1,M,8.4,M,,0000*60,0
1778779817299479703,$GPGSA,M,3,05,19,21,17,24,14,30,,,,,,4.2,1.6,3.9*3D,0
1778779817464457758,$GPRMC,173229.000,A,1205.8618,S,07701.4563,W,5.05,251.42,140526,,,A*6D,0
1778779818176905461,$GPGGA,173230.000,1205.8629,S,07701.4575,W,1,07,1.6,143.9,M,8.4,M,,0000*65,0
1778779818298380239,$GPGSA,M,3,05,19,21,17,24,14,30,,,,,,4.2,1.6,3.9*3D,0
1778779818463369572,$GPRMC,173230.000,A,1205.8629,S,07701.4575,W,5.48,236.02,140526,,,A*6C,0
1778779819180649479,$GPGGA,173231.000,1205.8645,S,07701.4585,W,1,07,1.6,144.9,M,8.4,M,,0000*66,0
1778779819299370276,$GPGSA,M,3,05,19,21,17,24,14,30,,,,,,4.2,1.6,3.9*3D,0
1778779819464371664,$GPRMC,173231.000,A,1205.8645,S,07701.4585,W,5.97,226.24,140526,,,A*6F,0
1778779820177462738,$GPGGA,173232.000,1205.8660,S,07701.4594,W,1,07,1.6,145.7,M,8.4,M,,0000*6D,0
1778779820298896386,$GPGSA,M,3,05,19,21,17,24,14,30,,,,,,4.2,1.6,3.8*3C,0
1778779820463903793,$GPRMC,173232.000,A,1205.8660,S,07701.4594,W,6.40,219.55,140526,,,A*68,0
1778779821179283645,$GPGGA,173233.000,1205.8675,S,07701.4603,W,1,07,1.6,146.3,M,8.4,M,,0000*62,0
1778779821300730626,$GPGSA,M,3,05,19,21,17,24,14,30,,,,,,4.2,1.6,3.8*3C,0
1778779821461155422,$GPGSV,3,1,12,05,49,309,28,19,40,071,46,21,39,352,41,17,29,104,38*73,0
1778779821621540052,$GPGSV,3,2,12,24,20,230,30,14,15,145,29,30,09,114,31,11,08,004,22*77,0
1778779821768277404,$GPGSV,3,3,12,48,33,280,23,13,56,146,,26,48,112,,28,42,155,*78,0
1778779821933203052,$GPRMC,173233.000,A,1205.8675,S,07701.4603,W,6.79,212.25,140526,,,A*66,0
1778779822177976292,$GPGGA,173234.000,1205.8697,S,07701.4612,W,1,07,1.6,146.3,M,8.4,M,,0000*69,0
1778779822299427163,$GPGSA,M,3,05,19,21,17,24,14,30,,,,,,4.2,1.6,3.8*3C,0
1778779822464476237,$GPRMC,173234.000,A,1205.8697,S,07701.4612,W,6.99,209.35,140526,,,A*68,0
1778779823178767903,$GPGGA,173235.000,1205.8717,S,07701.4621,W,1,07,1.6,146.7,M,8.4,M,,0000*65,0
1778779823300220218,$GPGSA,M,3,05,19,21,17,24,14,30,,,,,,4.1,1.6,3.8*3F,0
1778779823465226347,$GPRMC,173235.000,A,1205.8717,S,07701.4621,W,6.99,210.25,140526,,,A*69,0
1778779824178522939,$GPGGA,173236.000,1205.8726,S,07701.4627,W,1,07,1.6,147.0,M,8.4,M,,0000*64,0
1778779824299970402,$GPGSA,M,3,05,19,21,17,24,14,30,,,,,,4.1,1.6,3.8*3F,0
1778779824464970958,$GPRMC,173236.000,A,1205.8726,S,07701.4627,W,5.85,210.51,140526,,,A*63,0
1778779825178061476,$GPGGA,173237.000,1205.8732,S,07701.4632,W,1,07,1.6,147.4,M,8.4,M,,0000*60,0
1778779825299510272,$GPGSA,M,3,05,19,21,17,24,14,30,,,,,,4.1,1.6,3.8*3F,0
1778779825464501272,$GPRMC,173237.000,A,1205.8732,S,07701.4632,W,4.46,212.20,140526,,,A*69,0
1778779826177821883,$GPGGA,173238.000,1205.8737,S,07701.4635,W,1,07,1.6,147.8,M,8.4,M,,0000*61,0
1778779826299252938,$GPGSA,M,3,05,19,21,17,24,14,30,,,,,,4.1,1.6,3.8*3F,0
1778779826459676697,$GPGSV,3,1,12,05,49,309,29,19,40,071,45,21,39,352,35,17,29,104,34*7E,0
1778779826620065105,$GPGSV,3,2,12,24,20,230,29,14,15,145,33,30,09,114,25,11,08,004,17*77,0
1778779826766736530,$GPGSV,3,3,12,48,33,280,25,13,56,146,,26,48,112,,28,42,155,*7E,0
1778779826931717123,$GPRMC,173238.000,A,1205.8737,S,07701.4635,W,3.24,212.27,140526,,,A*60,0
1778779827179630993,$GPGGA,173239.000,1205.8734,S,07701.4633,W,1,07,1.6,147.9,M,8.4,M,,0000*64,0
1778779827301121234,$GPGSA,M,3,05,19,21,17,24,14,30,,,,,,4.1,1.6,3.8*3F,1
1778779827466143271,$GPRMC,173239.000,A,1205.8734,S,07701.4633,W,0.83,212.27,140526,,,A*6A,1
1778779828179584696,$GPGGA,173240.000,1205.8733,S,07701.4631,W,1,07,1.6,148.1,M,8.4,M,,0000*68,1
1778779828301039307,$GPGSA,M,3,05,19,21,17,24,14,30,,,,,,4.1,1.6,3.8*3F,1
1778779828466041196,$GPRMC,173240.000,A,1205.8733,S,07701.4631,W,0.04,212.27,140526,,,A*6E,1
1778779829180288603,$GPGGA,173241.000,1205.8733,S,07701.4631,W,1,07,1.6,148.0,M,8.4,M,,0000*68,1
1778779829301627844,$GPGSA,M,3,05,19,21,17,24,14,30,,,,,,4.1,1.6,3.8*3F,1
1778779829466613881,$GPRMC,173241.000,A,1205.8733,S,07701.4631,W,0.00,212.27,140526,,,A*6B,1
1778779830178467528,$GPGGA,173242.000,1205.8733,S,07701.4631,W,1,07,1.6,148.0,M,8.4,M,,0000*6B,1
1778779830299900565,$GPGSA,M,3,05,19,21,17,24,14,30,,,,,,4.1,1.6,3.8*3F,1
1778779830464916936,$GPRMC,173242.000,A,1205.8733,S,07701.4631,W,0.00,212.27,140526,,,A*68,1
1778779831179245250,$GPGGA,173243.000,1205.8733,S,07701.4631,W,1,07,1.6,148.0,M,8.4,M,,0000*6A,1
1778779831300723694,$GPGSA,M,3,05,19,21,17,24,14,30,,,,,,4.1,1.6,3.8*3F,1
1778779831461122454,$GPGSV,3,1,12,05,49,309,29,19,40,071,46,21,39,352,26,17,29,104,32*79,1
1778779831621504046,$GPGSV,3,2,12,24,20,230,29,14,15,145,34,30,09,114,21,48,33,280,25*7F,1
1778779831763581639,$GPGSV,3,3,12,13,56,146,,26,48,112,,28,42,155,,23,24,057,*7A,1
1778779831928580731,$GPRMC,173243.000,A,1205.8733,S,07701.4631,W,0.00,212.27,140526,,,A*69,1
1778779832178149009,$GPGGA,173244.000,1205.8733,S,07701.4631,W,1,07,1.6,148.0,M,8.4,M,,0000*6D,1
1778779832299621675,$GPGSA,M,3,05,19,21,17,24,14,30,,,,,,4.1,1.6,3.8*3F,1
1778779832464603490,$GPRMC,173244.000,A,1205.8733,S,07701.4631,W,0.00,212.27,140526,,,A*6E,1
1778779833177902860,$GPGGA,173245.000,1205.8733,S,07701.4631,W,1,07,1.6,148.0,M,8.4,M,,0000*6C,1
1778779833299375971,$GPGSA,M,3,05,19,21,17,24,14,30,,,,,,4.1,1.6,3.8*3F,1
1778779833464347878,$GPRMC,173245.000,A,1205.8733,S,07701.4631,W,0.00,212.27,140526,,,A*6F,1
1778779834177020637,$GPGGA,173246.000,1205.8733,S,07701.4631,W,1,07,1.6,148.0,M,8.4,M,,0000*6F,1
1778779834298476952,$GPGSA,M,3,05,19,21,17,24,14,30,,,,,,4.1,1.6,3.8*3F,1
1778779834463480359,$GPRMC,173246.000,A,1205.8733,S,07701.4631,W,0.00,212.27,140526,,,A*6C,1
1778779835177187748,$GPGGA,173247.000,1205.8733,S,07701.4631,W,1,07,1.6,148.0,M,8.4,M,,0000*6E,1
1778779835298634673,$GPGSA,M,3,05,19,21,17,24,14,30,,,,,,4.1,1.6,3.8*3F,1
1778779835463643859,$GPRMC,173247.000,A,1205.8733,S,07701.4631,W,0.00,212.27,140526,,,A*6D,1
1778779836177984266,$GPGGA,173248.000,1205.8732,S,07701.4631,W,1,07,1.6,148.0,M,8.4,M,,0000*60,1
1778779836299479691,$GPGSA,M,3,05,19,21,17,24,14,30,,,,,,4.1,1.6,3.8*3F,1
1778779836459843932,$GPGSV,3,1,12,05,49,309,24,19,40,071,47,21,39,352,29,17,29,104,33*7B,1
1778779836620232450,$GPGSV,3,2,12,24,20,230,29,14,15,145,34,30,09,114,23,48,33,280,27*7F,1
1778779836762317895,$GPGSV,3,3,12,13,56,146,,26,48,112,,28,42,155,,23,24,057,*7A,1
1778779836927308561,$GPRMC,173248.000,A,1205.8732,S,07701.4631,W,0.00,212.27,140526,,,A*63,1
1778779837179800209,$GPGGA,173249.000,1205.8732,S,07701.4631,W,1,07,1.6,148.0,M,8.4,M,,0000*61,1
1778779837301269580,$GPGSA,M,3,05,19,21,17,24,14,30,,,,,,4.1,1.6,3.8*3F,1
1778779837466262765,$GPRMC,173249.000,A,1205.8732,S,07701.4631,W,0.00,212.27,140526,,,A*62,1
1778779838178117727,$GPGGA,173250.000,1205.8732,S,07701.4631,W,1,06,2.0,148.0,M,8.4,M,,0000*6D,0
1778779838294964857,$GPGSA,M,3,05,19,21,17,24,14,,,,,,,6.5,2.0,6.2*30,0
1778779838459964246,$GPRMC,173250.000,A,1205.8732,S,07701.4631,W,0.00,212.27,140526,,,A*6A,0
1778779839179512412,$GPGGA,173251.000,1205.8732,S,07701.4633,W,1,07,1.6,148.1,M,8.4,M,,0000*6B,0
1778779839300960171,$GPGSA,M,3,05,19,21,17,24,14,30,,,,,,4.1,1.6,3.8*3F,0
1778779839465965838,$GPRMC,173251.000,A,1205.8732,S,07701.4633,W,0.18,212.27,140526,,,A*60,0
1778779840179683541,$GPGGA,173252.000,1205.8733,S,07701.4634,W,1,07,1.6,148.2,M,8.4,M,,0000*6D,0
1778779840301116985,$GPGSA,M,3,05,19,21,17,24,14,30,,,,,,4.1,1.6,3.8*3F,0
1778779840466129633,$GPRMC,173252.000,A,1205.8733,S,07701.4634,W,0.47,212.27,140526,,,A*6F,0
1778779841180253207,$GPGGA,173253.000,1205.8735,S,07701.4636,W,1,07,1.6,148.3,M,8.4,M,,0000*69,0
1778779841301707318,$GPGSA,M,3,05,19,21,17,24,14,30,,,,,,4.1,1.6,3.8*3F,0
1778779841462142096,$GPGSV,3,1,12,05,49,309,31,19,40,071,36,21,39,352,34,17,29,104,34*72,0
1778779841622524170,$GPGSV,3,2,12,24,20,230,29,14,15,145,29,30,09,114,23,11,08,004,24*7A,0
1778779841769175744,$GPGSV,3,3,12,48,33,280,29,13,56,146,,26,48,112,,28,42,155,*72,0
1778779841934179503,$GPRMC,173253.000,A,1205.8735,S,07701.4636,W,1.26,196.15,140526,,,A*62,0
1778779842179779910,$GPGGA,173254.000,1205.8738,S,07701.4637,W,1,07,1.6,148.3,M,8.4,M,,0000*62,0
1778779842301260466,$GPGSA,M,3,05,19,21,17,24,14,30,,,,,,4.1,1.6,3.8*3F,0
1778779842466238040,$GPRMC,173254.000,A,1205.8738,S,07701.4637,W,1.52,189.32,140526,,,A*61,0
1778779843178286372,$GPGGA,173255.000,1205.8745,S,07701.4640,W,1,07,1.6,148.2,M,8.4,M,,0000*68,0
1778779843299744835,$GPGSA,M,3,05,19,21,17,24,14,30,,,,,,4.1,1.6,3.8*3F,0
1778779843464732428,$GPRMC,173255.000,A,1205.8745,S,07701.4640,W,1.99,182.29,140526,,,A*6C,0
1778779844177408502,$GPGGA,173256.000,1205.8753,S,07701.4644,W,1,07,1.6,148.2,M,8.4,M,,0000*68,0
1778779844298856353,$GPGSA,M,3,05,19,21,17,24,14,30,,,,,,4.1,1.6,3.8*3F,0
1778779844463860057,$GPRMC,173256.000,A,1205.8753,S,07701.4644,W,2.20,182.14,140526,,,A*63,0
1778779845179654316,$GPGGA,173257.000,1205.8765,S,07701.4649,W,1,07,1.5,148.0,M,8.4,M,,0000*60,0
1778779845301102205,$GPGSA,M,3,05,19,21,17,24,14,30,,,,,,4.1,1.5,3.8*3C,0
1778779845466119130,$GPRMC,173257.000,A,1205.8765,S,07701.4649,W,2.99,184.07,140526,,,A*6C,0
1778779846179603426,$GPGGA,173258.000,1205.8786,S,07701.4656,W,1,07,1.5,147.9,M,8.4,M,,0000*6A,0
1778779846301070815,$GPGSA,M,3,05,19,21,17,24,14,30,,,,,,4.1,1.5,3.8*3C,0
1778779846461476296,$GPGSV,3,1,12,05,49,309,28,19,40,071,34,21,39,352,32,17,29,104,30*7A,0
1778779846621868611,$GPGSV,3,2,12,24,20,230,31,14,15,145,33,30,09,114,23,11,08,004,29*75,0
1778779846768534648,$GPGSV,3,3,12,48,33,280,32,13,56,146,,26,48,112,,28,42,155,*78,0
1778779846933520426,$GPRMC,173258.000,A,1205.8786,S,07701.4656,W,4.63,188.74,140526,,,A*6B,0
1778779847179758740,$GPGGA,173259.000,1205.8824,S,07701.4675,W,1,08,0.9,148.1,M,8.4,M,,0000*68,0
1778779847305803389,$GPGSA,M,3,05,19,21,17,24,14,30,11,,,,,2.0,0.9,1.8*34,0
1778779847470805240,$GPRMC,173259.000,A,1205.8824,S,07701.4675,W,6.85,194.14,140526,,,A*6D,0
1778779848179930332,$GPGGA,173300.000,1205.8865,S,07701.4703,W,1,07,1.5,147.9,M,8.4,M,,0000*65,0
1778779848301388518,$GPGSA,M,3,05,19,21,17,24,14,30,,,,,,4.1,1.5,3.8*3C,0
1778779848466385073,$GPRMC,173300.000,A,1205.8865,S,07701.4703,W,9.56,201.10,140526,,,A*6F,0
1778779849179685999,$GPGGA,173301.000,1205.8916,S,07701.4731,W,1,07,1.5,147.9,M,8.4,M,,0000*60,0
1778779849301131832,$GPGSA,M,3,05,19,21,17,24,14,30,,,,,,4.1,1.5,3.8*3C,0
1778779849468466443,$GPRMC,173301.000,A,1205.8916,S,07701.4731,W,12.86,203.93,140526,,,A*54,0
1778779850179838665,$GPGGA,173302.000,1205.8982,S,07701.4778,W,1,07,1.5,148.2,M,8.4,M,,0000*67,0
1778779850301285202,$GPGSA,M,3,05,19,21,17,24,14,30,,,,,,4.1,1.5,3.8*3C,0
1778779850468625646,$GPRMC,173302.000,A,1205.8982,S,07701.4778,W,15.94,206.27,140526,,,A*59,0
1778779851177729442,$GPGGA,173303.000,1205.9049,S,07701.4812,W,1,06,2.0,147.9,M,8.4,M,,0000*69,0
1778779851294596034,$GPGSA,M,3,05,19,21,17,24,14,,,,,,,6.5,2.0,6.2*30,0
1778779851455012368,$GPGSV,3,1,12,05,49,309,45,19,40,071,43,21,39,352,22,17,29,104,40*77,0
1778779851615406979,$GPGSV,3,2,12,24,20,230,39,14,15,145,21,11,08,004,07,13,56,146,40*7B,0
1778779851766645330,$GPGSV,3,3,12,30,09,114,15,48,33,280,41,26,48,112,,28,42,155,*74,0
1778779851933950460,$GPRMC,173303.000,A,1205.9049,S,07701.4812,W,16.23,206.24,140526,,,A*58,0
1778779852179741515,$GPGGA,173304.000,1205.9114,S,07701.4839,W,1,07,1.5,147.7,M,8.4,M,,0000*67,0
1778779852301211849,$GPGSA,M,3,05,19,21,17,24,14,30,,,,,,4.1,1.5,3.8*3C,0
1778779852468494571,$GPRMC,173304.000,A,1205.9114,S,07701.4839,W,15.84,205.34,140526,,,A*53,0
1778779853178465144,$GPGGA,173305.000,1205.9172,S,07701.4864,W,1,07,1.5,147.5,M,8.4,M,,0000*6C,0
1778779853299910515,$GPGSA,M,3,05,19,21,17,24,14,30,,,,,,4.1,1.5,3.8*3C,0
1778779853467202107,$GPRMC,173305.000,A,1205.9172,S,07701.4864,W,16.00,204.91,140526,,,A*5B,0
1778779854176326699,$GPGGA,173306.000,1205.9227,S,07701.4888,W,1,06,2.0,147.4,M,8.4,M,,0000*68,0
1778779854293194366,$GPGSA,M,3,05,19,21,17,24,14,,,,,,,6.5,2.0,6.2*30,0
1778779854460497458,$GPRMC,173306.000,A,1205.9227,S,07701.4888,W,16.10,205.25,140526,,,A*56,0
1778779855178150291,$GPGGA,173307.000,1205.9285,S,07701.4908,W,1,06,2.0,147.6,M,8.4,M,,0000*6A,0
1778779855295026384,$GPGSA,M,3,05,19,21,17,24,14,,,,,,,6.5,2.0,6.2*30,0
1778779855462374587,$GPRMC,173307.000,A,1205.9285,S,07701.4908,W,16.33,203.15,140526,,,A*52,0
1778779856178528105,$GPGGA,173308.000,1205.9342,S,07701.4927,W,1,06,2.0,147.6,M,8.4,M,,0000*62,0
1778779856295397939,$GPGSA,M,3,05,19,21,17,24,14,,,,,,,6.5,2.0,6.2*30,0
1778779856455808476,$GPGSV,3,1,12,05,49,309,40,19,40,071,39,21,39,352,37,17,29,104,37*7B,0
1778779856616206920,$GPGSV,3,2,12,24,20,230,36,14,15,145,26,11,08,004,24,13,56,146,39*7C,0
1778779856767463346,$GPGSV,3,3,12,30,09,114,21,48,33,280,40,26,48,112,,28,42,155,*72,0
1778779856934741698,$GPRMC,173308.000,A,1205.9342,S,07701.4927,W,16.21,203.75,140526,,,A*5F,0
1778779857177226309,$GPGGA,173309.000,1205.9388,S,07701.4943,W,1,06,2.0,147.8,M,8.4,M,,0000*69,0
1778779857294103586,$GPGSA,M,3,05,19,21,17,24,14,,,,,,,6.5,2.0,6.2*30,0
1778779857461394882,$GPRMC,173309.000,A,1205.9388,S,07701.4943,W,16.04,202.51,140526,,,A*5A,0
1778779858178862215,$GPGGA,173310.000,1205.9438,S,07701.4961,W,1,07,1.5,147.4,M,8.4,M,,0000*66,0
1778779858300310863,$GPGSA,M,3,05,19,21,17,24,14,30,,,,,,4.1,1.5,3.8*3C,0
1778779858467600437,$GPRMC,173310.000,A,1205.9438,S,07701.4961,W,15.16,202.64,140526,,,A*58,0
1778779859174846511,$GPGGA,173311.000,1205.9477,S,07701.4978,W,1,05,2.0,147.3,M,8.4,M,,0000*67,0
1778779859287142104,$GPGSA,M,3,05,19,21,24,30,,,,,,,,5.0,2.0,4.6*30,0
1778779859454426715,$GPRMC,173311.000,A,1205.9477,S,07701.4978,W,14.14,203.53,140526,,,A*5C,0
1778779860173982825,$GPGGA,173312.000,1205.9511,S,07701.4993,W,1,05,2.0,147.2,M,8.4,M,,0000*61,0
1778779860286253529,$GPGSA,M,3,05,19,21,24,30,,,,,,,,5.0,2.0,4.6*30,0
1778779860453550214,$GPRMC,173312.000,A,1205.9511,S,07701.4993,W,13.19,203.60,140526,,,A*51,0
1778779861174141288,$GPGGA,173313.000,1205.9542,S,07701.5006,W,1,05,2.0,147.1,M,8.4,M,,0000*61,0
1778779861286419843,$GPGSA,M,3,05,19,21,24,30,,,,,,,,5.0,2.0,4.6*30,0
1778779861446840362,$GPGSV,3,1,12,05,49,309,36,19,40,071,26,21,39,352,37,24,20,230,28*77,0
1778779861607296695,$GPGSV,3,2,12,30,09,114,10,11,08,004,04,13,56,146,31,17,29,104,10*75,0
1778779861753894176,$GPGSV,3,3,12,48,33,280,31,26,48,112,,28,42,155,,23,24,057,*7C,0
1778779861921200250,$GPRMC,173313.000,A,1205.9542,S,07701.5006,W,12.07,202.27,140526,,,A*5E,0
1778779862174288120,$GPGGA,173314.000,1205.9570,S,07701.5017,W,1,05,2.0,147.0,M,8.4,M,,0000*66,0
1778779862286584435,$GPGSA,M,3,05,19,21,17,24,,,,,,,,6.8,2.0,6.5*3F,0
1778779862453880083,$GPRMC,173314.000,A,1205.9570,S,07701.5017,W,10.73,201.67,140526,,,A*5E,0
1778779863179266342,$GPGGA,173315.000,1205.9595,S,07701.5027,W,1,06,2.0,147.0,M,8.4,M,,0000*6C,0
1778779863296121749,$GPGSA,M,3,05,19,21,17,24,14,,,,,,,6.5,2.0,6.1*33,0
1778779863463423268,$GPRMC,173315.000,A,1205.9595,S,07701.5027,W,10.05,202.04,140526,,,A*50,0
1778779864178187897,$GPGGA,173316.000,1205.9616,S,07701.5035,W,1,06,2.0,147.0,M,8.4,M,,0000*64,0
1778779864295033101,$GPGSA,M,3,05,19,21,17,24,14,,,,,,,6.5,2.0,6.1*33,0
1778779864460030452,$GPRMC,173316.000,A,1205.9616,S,07701.5035,W,9.06,200.55,140526,,,A*65,0
1778779865177710730,$GPGGA,173317.000,1205.9622,S,07701.5040,W,1,06,2.0,147.1,M,8.4,M,,0000*61,0
1778779865294579082,$GPGSA,M,3,05,19,21,17,24,14,,,,,,,6.5,2.0,6.1*33,0
1778779865459578211,$GPRMC,173317.000,A,1205.9622,S,07701.5040,W,6.09,201.73,140526,,,A*64,0
1778779866177861674,$GPGGA,173318.000,1205.9642,S,07701.5047,W,1,06,2.0,147.0,M,8.4,M,,0000*6E,0
1778779866294743544,$GPGSA,M,3,05,19,21,17,24,14,,,,,,,6.5,2.0,6.1*33,0
1778779866455155970,$GPGSV,3,1,12,05,49,309,40,19,40,071,26,21,39,352,43,17,29,104,23*73,0
1778779866615544673,$GPGSV,3,2,12,24,20,230,29,14,15,145,29,11,08,004,07,13,56,146,37*72,0
1778779866766813692,$GPGSV,3,3,12,30,09,114,12,48,33,280,36,26,48,112,,28,42,155,*73,0
1778779866931787247,$GPRMC,173318.000,A,1205.9642,S,07701.5047,W,6.81,201.43,140526,,,A*69,0
1778779867179499006,$GPGGA,173319.000,1205.9664,S,07701.5054,W,1,06,2.0,147.1,M,8.4,M,,0000*68,0
1778779867296353617,$GPGSA,M,3,05,19,21,17,24,14,,,,,,,6.5,2.0,6.1*33,0
1778779867461360099,$GPRMC,173319.000,A,1205.9664,S,07701.5054,W,7.06,201.34,140526,,,A*60,0
1778779868179666524,$GPGGA,173320.000,1205.9683,S,07701.5062,W,1,06,2.0,147.2,M,8.4,M,,0000*6D,0
1778779868296517135,$GPGSA,M,3,05,19,21,17,24,14,,,,,,,6.5,2.0,6.1*33,0
1778779868461526394,$GPRMC,173320.000,A,1205.9683,S,07701.5062,W,7.58,202.49,140526,,,A*64,0
1778779869180033320,$GPGGA,173321.000,1205.9706,S,07701.5069,W,1,08,0.9,147.5,M,8.4,M,,0000*69,0
1778779869306062690,$GPGSA,M,3,05,19,21,17,24,14,30,11,,,,,2.0,0.9,1.8*34,0
1778779869471057616,$GPRMC,173321.000,A,1205.9706,S,07701.5069,W,8.15,202.92,140526,,,A*62,0
1778779870179981616,$GPGGA,173322.000,1205.9728,S,07701.5076,W,1,08,0.9,147.6,M,8.4,M,,0000*6B,0
1778779870306052949,$GPGSA,M,3,05,19,21,17,24,14,30,11,,,,,2.0,0.9,1.8*34,0
1778779870471015893,$GPRMC,173322.000,A,1205.9728,S,07701.5076,W,7.72,200.04,140526,,,A*60,0
1778779871179307300,$GPGGA,173323.000,1205.9749,S,07701.5080,W,1,08,0.9,147.5,M,8.4,M,,0000*67,0
1778779871305338559,$GPGSA,M,3,05,19,21,17,24,14,30,11,,,,,2.0,0.9,1.8*34,0
1778779871465797763,$GPGSV,3,1,12,05,49,309,43,19,40,071,39,21,39,352,44,17,29,104,38*73,0
1778779871626173578,$GPGSV,3,2,12,24,20,230,24,14,15,145,34,30,09,114,20,11,08,004,26*7A,0
1778779871777410578,$GPGSV,3,3,12,13,56,146,28,48,33,280,39,26,48,112,,28,42,155,*79,0
1778779871942393059,$GPRMC,173323.000,A,1205.9749,S,07701.5080,W,7.55,190.09,140526,,,A*6D,0
1778779872180924800,$GPGGA,173324.000,1205.9772,S,07701.5075,W,1,08,0.9,146.9,M,8.4,M,,0000*6F,0
1778779872306965911,$GPGSA,M,3,05,19,21,17,24,14,30,11,,,,,2.0,0.9,1.8*34,0
1778779872471974874,$GPRMC,173324.000,A,1205.9772,S,07701.5075,W,8.23,160.20,140526,,,A*62,0
1778779873181925206,$GPGGA,173325.000,1205.9795,S,07701.5059,W,1,08,0.9,145.9,M,8.4,M,,0000*6A,0
1778779873307965836,$GPGSA,M,3,05,19,21,17,24,14,30,11,,,,,2.0,0.9,1.8*34,0
1778779873472976725,$GPRMC,173325.000,A,1205.9795,S,07701.5059,W,9.55,136.84,140526,,,A*69,0
1778779874180210261,$GPGGA,173326.000,1205.9812,S,07701.5036,W,1,08,0.9,146.1,M,8.4,M,,0000*6B,0
1778779874306250372,$GPGSA,M,3,05,19,21,17,24,14,30,11,,,,,2.0,0.9,1.8*34,0
1778779874473577761,$GPRMC,173326.000,A,1205.9812,S,07701.5036,W,10.51,120.96,140526,,,A*5B,0
1778779875181846094,$GPGGA,173327.000,1205.9828,S,07701.5003,W,1,08,0.9,147.2,M,8.4,M,,0000*67,0
1778779875307870187,$GPGSA,M,3,05,19,21,17,24,14,30,11,,,,,2.0,0.9,1.8*34,0
1778779875475161150,$GPRMC,173327.000,A,1205.9828,S,07701.5003,W,11.56,116.79,140526,,,A*57,0
1778779876182839927,$GPGGA,173328.000,1205.9843,S,07701.4968,W,1,08,0.9,148.8,M,8.4,M,,0000*65,0
1778779876308878001,$GPGSA,M,3,05,19,21,17,24,14,30,11,,,,,2.0,0.9,1.8*34,0
1778779876469297019,$GPGSV,3,1,12,05,49,309,43,19,40,071,37,21,39,352,36,17,29,104,41*76,0
1778779876629684260,$GPGSV,3,2,12,24,20,230,35,14,15,145,39,30,09,114,41,11,08,004,19*7C,0
1778779876780929001,$GPGSV,3,3,12,13,56,146,41,48,33,280,43,26,48,112,,28,42,155,*7B,0
1778779876948215889,$GPRMC,173328.000,A,1205.9843,S,07701.4968,W,12.45,115.38,140526,,,A*57,0
1778779877184235334,$GPGGA,173329.000,1205.9858,S,07701.4932,W,1,08,0.9,150.2,M,8.4,M,,0000*62,0
1778779877310294093,$GPGSA,M,3,05,19,21,17,24,14,30,11,,,,,2.0,0.9,1.8*34,0
1778779877477573519,$GPRMC,173329.000,A,1205.9858,S,07701.4932,W,12.59,113.55,140526,,,A*53,0
1778779878184419741,$GPGGA,173330.000,1205.9873,S,07701.4896,W,1,08,0.9,151.6,M,8.4,M,,0000*69,0
1778779878310443296,$GPGSA,M,3,05,19,21,17,24,14,30,11,,,,,2.0,0.9,1.8*34,0
1778779878477736296,$GPRMC,173330.000,A,1205.9873,S,07701.4896,W,12.58,113.56,140526,,,A*5F,0
1778779879183946999,$GPGGA,173331.000,1205.9887,S,07701.4861,W,1,08,0.9,152.9,M,8.4,M,,0000*67,0
1778779879309987332,$GPGSA,M,3,05,19,21,17,24,14,30,11,,,,,2.0,0.9,1.8*34,0
1778779879477270536,$GPRMC,173331.000,A,1205.9887,S,07701.4861,W,12.88,114.39,140526,,,A*5E,0
1778779880184331462,$GPGGA,173332.000,1205.9903,S,07701.4826,W,1,08,0.9,154.3,M,8.4,M,,0000*66,0
1778779880310359387,$GPGSA,M,3,05,19,21,17,24,14,30,11,,,,,2.0,0.9,1.8*34,0
1778779880477655980,$GPRMC,173332.000,A,1205.9903,S,07701.4826,W,12.86,115.32,140526,,,A*57,0
1778779881184482387,$GPGGA,173333.000,1205.9917,S,07701.4793,W,1,08,0.9,154.7,M,8.4,M,,0000*67,0
1778779881310517016,$GPGSA,M,3,05,19,21,17,24,14,30,11,,,,,2.0,0.9,1.8*34,0
1778779881470930979,$GPGSV,3,1,12,05,49,309,44,19,40,071,36,21,39,352,36,17,29,104,42*73,0
1778779881631334072,$GPGSV,3,2,12,24,20,230,35,14,15,145,38,30,09,114,41,11,08,004,28*7F,0
1778779881782584331,$GPGSV,3,3,12,13,56,146,40,48,33,280,43,26,48,112,,28,42,155,*7A,0
1778779881949856312,$GPRMC,173333.000,A,1205.9917,S,07701.4793,W,12.48,115.64,140526,,,A*53,0
1778779882185480312,$GPGGA,173334.000,1205.9931,S,07701.4762,W,1,08,0.9,155.1,M,8.4,M,,0000*6D,0
1778779882311506349,$GPGSA,M,3,05,19,21,17,24,14,30,11,,,,,2.0,0.9,1.8*34,0
1778779882478811460,$GPRMC,173334.000,A,1205.9931,S,07701.4762,W,11.08,115.27,140526,,,A*5E,0
1778779883185041571,$GPGGA,173335.000,1205.9944,S,07701.4734,W,1,08,0.9,156.4,M,8.4,M,,0000*6B,0
1778779883311051163,$GPGSA,M,3,05,19,21,17,24,14,30,11,,,,,2.0,0.9,1.8*34,0
1778779883478355700,$GPRMC,173335.000,A,1205.9944,S,07701.4734,W,10.10,115.53,140526,,,A*55,0
1778779884185588274,$GPGGA,173336.000,1205.9957,S,07701.4708,W,1,08,0.9,157.8,M,8.4,M,,0000*68,0
1778779884311626070,$GPGSA,M,3,05,19,21,17,24,14,30,11,,,,,2.0,0.9,1.8*34,0
1778779884476647774,$GPRMC,173336.000,A,1205.9957,S,07701.4708,W,9.77,115.83,140526,,,A*6F,0
1778779885187005199,$GPGGA,173337.000,1205.9969,S,07701.4682,W,1,08,0.9,157.8,M,8.4,M,,0000*67,0
1778779885313041496,$GPGSA,M,3,05,19,21,17,24,14,30,11,,,,,2.0,0.9,1.8*34,0
1778779885480345551,$GPRMC,173337.000,A,1205.9969,S,07701.4682,W,10.13,115.78,140526,,,A*5E,0
1778779886192173051,$GPGGA,173338.000,1205.9982,S,07701.4656,W,1,08,0.9,157.6,M,8.4,M,,0000*6A,0
1778779886318215921,$GPGSA,M,3,05,19,21,17,24,14,30,11,,,,,2.0,0.9,1.8*34,0
1778779886478630513,$GPGSV,3,1,12,05,49,309,45,19,40,071,41,21,39,352,43,17,29,104,43*71,0
1778779886639064847,$GPGSV,3,2,12,24,20,230,36,14,15,145,30,30,09,114,40,11,08,004,22*7F,0
1778779886794859180,$GPGSV,3,3,12,13,56,146,45,23,24,057,30,48,33,280,43,26,48,112,*74,0
1778779886959847865,$GPRMC,173338.000,A,1205.9982,S,07701.4656,W,9.86,115.81,140526,,,A*6F,0
1778779887186288420,$GPGGA,173339.000,1205.9994,S,07701.4632,W,1,08,0.9,157.4,M,8.4,M,,0000*6C,0
1778779887312326087,$GPGSA,M,3,05,19,21,17,24,14,30,11,,,,,2.0,0.9,1.8*34,0
1778779887477339272,$GPRMC,173339.000,A,1205.9994,S,07701.4632,W,9.48,116.91,140526,,,A*6B,0
1778779888186455031,$GPGGA,173340.000,1206.0005,S,07701.4609,W,1,08,0.9,157.1,M,8.4,M,,0000*64,0
1778779888312494068,$GPGSA,M,3,05,19,21,17,24,14,30,11,,,,,2.0,0.9,1.8*34,0
1778779888477490679,$GPRMC,173340.000,A,1206.0005,S,07701.4609,W,8.82,117.56,140526,,,A*6B,0
1778779889186215123,$GPGGA,173341.000,1206.0016,S,07701.4589,W,1,08,0.9,156.7,M,8.4,M,,0000*6B,0
1778779889312235938,$GPGSA,M,3,05,19,21,17,24,14,30,11,,,,,2.0,0.9,1.8*34,0
1778779889477239993,$GPRMC,173341.000,A,1206.0016,S,07701.4589,W,7.41,120.11,140526,,,A*64,0
1778779890181785326,$GPGGA,173342.000,1206.0026,S,07701.4573,W,1,08,0.9,158.6,M,8.4,M,,0000*61,0
1778779890307817326,$GPGSA,M,3,05,19,21,17,24,14,30,11,,,,,2.0,0.9,1.8*34,0
1778779890472818770,$GPRMC,173342.000,A,1206.0026,S,07701.4573,W,5.19,117.58,140526,,,A*67,0
1778779891185910436,$GPGGA,173343.000,1206.0033,S,07701.4563,W,1,08,0.9,159.8,M,8.4,M,,0000*6A,1
1778779891311943751,$GPGSA,M,3,05,19,21,17,24,14,30,11,,,,,2.0,0.9,1.8*34,1
1778779891472358362,$GPGSV,3,1,12,05,49,309,45,19,40,071,34,21,39,352,34,17,29,104,43*73,1
1778779891632822640,$GPGSV,3,2,12,24,20,230,24,14,15,145,33,30,09,114,40,11,08,004,20*7D,1
1778779891783992806,$GPGSV,3,3,12,13,56,146,46,48,33,280,41,26,48,112,,28,42,155,*7E,1
1778779891949001640,$GPRMC,173343.000,A,1206.0033,S,07701.4563,W,3.34,116.54,140526,,,A*67,1
1778779892185230325,$GPGGA,173344.000,1206.0035,S,07701.4559,W,1,08,0.9,160.8,M,8.4,M,,0000*68,1
1778779892311282510,$GPGSA,M,3,05,19,21,17,24,14,30,11,,,,,2.0,0.9,1.8*34,1
1778779892476273176,$GPRMC,173344.000,A,1206.0035,S,07701.4559,W,0.13,116.54,140526,,,A*69,1
1778779893185399009,$GPGGA,173345.000,1206.0035,S,07701.4559,W,1,08,0.9,160.8,M,8.4,M,,0000*69,1
1778779893311436861,$GPGSA,M,3,05,19,21,17,24,14,30,11,,,,,2.0,0.9,1.8*34,1
1778779893476427620,$GPRMC,173345.000,A,1206.0035,S,07701.4559,W,0.01,116.54,140526,,,A*6B,1
1778779894185570916,$GPGGA,173346.000,1206.0035,S,07701.4559,W,1,08,0.9,160.8,M,8.4,M,,0000*6A,1
1778779894311603879,$GPGSA,M,3,05,19,21,17,24,14,30,11,,,,,2.0,0.9,1.8*34,1
1778779894476600416,$GPRMC,173346.000,A,1206.0035,S,07701.4559,W,0.00,116.54,140526,,,A*69,1
1778779895185116619,$GPGGA,173347.000,1206.0035,S,07701.4559,W,1,08,0.9,160.8,M,8.4,M,,0000*6B,1
1778779895311130638,$GPGSA,M,3,05,19,21,17,24,14,30,11,,,,,2.0,0.9,1.8*34,1
1778779895476129026,$GPRMC,173347.000,A,1206.0035,S,07701.4559,W,0.00,116.54,140526,,,A*68,1
1778779896181310026,$GPGGA,173348.000,1206.0035,S,07701.4559,W,1,08,0.9,160.8,M,8.4,M,,0000*64,1
1778779896307332100,$GPGSA,M,3,05,19,21,17,24,14,30,11,,,,,2.0,0.9,1.8*34,1
1778779896467756544,$GPGSV,3,1,12,05,49,309,45,19,40,071,26,21,39,352,34,17,29,104,44*77,1
1778779896628148155,$GPGSV,3,2,12,24,20,230,25,14,15,145,36,30,09,114,39,11,08,004,20*77,1
1778779896779393822,$GPGSV,3,3,12,13,56,146,45,48,33,280,42,26,48,112,,28,42,155,*7E,1
1778779896944394415,$GPRMC,173348.000,A,1206.0035,S,07701.4559,W,0.00,116.54,140526,,,A*67,1
1778779897186265488,$GPGGA,173349.000,1206.0037,S,07701.4557,W,1,08,0.9,161.6,M,8.4,M,,0000*66,1
