Unix_time,GPS_data,flagStop
1778781636975335211,$GPRMC,180248.000,A,1205.8834,S,07701.2832,W,5.06,274.65,140526,,,A*68,0
1778781661758987344,$GPGGA,180249.000,1205.8837,S,07701.2843,W,1,08,0.9,158.9,M,8.4,M,,0000*63,0
1778781661759129492,$GPGSA,M,3,20,19,05,21,17,24,11,14,,,,,1.7,0.9,1.4*3D,0
1778781661759232511,$GPRMC,180249.000,A,1205.8837,S,07701.2843,W,2.60,270.48,140526,,,A*60,0
1778781661759367566,$GPGGA,180250.000,1205.8840,S,07701.2846,W,1,08,0.9,158.7,M,8.4,M,,0000*60,0
1778781661759510400,$GPGSA,M,3,20,19,05,21,17,24,11,14,,,,,1.7,0.9,1.4*3D,0
1778781661759613918,$GPRMC,180250.000,A,1205.8840,S,07701.2846,W,0.59,270.48,140526,,,A*65,0
1778781661759749770,$GPGGA,180251.000,1205.8839,S,07701.2845,W,1,08,0.9,158.8,M,8.4,M,,0000*63,0
1778781661759892826,$GPGSA,M,3,20,19,05,21,17,24,11,14,,,,,1.7,0.9,1.4*3D,0
1778781661759996696,$GPRMC,180251.000,A,1205.8839,S,07701.2845,W,0.00,270.48,140526,,,A*65,0
1778781661760132233,$GPGGA,180252.000,1205.8838,S,07701.2844,W,1,08,0.9,159.1,M,8.4,M,,0000*68,0
1778781661760275548,$GPGSA,M,3,20,19,05,21,17,24,11,14,,,,,1.7,0.9,1.4*3D,0
1778781661760379159,$GPRMC,180252.000,A,1205.8838,S,07701.2844,W,0.00,270.48,140526,,,A*66,0
1778781661760514992,$GPGGA,180253.000,1205.8837,S,07701.2842,W,1,08,0.9,159.5,M,8.4,M,,0000*64,0
1778781661760679863,$GPGSA,M,3,20,19,05,21,17,24,11,14,,,,,1.7,0.9,1.4*3D,0
1778781661760790770,$GPGSV,3,1,12,20,72,159,44,19,42,090,45,05,40,325,28,21,28,358,19*74,0
1778781661760934289,$GPGSV,3,2,12,17,26,118,46,24,24,219,41,11,08,014,22,14,06,142,16*72,0
1778781661761084048,$GPGSV,3,3,12,13,62,120,46,30,06,103,04,44,42,284,46,26,47,090,*7A,0
1778781661761223826,$GPRMC,180253.000,A,1205.8837,S,07701.2842,W,0.00,270.48,140526,,,A*6E,0
1778781661761755418,$GPGGA,180254.000,1205.8836,S,07701.2841,W,1,08,0.9,159.8,M,8.4,M,,0000*6C,0
1778781661762495103,$GPGSA,M,3,20,19,05,21,17,24,11,14,,,,,1.7,0.9,1.4*3D,0
1778781661763013177,$GPRMC,180254.000,A,1205.8836,S,07701.2841,W,0.00,270.48,140526,,,A*6B,0
1778781661763688585,$GPGGA,180255.000,1205.8835,S,07701.2839,W,1,08,0.9,160.1,M,8.4,M,,0000*62,0
1778781661764400770,$GPGSA,M,3,20,19,05,21,17,24,11,14,,,,,1.7,0.9,1.4*3D,0
1778781661764936122,$GPRMC,180255.000,A,1205.8835,S,07701.2839,W,0.00,270.48,140526,,,A*66,0
1778781661765612214,$GPGGA,180256.000,1205.8834,S,07701.2838,W,1,09,0.9,160.4,M,8.4,M,,0000*65,0
1778781661766324474,$GPGSA,M,3,20,19,05,21,17,24,11,30,14,,,,1.6,0.9,1.3*38,0
1778781661766857881,$GPRMC,180256.000,A,1205.8834,S,07701.2838,W,0.00,270.48,140526,,,A*65,0
1778781661767226826,$GPGGA,180257.000,1205.8833,S,07701.2836,W,1,09,0.9,160.7,M,8.4,M,,0000*6E,0
1778781661767939140,$GPGSA,M,3,20,19,05,21,17,24,11,30,14,,,,1.6,0.9,1.3*38,0
1778781661768158066,$GPRMC,180257.000,A,1205.8833,S,07701.2836,W,0.00,270.48,140526,,,A*6D,0
1778781661768294140,$GPGGA,180258.000,1205.8832,S,07701.2835,W,1,09,0.9,161.0,M,8.4,M,,0000*65,0
1778781661768436548,$GPGSA,M,3,20,19,05,21,17,24,11,30,14,,,,1.6,0.9,1.3*38,0
1778781661768544214,$GPGSV,3,1,12,20,72,159,44,19,42,090,44,05,40,325,28,21,28,358,19*75,0
1778781661768683807,$GPGSV,3,2,12,17,26,118,46,24,24,219,41,11,08,014,22,30,06,103,11*76,0
1778781661768816159,$GPGSV,3,3,12,14,06,142,15,13,62,120,47,44,42,284,46,26,47,090,*78,0
1778781661768944122,$GPRMC,180258.000,A,1205.8832,S,07701.2835,W,0.00,270.48,140526,,,A*60,0
1778781661769079622,$GPGGA,180259.000,1205.8831,S,07701.2833,W,1,09,0.9,161.3,M,8.4,M,,0000*62,0
1778781661769223270,$GPGSA,M,3,20,19,05,21,17,24,11,30,14,,,,1.6,0.9,1.3*38,0
1778781661769331085,$GPRMC,180259.000,A,1205.8831,S,07701.2833,W,0.00,270.48,140526,,,A*64,0
1778781661769466603,$GPGGA,180300.000,1205.8830,S,07701.2832,W,1,09,0.9,161.6,M,8.4,M,,0000*6A,0
1778781661769609548,$GPGSA,M,3,20,19,05,21,17,24,11,30,14,,,,1.6,0.9,1.3*38,0
1778781661769717085,$GPRMC,180300.000,A,1205.8830,S,07701.2832,W,0.00,270.48,140526,,,A*69,0
1778781661769852622,$GPGGA,180301.000,1205.8829,S,07701.2830,W,1,09,0.9,161.9,M,8.4,M,,0000*6E,0
1778781661769995937,$GPGSA,M,3,20,19,05,21,17,24,11,30,14,,,,1.6,0.9,1.3*38,0
1778781661770103733,$GPRMC,180301.000,A,1205.8829,S,07701.2830,W,0.00,270.48,140526,,,A*62,0
1778781661770378418,$GPGGA,180302.000,1205.8828,S,07701.2829,W,1,09,0.9,162.2,M,8.4,M,,0000*6C,0
1778781661770523900,$GPGSA,M,3,20,19,05,21,17,24,11,30,14,,,,1.6,0.9,1.3*38,0
1778781661770631455,$GPRMC,180302.000,A,1205.8828,S,07701.2829,W,0.00,270.48,140526,,,A*68,0
1778781661770767400,$GPGGA,180303.000,1205.8827,S,07701.2827,W,1,08,0.9,162.5,M,8.4,M,,0000*6A,0
1778781661770910844,$GPGSA,M,3,20,19,05,21,17,24,11,14,,,,,1.7,0.9,1.4*3D,0
1778781661771014863,$GPGSV,3,1,12,20,72,159,43,19,42,090,44,05,40,325,29,21,28,358,19*73,0
1778781661771146992,$GPGSV,3,2,12,17,26,118,46,24,24,219,40,11,08,014,23,14,06,142,15*71,0
1778781661771279048,$GPGSV,3,3,12,13,62,120,47,30,06,103,12,44,42,284,45,26,47,090,*7F,0
1778781661771407251,$GPRMC,180303.000,A,1205.8827,S,07701.2827,W,0.00,270.48,140526,,,A*68,0
1778781661771543251,$GPGGA,180304.000,1205.8826,S,07701.2826,W,1,08,0.9,162.7,M,8.4,M,,0000*6F,0
1778781661771687011,$GPGSA,M,3,20,19,05,21,17,24,11,14,,,,,1.7,0.9,1.4*3D,0
1778781661771791048,$GPRMC,180304.000,A,1205.8826,S,07701.2826,W,0.00,270.48,140526,,,A*6F,0
1778781661771926863,$GPGGA,180305.000,1205.8825,S,07701.2825,W,1,08,0.9,162.9,M,8.4,M,,0000*60,0
1778781661772070381,$GPGSA,M,3,20,19,05,21,17,24,11,14,,,,,1.7,0.9,1.4*3D,0
1778781661772174400,$GPRMC,180305.000,A,1205.8825,S,07701.2825,W,0.00,270.48,140526,,,A*6E,0
1778781661772310251,$GPGGA,180306.000,1205.8824,S,07701.2824,W,1,07,1.0,163.2,M,8.4,M,,0000*6E,0
1778781661772453789,$GPGSA,M,3,20,19,05,17,24,11,14,,,,,,1.7,1.0,1.4*36,0
1778781661772554085,$GPRMC,180306.000,A,1205.8824,S,07701.2824,W,0.00,270.48,140526,,,A*6D,0
1778781661772699066,$GPGGA,180307.000,1205.8824,S,07701.2823,W,1,07,1.0,163.4,M,8.4,M,,0000*6E,0
1778781661772842918,$GPGSA,M,3,20,19,05,17,24,11,14,,,,,,1.7,1.0,1.4*36,0
1778781661772943251,$GPRMC,180307.000,A,1205.8824,S,07701.2823,W,0.00,270.48,140526,,,A*6B,0
1778781661773079270,$GPGGA,180308.000,1205.8823,S,07701.2822,W,1,07,1.0,163.6,M,8.4,M,,0000*65,0
1778781661773222955,$GPGSA,M,3,20,19,05,17,24,11,14,,,,,,1.7,1.0,1.4*36,0
1778781661773323474,$GPGSV,3,1,12,20,72,159,43,19,42,090,44,05,40,325,31,17,26,118,46*7D,0
1778781661773455881,$GPGSV,3,2,12,24,24,219,40,11,08,014,23,14,06,142,15,13,62,120,48*70,0
1778781661773588251,$GPGSV,3,3,12,30,06,103,07,44,42,284,45,26,47,090,,28,29,153,*7B,0
1778781661773713122,$GPRMC,180308.000,A,1205.8823,S,07701.2822,W,0.00,270.48,140526,,,A*62,0
1778781661773848937,$GPGGA,180309.000,1205.8822,S,07701.2821,W,1,07,1.0,163.8,M,8.4,M,,0000*68,0
1778781661773991603,$GPGSA,M,3,20,19,05,17,24,11,14,,,,,,1.7,1.0,1.4*36,0
1778781661774091844,$GPRMC,180309.000,A,1205.8822,S,07701.2821,W,0.00,270.48,140526,,,A*61,0
1778781661774227714,$GPGGA,180310.000,1205.8822,S,07701.2820,W,1,07,1.0,164.0,M,8.4,M,,0000*6E,0
1778781661774371122,$GPGSA,M,3,20,19,05,17,24,11,14,,,,,,1.7,1.0,1.4*36,0
1778781661774471344,$GPRMC,180310.000,A,1205.8822,S,07701.2820,W,0.00,270.48,140526,,,A*68,0
1778781661774607196,$GPGGA,180311.000,1205.8821,S,07701.2819,W,1,07,1.0,164.3,M,8.4,M,,0000*65,0
1778781661774750659,$GPGSA,M,3,20,19,05,17,24,11,14,,,,,,1.7,1.0,1.4*36,0
1778781661774850974,$GPRMC,180311.000,A,1205.8821,S,07701.2819,W,0.00,270.48,140526,,,A*60,0
1778781661774986900,$GPGGA,180312.000,1205.8820,S,07701.2818,W,1,07,1.0,164.5,M,8.4,M,,0000*60,0
1778781661775130122,$GPGSA,M,3,20,19,05,17,24,11,14,,,,,,1.7,1.0,1.4*36,0
1778781661775230344,$GPRMC,180312.000,A,1205.8820,S,07701.2818,W,0.00,270.48,140526,,,A*63,0
1778781661775366048,$GPGGA,180313.000,1205.8819,S,07701.2817,W,1,07,1.0,164.7,M,8.4,M,,0000*66,0
1778781661775509233,$GPGSA,M,3,20,19,05,17,24,11,14,,,,,,1.7,1.0,1.4*36,0
1778781661775609400,$GPGSV,3,1,12,20,72,159,44,19,42,090,44,05,40,325,33,17,26,118,46*78,0
1778781661775745011,$GPGSV,3,2,12,24,24,219,39,11,08,014,21,14,06,142,13,13,62,120,48*7A,0
1778781661808185270,$GPGSV,3,3,12,21,28,358,16,30,06,103,04,44,42,284,45,26,47,090,*7E,0
1778781661973206085,$GPRMC,180313.000,A,1205.8819,S,07701.2817,W,0.00,270.48,140526,,,A*67,0
1778781662205061770,$GPGGA,180314.000,1205.8819,S,07701.2815,W,1,07,1.0,164.9,M,8.4,M,,0000*6D,0
1778781662326554899,$GPGSA,M,3,20,19,05,17,24,11,14,,,,,,1.7,1.0,1.4*36,0
1778781662491472529,$GPRMC,180314.000,A,1205.8819,S,07701.2815,W,0.00,270.48,140526,,,A*62,0
1778781663203517510,$GPGGA,180315.000,1205.8818,S,07701.2814,W,1,06,1.1,165.1,M,8.4,M,,0000*65,0
1778781663320408714,$GPGSA,M,3,20,19,05,17,24,11,,,,,,,2.0,1.1,1.7*35,0
1778781663485381658,$GPRMC,180315.000,A,1205.8818,S,07701.2814,W,0.00,270.48,140526,,,A*63,0
1778781664202670194,$GPGGA,180316.000,1205.8817,S,07701.2813,W,1,06,1.1,165.3,M,8.4,M,,0000*6C,1
1778781664319558231,$GPGSA,M,3,20,19,05,17,24,11,,,,,,,2.0,1.1,1.7*35,1
1778781664484511565,$GPRMC,180316.000,A,1205.8817,S,07701.2813,W,0.00,270.48,140526,,,A*68,1
1778781665202211583,$GPGGA,180317.000,1205.8817,S,07701.2812,W,1,06,1.1,165.5,M,8.4,M,,0000*6A,1
1778781665319084064,$GPGSA,M,3,20,19,05,17,24,11,,,,,,,2.0,1.1,1.7*35,1
1778781665484042138,$GPRMC,180317.000,A,1205.8817,S,07701.2812,W,0.00,270.48,140526,,,A*68,1
1778781666202970527,$GPGGA,180318.000,1205.8817,S,07701.2812,W,1,06,1.1,165.5,M,8.4,M,,0000*65,1
1778781666319861378,$GPGSA,M,3,20,19,05,17,24,11,,,,,,,2.0,1.1,1.7*35,1
1778781666480259841,$GPGSV,3,1,12,20,72,159,44,19,42,090,44,05,40,325,34,17,26,118,45*7C,1
1778781666640671026,$GPGSV,3,2,12,24,24,219,38,11,08,014,20,13,62,120,48,30,06,103,07*7C,1
1778781666787442508,$GPGSV,3,3,12,44,42,284,45,26,47,090,,28,29,153,,21,28,358,*7C,1
1778781666952328026,$GPRMC,180318.000,A,1205.8817,S,07701.2812,W,0.00,270.48,140526,,,A*67,1
1778781667198177008,$GPGGA,180319.000,1205.8817,S,07701.2812,W,1,06,1.1,165.5,M,8.4,M,,0000*64,1
1778781667315001341,$GPGSA,M,3,20,19,05,17,24,11,,,,,,,2.0,1.1,1.7*35,1
1778781667480039285,$GPRMC,180319.000,A,1205.8817,S,07701.2812,W,0.00,270.48,140526,,,A*66,1
1778781668202265081,$GPGGA,180320.000,1205.8817,S,07701.2812,W,1,06,1.1,165.5,M,8.4,M,,0000*6E,1
1778781668319152840,$GPGSA,M,3,20,19,05,17,24,11,,,,,,,2.0,1.1,1.7*35,1
1778781668484131822,$GPRMC,180320.000,A,1205.8817,S,07701.2812,W,0.00,270.48,140526,,,A*6C,1
1778781669201813969,$GPGGA,180321.000,1205.8817,S,07701.2812,W,1,06,1.1,165.5,M,8.4,M,,0000*6F,0
1778781669318684673,$GPGSA,M,3,20,19,05,17,24,11,,,,,,,2.0,1.1,1.7*35,0
1778781669483663173,$GPRMC,180321.000,A,1205.8817,S,07701.2812,W,0.00,270.48,140526,,,A*6D,0
1778781670202780895,$GPGGA,180322.000,1205.8817,S,07701.2812,W,1,06,1.1,165.5,M,8.4,M,,0000*6C,0
1778781670319656802,$GPGSA,M,3,20,19,05,17,24,11,,,,,,,2.0,1.1,1.7*35,0
1778781670484651450,$GPRMC,180322.000,A,1205.8817,S,07701.2812,W,0.00,270.48,140526,,,A*6E,0
1778781671202535598,$GPGGA,180323.000,1205.8822,S,07701.2818,W,1,06,1.1,164.3,M,8.4,M,,0000*66,0
1778781671319402061,$GPGSA,M,3,20,19,05,17,24,11,,,,,,,2.0,1.1,1.7*35,0
1778781671479825301,$GPGSV,3,1,12,20,72,159,44,19,42,090,44,05,40,325,34,17,26,118,46*7F,0
1778781671640224912,$GPGSV,3,2,12,24,24,219,38,11,08,014,27,13,62,120,48,30,06,103,04*78,0
1778781671786880931,$GPGSV,3,3,12,44,42,284,46,26,47,090,,28,29,153,,21,28,358,*7F,0
1778781671951870560,$GPRMC,180323.000,A,1205.8822,S,07701.2818,W,0.68,270.48,140526,,,A*6D,0
1778781672202704727,$GPGGA,180324.000,1205.8826,S,07701.2828,W,1,06,1.1,163.2,M,8.4,M,,0000*60,0
1778781672319568319,$GPGSA,M,3,20,19,05,17,24,11,,,,,,,2.0,1.1,1.7*35,0
1778781672484570652,$GPRMC,180324.000,A,1205.8826,S,07701.2828,W,3.71,275.50,140526,,,A*6A,0
1778781673200779485,$GPGGA,180325.000,1205.8828,S,07701.2846,W,1,06,1.1,162.2,M,8.4,M,,0000*66,0
1778781673317659208,$GPGSA,M,3,20,19,05,17,24,11,,,,,,,2.0,1.1,1.7*35,0
1778781673482641485,$GPRMC,180325.000,A,1205.8828,S,07701.2846,W,6.51,276.39,140526,,,A*66,0
1778781674210563300,$GPGGA,180326.000,1205.8827,S,07701.2874,W,1,06,1.1,161.3,M,8.4,M,,0000*69,0
1778781674327390022,$GPGSA,M,3,20,19,05,17,24,11,,,,,,,2.0,1.1,1.7*35,0
1778781674492394114,$GPRMC,180326.000,A,1205.8827,S,07701.2874,W,8.33,277.27,140526,,,A*6F,0
1778781675207789003,$GPGGA,180327.000,1205.8825,S,07701.2905,W,1,06,1.1,160.5,M,8.4,M,,0000*6A,0
1778781675324650114,$GPGSA,M,3,20,19,05,17,24,11,,,,,,,2.0,1.1,1.7*35,0
1778781675489634391,$GPRMC,180327.000,A,1205.8825,S,07701.2905,W,9.78,276.61,140526,,,A*66,0
1778781676206483650,$GPGGA,180328.000,1205.8825,S,07701.2938,W,1,07,1.0,159.5,M,8.4,M,,0000*61,0
1778781676327918724,$GPGSA,M,3,20,19,05,21,17,24,11,,,,,,2.0,1.0,1.7*37,0
1778781676488344095,$GPGSV,3,1,12,20,72,159,44,19,42,090,45,05,40,325,45,21,28,358,23*76,0
1778781676648744057,$GPGSV,3,2,12,17,26,118,41,24,24,219,30,11,08,014,17,13,62,120,47*70,0
1778781676799989613,$GPGSV,3,3,12,30,06,103,04,44,42,284,46,26,47,090,,28,29,153,*7B,0
1778781676967280409,$GPRMC,180328.000,A,1205.8825,S,07701.2938,W,10.12,277.51,140526,,,A*51,0
1778781677207886020,$GPGGA,180329.000,1205.8824,S,07701.2968,W,1,07,1.0,158.8,M,8.4,M,,0000*68,0
1778781677329348927,$GPGSA,M,3,20,19,05,21,17,24,11,,,,,,2.0,1.0,1.7*37,0
1778781677494336872,$GPRMC,180329.000,A,1205.8824,S,07701.2968,W,9.60,276.31,140526,,,A*6E,0
1778781678208055408,$GPGGA,180330.000,1205.8820,S,07701.2995,W,1,08,0.9,158.6,M,8.4,M,,0000*6F,0
1778781678334116890,$GPGSA,M,3,20,19,05,21,17,24,11,30,,,,,1.7,0.9,1.5*3A,0
1778781678499086519,$GPRMC,180330.000,A,1205.8820,S,07701.2995,W,9.43,279.20,140526,,,A*6E,0
1778781679204313519,$GPGGA,180331.000,1205.8816,S,07701.3020,W,1,08,0.9,158.5,M,8.4,M,,0000*6E,0
1778781679330338130,$GPGSA,M,3,20,19,05,21,17,24,11,30,,,,,1.7,0.9,1.5*3A,0
1778781679495409667,$GPRMC,180331.000,A,1205.8816,S,07701.3020,W,8.40,279.80,140526,,,A*64,0
1778781680204628889,$GPGGA,180332.000,1205.8809,S,07701.3045,W,1,07,2.3,158.4,M,8.4,M,,0000*66,0
1778781680326087685,$GPGSA,M,3,20,19,05,21,17,11,30,,,,,,3.3,2.3,2.4*30,0
1778781680491075685,$GPRMC,180332.000,A,1205.8809,S,07701.3045,W,8.56,278.07,140526,,,A*63,0
1778781681206881814,$GPGGA,180333.000,1205.8801,S,07701.3070,W,1,08,0.9,158.5,M,8.4,M,,0000*6F,0
1778781681332913555,$GPGSA,M,3,20,19,05,21,17,24,11,30,,,,,1.7,0.9,1.5*3A,0
1778781681493324388,$GPGSV,3,1,12,20,73,155,37,19,42,092,47,05,38,326,23,21,27,359,37*78,0
1778781681653734869,$GPGSV,3,2,12,17,25,119,31,24,24,218,38,11,08,016,27,30,05,101,20*7F,0
1778781681809568832,$GPGSV,3,3,12,13,62,117,47,14,05,141,21,44,42,284,47,26,47,088,*73,0
1778781681974549499,$GPRMC,180333.000,A,1205.8801,S,07701.3070,W,8.95,279.13,140526,,,A*67,0
1778781682207263369,$GPGGA,180334.000,1205.8799,S,07701.3097,W,1,08,0.9,158.2,M,8.4,M,,0000*68,0
1778781682333280980,$GPGSA,M,3,20,19,05,21,17,24,11,30,,,,,1.7,0.9,1.5*3A,0
1778781682498275517,$GPRMC,180334.000,A,1205.8799,S,07701.3097,W,7.81,280.79,140526,,,A*67,0
1778781683208245313,$GPGGA,180335.000,1205.8799,S,07701.3119,W,1,08,0.9,158.0,M,8.4,M,,0000*6C,0
1778781683334333720,$GPGSA,M,3,20,19,05,21,17,24,11,30,,,,,1.7,0.9,1.5*3A,0
1778781683499276794,$GPRMC,180335.000,A,1205.8799,S,07701.3119,W,6.42,276.45,140526,,,A*69,0
1778781684202784905,$GPGGA,180336.000,1205.8805,S,07701.3142,W,1,08,0.9,157.6,M,8.4,M,,0000*62,0
1778781684328819071,$GPGSA,M,3,20,19,05,21,17,24,11,30,,,,,1.7,0.9,1.5*3A,0
1778781684493820627,$GPRMC,180336.000,A,1205.8805,S,07701.3142,W,7.69,268.77,140526,,,A*68,0
1778781685206704534,$GPGGA,180337.000,1205.8811,S,07701.3174,W,1,08,0.9,157.0,M,8.4,M,,0000*65,0
1778781685332730219,$GPGSA,M,3,20,19,05,21,17,24,11,30,,,,,1.7,0.9,1.5*3A,0
1778781685500030904,$GPRMC,180337.000,A,1205.8811,S,07701.3174,W,11.71,267.93,140526,,,A*52,0
1778781686208535941,$GPGGA,180338.000,1205.8803,S,07701.3218,W,1,08,0.9,156.6,M,8.4,M,,0000*67,0
1778781686334603941,$GPGSA,M,3,20,19,05,21,17,24,11,30,,,,,1.7,0.9,1.5*3A,0
1778781686494976626,$GPGSV,3,1,12,20,73,155,44,19,42,092,47,05,38,326,39,21,27,359,11*73,0
1778781686655433755,$GPGSV,3,2,12,17,25,119,36,24,24,218,29,11,08,016,24,30,05,101,22*79,0
1778781686811213144,$GPGSV,3,3,12,13,62,117,44,14,05,141,14,44,42,284,46,26,47,088,*77,0
1778781686978501144,$GPRMC,180338.000,A,1205.8803,S,07701.3218,W,14.82,272.68,140526,,,A*5E,0
1778781687200356107,$GPGGA,180339.000,1205.8790,S,07701.3271,W,1,06,1.1,156.0,M,8.4,M,,0000*6D,0
1778781687317230366,$GPGSA,M,3,20,19,05,17,24,11,,,,,,,2.0,1.1,1.7*35,0
1778781687484567421,$GPRMC,180339.000,A,1205.8790,S,07701.3271,W,18.22,277.93,140526,,,A*52,0
1778781688205132921,$GPGGA,180340.000,1205.8781,S,07701.3336,W,1,06,1.1,154.5,M,8.4,M,,0000*66,0
1778781688321967865,$GPGSA,M,3,20,19,05,17,24,11,,,,,,,2.0,1.1,1.7*35,0
1778781688489262810,$GPRMC,180340.000,A,1205.8781,S,07701.3336,W,21.00,278.24,140526,,,A*57,0
1778781689209450920,$GPGGA,180341.000,1205.8777,S,07701.3404,W,1,07,1.0,153.5,M,8.4,M,,0000*6F,0
1778781689330892439,$GPGSA,M,3,20,19,05,21,17,24,11,,,,,,2.0,1.0,1.7*37,0
1778781689498177957,$GPRMC,180341.000,A,1205.8777,S,07701.3404,W,23.46,276.48,140526,,,A*5D,0
1778781690194395512,$GPGGA,180342.000,1205.8767,S,07701.3474,W,1,05,1.2,153.0,M,8.4,M,,0000*6F,0
1778781690306681160,$GPGSA,M,3,20,19,21,17,24,,,,,,,,2.5,1.2,2.2*33,0
1778781690474018734,$GPRMC,180342.000,A,1205.8767,S,07701.3474,W,25.30,276.98,140526,,,A*52,0
1778781691198122289,$GPGGA,180343.000,1205.8759,S,07701.3551,W,1,06,1.1,152.5,M,8.4,M,,0000*61,0
1778781691314961178,$GPGSA,M,3,20,19,05,21,17,24,,,,,,,2.4,1.1,2.2*34,0
1778781691475383586,$GPGSV,3,1,12,20,73,155,44,19,42,092,47,05,38,326,18,21,27,359,27*75,0
1778781691635780493,$GPGSV,3,2,12,17,25,119,43,24,24,218,31,11,08,016,04,13,62,117,44*77,0
1778781691782463122,$GPGSV,3,3,12,44,42,284,46,26,47,088,,28,28,153,,23,15,047,*76,0
1778781691949733900,$GPRMC,180343.000,A,1205.8759,S,07701.3551,W,27.46,277.93,140526,,,A*51,0
1778781692200335456,$GPGGA,180344.000,1205.8749,S,07701.3632,W,1,05,1.2,151.8,M,8.4,M,,0000*6F,0
1778781692312654196,$GPGSA,M,3,20,19,21,17,24,,,,,,,,2.5,1.2,2.2*33,0
1778781692479912252,$GPRMC,180344.000,A,1205.8749,S,07701.3632,W,27.77,278.17,140526,,,A*50,0
1778781693204678325,$GPGGA,180345.000,1205.8741,S,07701.3710,W,1,07,1.0,151.3,M,8.4,M,,0000*6C,0
1778781693326125547,$GPGSA,M,3,20,19,05,17,24,11,30,,,,,,1.8,1.0,1.5*3E,0
1778781693493474473,$GPRMC,180345.000,A,1205.8741,S,07701.3710,W,26.83,278.10,140526,,,A*55,0
1778781694203809528,$GPGGA,180346.000,1205.8730,S,07701.3790,W,1,06,1.2,150.0,M,8.4,M,,0000*60,0
1778781694320667584,$GPGSA,M,3,20,19,05,17,24,30,,,,,,,2.1,1.2,1.7*34,0
1778781694487955565,$GPRMC,180346.000,A,1205.8730,S,07701.3790,W,26.53,280.03,140526,,,A*50,0
1778781695206471361,$GPGGA,180347.000,1205.8721,S,07701.3866,W,1,07,1.2,149.1,M,8.4,M,,0000*6F,0
1778781695327919324,$GPGSA,M,3,20,19,05,17,24,30,14,,,,,,2.0,1.2,1.6*31,0
1778781695495193565,$GPRMC,180347.000,A,1205.8721,S,07701.3866,W,25.65,277.91,140526,,,A*52,0
1778781696202451916,$GPGGA,180348.000,1205.8712,S,07701.3939,W,1,08,1.0,148.4,M,8.4,M,,0000*62,0
1778781696328482990,$GPGSA,M,3,20,19,05,21,17,24,30,14,,,,,1.8,1.0,1.5*38,0
1778781696488920434,$GPGSV,3,1,12,20,73,155,44,19,42,092,47,05,38,326,21,21,27,359,22*7A,0
1778781696649317231,$GPGSV,3,2,12,17,25,119,44,24,24,218,36,30,05,101,28,14,05,141,23*74,0
1778781696805131879,$GPGSV,3,3,12,11,08,016,05,13,62,117,45,44,42,284,46,26,47,088,*7D,0
1778781696972419064,$GPRMC,180348.000,A,1205.8712,S,07701.3939,W,25.22,277.86,140526,,,A*53,0
1778781697209491767,$GPGGA,180349.000,1205.8701,S,07701.4007,W,1,08,1.0,148.0,M,8.4,M,,0000*66,0
1778781697335549953,$GPGSA,M,3,20,19,05,21,17,24,30,14,,,,,1.8,1.0,1.5*38,0
1778781697502814526,$GPRMC,180349.000,A,1205.8701,S,07701.4007,W,23.44,278.37,140526,,,A*50,0
1778781698206538267,$GPGGA,180350.000,1205.8693,S,07701.4068,W,1,07,1.2,147.7,M,8.4,M,,0000*68,0
1778781698327995359,$GPGSA,M,3,20,19,05,17,24,30,14,,,,,,2.0,1.2,1.6*31,0
1778781698495267748,$GPRMC,180350.000,A,1205.8693,S,07701.4068,W,19.80,277.91,140526,,,A*59,0
1778781699205873174,$GPGGA,180351.000,1205.8682,S,07701.4123,W,1,07,1.0,146.9,M,8.4,M,,0000*6A,0
1778781699327344062,$GPGSA,M,3,20,19,05,21,17,24,30,,,,,,1.9,1.0,1.6*3F,0
1778781699494593859,$GPRMC,180351.000,A,1205.8682,S,07701.4123,W,17.92,277.70,140526,,,A*54,0
1778781700210605154,$GPGGA,180352.000,1205.8672,S,07701.4175,W,1,09,0.9,146.1,M,8.4,M,,0000*6B,0
1778781700341238395,$GPGSA,M,3,20,19,05,21,17,24,11,30,14,,,,1.6,0.9,1.3*38,0
1778781700508530506,$GPRMC,180352.000,A,1205.8672,S,07701.4175,W,17.39,278.65,140526,,,A*51,0
1778781701206820284,$GPGGA,180353.000,1205.8663,S,07701.4225,W,1,08,1.0,145.5,M,8.4,M,,0000*62,0
1778781701332848228,$GPGSA,M,3,20,19,05,21,17,24,30,14,,,,,1.8,1.0,1.5*38,0
1778781701493256469,$GPGSV,3,1,12,20,73,155,44,19,42,092,47,05,38,326,44,21,27,359,32*78,0
1778781701653697598,$GPGSV,3,2,12,17,25,119,45,24,24,218,36,30,05,101,29,14,05,141,10*74,0
1778781701804906635,$GPGSV,3,3,12,13,62,117,45,44,42,284,46,26,47,088,,28,28,153,*70,0
1778781701972195376,$GPRMC,180353.000,A,1205.8663,S,07701.4225,W,16.79,278.24,140526,,,A*56,0
1778781702210534783,$GPGGA,180354.000,1205.8656,S,07701.4271,W,1,08,1.0,144.8,M,8.4,M,,0000*6E,0
1778781702336575912,$GPGSA,M,3,20,19,05,21,17,24,30,14,,,,,1.8,1.0,1.5*38,0
1778781702503837042,$GPRMC,180354.000,A,1205.8656,S,07701.4271,W,15.36,278.08,140526,,,A*50,0
1778781703226725912,$GPGGA,180355.000,1205.8650,S,07701.4312,W,1,08,1.0,144.5,M,8.4,M,,0000*60,0
1778781703352770430,$GPGSA,M,3,20,19,05,21,17,24,30,14,,,,,1.8,1.0,1.5*38,0
1778781703520041504,$GPRMC,180355.000,A,1205.8650,S,07701.4312,W,13.44,278.26,140526,,,A*5C,0
1778781704199170115,$GPGGA,180356.000,1205.8645,S,07701.4348,W,1,07,1.0,144.2,M,8.4,M,,0000*60,0
1778781704320627652,$GPGSA,M,3,20,19,05,21,17,24,30,,,,,,1.9,1.0,1.6*3F,0
1778781704487909559,$GPRMC,180356.000,A,1205.8645,S,07701.4348,W,12.19,278.00,140526,,,A*59,0
1778781705204991540,$GPGGA,180357.000,1205.8641,S,07701.4378,W,1,07,1.0,144.0,M,8.4,M,,0000*64,0
1778781705326427281,$GPGSA,M,3,20,19,05,21,17,24,30,,,,,,1.9,1.0,1.6*3F,0
1778781705493708744,$GPRMC,180357.000,A,1205.8641,S,07701.4378,W,10.06,279.01,140526,,,A*53,0
1778781706205558410,$GPGGA,180358.000,1205.8639,S,07701.4404,W,1,07,1.0,144.1,M,8.4,M,,0000*69,0
1778781706327007188,$GPGSA,M,3,20,19,05,21,17,24,30,,,,,,1.9,1.0,1.6*3F,0
1778781706487438910,$GPGSV,3,1,12,20,73,155,44,19,42,092,47,05,38,326,30,21,26,359,19*73,0
1778781706647820984,$GPGSV,3,2,12,17,25,120,45,24,24,218,38,30,05,101,36,11,08,016,25*73,0
1778781706799064632,$GPGSV,3,3,12,13,62,117,46,44,42,284,46,26,47,087,,28,28,153,*7C,0
1778781706964046817,$GPRMC,180358.000,A,1205.8639,S,07701.4404,W,9.12,275.94,140526,,,A*62,0
1778781707205083002,$GPGGA,180359.000,1205.8637,S,07701.4429,W,1,07,1.0,144.0,M,8.4,M,,0000*68,0
1778781707326556798,$GPGSA,M,3,20,19,05,21,17,24,30,,,,,,1.9,1.0,1.6*3F,0
1778781707491584317,$GPRMC,180359.000,A,1205.8637,S,07701.4429,W,8.76,277.52,140526,,,A*69,0
1778781708204427224,$GPGGA,180400.000,1205.8635,S,07701.4451,W,1,07,1.0,144.0,M,8.4,M,,0000*6E,0
1778781708325871779,$GPGSA,M,3,20,19,05,21,17,24,30,,,,,,1.9,1.0,1.6*3F,0
1778781708490866446,$GPRMC,180400.000,A,1205.8635,S,07701.4451,W,7.88,283.43,140526,,,A*6A,0
1778781709200215612,$GPGGA,180401.000,1205.8632,S,07701.4470,W,1,07,1.0,143.9,M,8.4,M,,0000*65,0
1778781709321655964,$GPGSA,M,3,20,19,05,21,17,24,30,,,,,,1.9,1.0,1.6*3F,0
1778781709486652705,$GPRMC,180401.000,A,1205.8632,S,07701.4470,W,6.58,286.31,140526,,,A*63,0
1778781710199747186,$GPGGA,180402.000,1205.8629,S,07701.4484,W,1,07,1.0,143.7,M,8.4,M,,0000*69,0
1778781710321187667,$GPGSA,M,3,20,19,05,21,17,24,30,,,,,,1.9,1.0,1.6*3F,0
1778781710486185982,$GPRMC,180402.000,A,1205.8629,S,07701.4484,W,4.07,283.99,140526,,,A*6E,0
1778781711205746000,$GPGGA,180403.000,1205.8628,S,07701.4491,W,1,07,1.0,143.5,M,8.4,M,,0000*6F,0
1778781711327197315,$GPGSA,M,3,20,19,05,21,17,24,30,,,,,,1.9,1.0,1.6*3F,0
1778781711487605203,$GPGSV,3,1,12,20,73,155,44,19,42,092,47,05,38,326,43,21,26,359,31*7D,0
1778781711648010055,$GPGSV,3,2,12,17,25,120,45,24,24,218,40,30,05,101,39,11,08,016,17*72,0
1778781711799262925,$GPGSV,3,3,12,13,62,117,36,44,42,284,45,26,47,087,,28,28,153,*78,0
1778781711964257666,$GPRMC,180403.000,A,1205.8628,S,07701.4491,W,1.25,284.05,140526,,,A*6D,0
1778781712205693907,$GPGGA,180404.000,1205.8628,S,07701.4493,W,1,07,1.0,143.3,M,8.4,M,,0000*6C,1
1778781712327144388,$GPGSA,M,3,20,19,05,21,17,24,30,,,,,,1.9,1.0,1.6*3F,1
1778781712492137184,$GPRMC,180404.000,A,1205.8628,S,07701.4493,W,0.66,284.05,140526,,,A*6E,1
1778781713204190202,$GPGGA,180405.000,1205.8627,S,07701.4494,W,1,07,1.0,143.3,M,8.4,M,,0000*65,1
1778781713325647739,$GPGSA,M,3,20,19,05,21,17,24,30,,,,,,1.9,1.0,1.6*3F,1
1778781713490644480,$GPRMC,180405.000,A,1205.8627,S,07701.4494,W,0.04,284.05,140526,,,A*63,1
1778781714213598591,$GPGGA,180406.000,1205.8627,S,07701.4494,W,1,07,1.0,143.3,M,8.4,M,,0000*66,1
1778781714335014942,$GPGSA,M,3,20,19,05,21,17,24,30,,,,,,1.9,1.0,1.6*3F,1
1778781714499978461,$GPRMC,180406.000,A,1205.8627,S,07701.4494,W,0.00,284.05,140526,,,A*64,1
1778781715202017201,$GPGGA,180407.000,1205.8627,S,07701.4494,W,1,07,1.0,143.0,M,8.4,M,,0000*64,1
1778781715323474516,$GPGSA,M,3,20,19,05,21,17,24,30,,,,,,1.9,1.0,1.6*3F,1
1778781715488459405,$GPRMC,180407.000,A,1205.8627,S,07701.4494,W,0.30,284.05,140526,,,A*66,1
1778781716204899478,$GPGGA,180408.000,1205.8627,S,07701.4498,W,1,07,1.0,142.8,M,8.4,M,,0000*6E,1
1778781716326349478,$GPGSA,M,3,20,19,05,21,17,24,30,,,,,,1.9,1.0,1.6*3F,1
1778781716486755423,$GPGSV,3,1,12,20,73,155,45,19,42,092,48,05,38,326,44,21,26,359,31*74,1
1778781716647158256,$GPGSV,3,2,12,17,25,120,45,24,24,218,39,30,05,101,41,13,62,117,35*7D,1
1778781716793839052,$GPGSV,3,3,12,44,42,284,47,26,47,087,,28,28,153,,23,15,047,*78,1
1778781716958812626,$GPRMC,180408.000,A,1205.8627,S,07701.4498,W,2.48,272.16,140526,,,A*63,1
1778781717207129441,$GPGGA,180409.000,1205.8627,S,07701.4508,W,1,08,0.9,142.7,M,8.4,M,,0000*6F,1
1778781717333186885,$GPGSA,M,3,20,19,05,21,17,24,11,30,,,,,1.7,0.9,1.5*3A,1
1778781717498173607,$GPRMC,180409.000,A,1205.8627,S,07701.4508,W,4.16,264.31,140526,,,A*65,1
1778781718208346885,$GPGGA,180410.000,1205.8627,S,07701.4520,W,1,08,0.9,142.6,M,8.4,M,,0000*6C,1
1778781718334416551,$GPGSA,M,3,20,19,05,21,17,24,11,30,,,,,1.7,0.9,1.5*3A,1
1778781718499373051,$GPRMC,180410.000,A,1205.8627,S,07701.4520,W,3.87,274.31,140526,,,A*69,1
1778781719203341106,$GPGGA,180411.000,1205.8621,S,07701.4530,W,1,08,0.9,142.5,M,8.4,M,,0000*69,1
1778781719329362421,$GPGSA,M,3,20,19,05,21,17,24,11,30,,,,,1.7,0.9,1.5*3A,1
1778781719494386921,$GPRMC,180411.000,A,1205.8621,S,07701.4530,W,4.60,309.33,140526,,,A*68,1
1778781720202835143,$GPGGA,180412.000,1205.8608,S,07701.4537,W,1,08,0.9,142.2,M,8.4,M,,0000*61,1
1778781720328881328,$GPGSA,M,3,20,19,05,21,17,24,11,30,,,,,1.7,0.9,1.5*3A,1
1778781720493863124,$GPRMC,180412.000,A,1205.8608,S,07701.4537,W,5.99,343.22,140526,,,A*6E,1
1778781721202788660,$GPGGA,180413.000,1205.8587,S,07701.4537,W,1,08,0.9,142.0,M,8.4,M,,0000*66,1
1778781721328817697,$GPGSA,M,3,20,19,05,21,17,24,11,30,,,,,1.7,0.9,1.5*3A,1
1778781721489242901,$GPGSV,3,1,12,20,73,155,45,19,42,092,44,05,38,326,30,21,26,359,43*7E,1
1778781721649713697,$GPGSV,3,2,12,17,25,120,39,24,24,218,40,11,08,016,27,30,05,101,33*70,1
1778781721800885901,$GPGSV,3,3,12,13,62,117,27,44,42,284,27,26,47,087,,28,28,153,*7C,1
1778781721961294753,$GPRMC,180413.000,A,1205.8587,S,07701.4537,W,7.85,7.07,140526,,,A*60,1
1778781722200251364,$GPGGA,180414.000,1205.8565,S,07701.4530,W,1,08,0.9,141.8,M,8.4,M,,0000*61,1
1778781722326282012,$GPGSA,M,3,20,19,05,21,17,24,11,30,,,,,1.7,0.9,1.5*3A,1
1778781722488995123,$GPRMC,180414.000,A,1205.8565,S,07701.4530,W,9.22,19.75,140526,,,A*55,1
1778781723201675011,$GPGGA,180415.000,1205.8536,S,07701.4519,W,1,08,0.9,141.7,M,8.4,M,,0000*62,1
1778781723327709511,$GPGSA,M,3,20,19,05,21,17,24,11,30,,,,,1.7,0.9,1.5*3A,1
1778781723492687215,$GPRMC,180415.000,A,1205.8536,S,07701.4519,W,11.30,20.00,140526,,,A*6B,1
1778781724201815603,$GPGGA,180416.000,1205.8505,S,07701.4509,W,1,08,0.9,141.7,M,8.4,M,,0000*60,1
1778781724327857751,$GPGSA,M,3,20,19,05,21,17,24,11,30,,,,,1.7,0.9,1.5*3A,1
1778781724492850751,$GPRMC,180416.000,A,1205.8505,S,07701.4509,W,11.18,18.62,140526,,,A*6C,1
1778781725201790769,$GPGGA,180417.000,1205.8476,S,07701.4501,W,1,08,0.9,141.8,M,8.4,M,,0000*63,1
1778781725327809288,$GPGSA,M,3,20,19,05,21,17,24,11,30,,,,,1.7,0.9,1.5*3A,1
1778781725490527417,$GPRMC,180417.000,A,1205.8476,S,07701.4501,W,9.90,16.04,140526,,,A*57,1
1778781726207147620,$GPGGA,180418.000,1205.8449,S,07701.4496,W,1,08,0.9,141.9,M,8.4,M,,0000*6E,1
1778781726333188657,$GPGSA,M,3,20,19,05,21,17,24,11,30,,,,,1.7,0.9,1.5*3A,1
1778781726493602657,$GPGSV,3,1,12,20,73,155,46,19,42,092,25,05,38,326,42,21,26,359,29*73,1
1778781726654001528,$GPGSV,3,2,12,17,25,120,25,24,24,218,33,11,08,016,18,30,05,101,22*75,1
1778781726805241620,$GPGSV,3,3,12,13,62,117,38,44,42,284,40,26,47,087,,28,28,153,*73,1
1778781726967940639,$GPRMC,180418.000,A,1205.8449,S,07701.4496,W,9.06,12.48,140526,,,A*58,1
1778781727199816379,$GPGGA,180419.000,1205.8423,S,07701.4489,W,1,07,1.0,141.8,M,8.4,M,,0000*6B,1
1778781727321273046,$GPGSA,M,3,20,19,05,21,17,24,11,,,,,,2.0,1.0,1.7*37,1
1778781727483973472,$GPRMC,180419.000,A,1205.8423,S,07701.4489,W,9.06,14.70,140526,,,A*56,1
1778781728197072953,$GPGGA,180420.000,1205.8398,S,07701.4478,W,1,06,1.1,141.8,M,8.4,M,,0000*68,1
1778781728313926397,$GPGSA,M,3,20,19,05,21,17,24,,,,,,,2.4,1.1,2.2*34,1
1778781728476627767,$GPRMC,180420.000,A,1205.8398,S,07701.4478,W,8.86,23.19,140526,,,A*57,1
1778781729201389767,$GPGGA,180421.000,1205.8375,S,07701.4467,W,1,06,1.1,141.7,M,8.4,M,,0000*6B,1
1778781729318259989,$GPGSA,M,3,20,19,05,21,17,24,,,,,,,2.4,1.1,2.2*34,1
1778781729480960748,$GPRMC,180421.000,A,1205.8375,S,07701.4467,W,7.88,26.31,140526,,,A*55,1
1778781730203231026,$GPGGA,180422.000,1205.8358,S,07701.4458,W,1,06,1.1,141.6,M,8.4,M,,0000*6A,1
1778781730320091266,$GPGSA,M,3,20,19,05,21,17,24,,,,,,,2.4,1.1,2.2*34,1
1778781730482794007,$GPRMC,180422.000,A,1205.8358,S,07701.4458,W,6.01,25.94,140526,,,A*59,1
1778781731202770895,$GPGGA,180423.000,1205.8345,S,07701.4451,W,1,06,1.1,141.6,M,8.4,M,,0000*6E,1
1778781731319619673,$GPGSA,M,3,20,19,05,21,17,24,,,,,,,2.4,1.1,2.2*34,1
1778781731480057228,$GPGSV,3,1,12,20,73,155,45,19,42,092,43,05,38,326,42,21,26,359,33*7B,1
1778781731640460228,$GPGSV,3,2,12,17,25,120,32,24,24,218,26,11,08,016,19,13,62,117,41*74,1
1778781731791698043,$GPGSV,3,3,12,30,05,101,07,44,42,284,40,26,47,087,,28,28,153,*78,1
1778781731954397080,$GPRMC,180423.000,A,1205.8345,S,07701.4451,W,3.72,25.49,140526,,,A*5C,1
1778781732202930432,$GPGGA,180424.000,1205.8338,S,07701.4447,W,1,06,1.1,141.5,M,8.4,M,,0000*67,1
1778781732319802154,$GPGSA,M,3,20,19,05,21,17,24,,,,,,,2.4,1.1,2.2*34,1
1778781732482498820,$GPRMC,180424.000,A,1205.8338,S,07701.4447,W,1.51,25.59,140526,,,A*54,1
1778781733202684746,$GPGGA,180425.000,1205.8335,S,07701.4445,W,1,06,1.1,141.3,M,8.4,M,,0000*6F,1
1778781733319542635,$GPGSA,M,3,20,19,05,21,17,24,,,,,,,2.4,1.1,2.2*34,1
1778781733482246912,$GPRMC,180425.000,A,1205.8335,S,07701.4445,W,0.67,25.59,140526,,,A*5E,1
1778781734203050819,$GPGGA,180426.000,1205.8331,S,07701.4443,W,1,06,1.1,141.1,M,8.4,M,,0000*6C,1
1778781734319904116,$GPGSA,M,3,20,19,05,21,17,24,,,,,,,2.4,1.1,2.2*34,1
1778781734482648301,$GPRMC,180426.000,A,1205.8331,S,07701.4443,W,1.96,23.92,140526,,,A*51,1
1778781735199873356,$GPGGA,180427.000,1205.8325,S,07701.4440,W,1,06,1.1,140.9,M,8.4,M,,0000*62,1
1778781735316776004,$GPGSA,M,3,20,19,05,21,17,24,,,,,,,2.4,1.1,2.2*34,1
1778781735479449689,$GPRMC,180427.000,A,1205.8325,S,07701.4440,W,2.51,23.84,140526,,,A*59,1
1778781736197780763,$GPGGA,180428.000,1205.8320,S,07701.4438,W,1,06,1.1,140.6,M,8.4,M,,0000*68,1
1778781736314609670,$GPGSA,M,3,20,19,05,21,17,24,,,,,,,2.4,1.1,2.2*34,1
1778781736475025559,$GPGSV,3,1,12,20,73,155,43,19,42,092,42,05,38,326,40,21,26,359,24*78,1
1778781736635435114,$GPGSV,3,2,12,17,25,120,37,24,24,218,30,13,62,117,40,30,05,101,08*7E,1
1778781736782085281,$GPGSV,3,3,12,44,42,284,38,26,47,087,,28,28,153,,23,15,047,*70,1
1778781736944792892,$GPRMC,180428.000,A,1205.8320,S,07701.4438,W,1.97,23.46,140526,,,A*5B,1
1778781737206861281,$GPGGA,180429.000,1205.8315,S,07701.4436,W,1,07,1.0,140.5,M,8.4,M,,0000*62,1
1778781737328316799,$GPGSA,M,3,20,19,05,21,17,24,11,,,,,,2.0,1.0,1.7*37,1
1778781737491098799,$GPRMC,180429.000,A,1205.8315,S,07701.4436,W,1.51,24.00,140526,,,A*5D,1
1778781738201213410,$GPGGA,180430.000,1205.8312,S,07701.4434,W,1,07,1.0,140.3,M,8.4,M,,0000*69,1
1778781738322651576,$GPGSA,M,3,20,19,05,21,17,24,11,,,,,,2.0,1.0,1.7*37,1
1778781738485364372,$GPRMC,180430.000,A,1205.8312,S,07701.4434,W,1.27,24.80,140526,,,A*59,1
1778781739207398168,$GPGGA,180431.000,1205.8307,S,07701.4431,W,1,07,1.0,140.2,M,8.4,M,,0000*68,1
1778781739328859113,$GPGSA,M,3,20,19,05,21,17,24,11,,,,,,2.0,1.0,1.7*37,1
1778781739491557835,$GPRMC,180431.000,A,1205.8307,S,07701.4431,W,3.18,23.22,140526,,,A*58,1
1778781740205677520,$GPGGA,180432.000,1205.8295,S,07701.4426,W,1,07,1.0,140.2,M,8.4,M,,0000*67,1
1778781740327143982,$GPGSA,M,3,20,19,05,21,17,24,11,,,,,,2.0,1.0,1.7*37,1
1778781740489841871,$GPRMC,180432.000,A,1205.8295,S,07701.4426,W,5.37,22.49,140526,,,A*50,1
1778781741199186630,$GPGGA,180433.000,1205.8281,S,07701.4420,W,1,07,1.0,140.1,M,8.4,M,,0000*66,1
1778781741320674667,$GPGSA,M,3,20,19,05,21,17,24,11,,,,,,2.0,1.0,1.7*37,1
1778781741481059408,$GPGSV,3,1,12,20,73,155,43,19,42,092,41,05,38,326,39,21,26,359,34*74,1
1778781741641470333,$GPGSV,3,2,12,17,25,120,39,24,24,218,35,11,08,016,22,13,62,117,34*77,1
1778781741792749852,$GPGSV,3,3,12,30,05,101,07,44,42,284,38,26,47,087,,28,28,153,*77,1
1778781741955406074,$GPRMC,180433.000,A,1205.8281,S,07701.4420,W,5.47,22.25,140526,,,A*5F,1
1778781742205600426,$GPGGA,180434.000,1205.8268,S,07701.4415,W,1,07,1.0,140.1,M,8.4,M,,0000*60,1
1778781742327060463,$GPGSA,M,3,20,19,05,21,17,24,11,,,,,,2.0,1.0,1.7*37,1
1778781742489758814,$GPRMC,180434.000,A,1205.8268,S,07701.4415,W,4.77,21.99,140526,,,A*5F,1
1778781743206387647,$GPGGA,180435.000,1205.8256,S,07701.4410,W,1,07,1.0,140.2,M,8.4,M,,0000*6A,1
1778781743327839332,$GPGSA,M,3,20,19,05,21,17,24,11,,,,,,2.0,1.0,1.7*37,1
1778781743490545777,$GPRMC,180435.000,A,1205.8256,S,07701.4410,W,4.09,22.77,140526,,,A*5C,1
1778781744201343036,$GPGGA,180436.000,1205.8246,S,07701.4405,W,1,07,1.0,140.2,M,8.4,M,,0000*6C,1
1778781744322798684,$GPGSA,M,3,20,19,05,21,17,24,11,,,,,,2.0,1.0,1.7*37,1
1778781744485496184,$GPRMC,180436.000,A,1205.8246,S,07701.4405,W,3.59,22.86,140526,,,A*56,1
1778781745208798924,$GPGGA,180437.000,1205.8238,S,07701.4401,W,1,08,0.9,140.3,M,8.4,M,,0000*66,1
1778781745334859442,$GPGSA,M,3,20,19,05,21,17,24,11,30,,,,,1.7,0.9,1.5*3A,1
1778781745497541368,$GPRMC,180437.000,A,1205.8238,S,07701.4401,W,3.09,24.11,140526,,,A*57,1
1778781746208128034,$GPGGA,180438.000,1205.8231,S,07701.4398,W,1,08,0.9,140.4,M,8.4,M,,0000*60,1
1778781746334200312,$GPGSA,M,3,20,19,05,21,17,24,11,30,,,,,1.7,0.9,1.5*3A,1
1778781746494580145,$GPGSV,3,1,12,20,73,155,43,19,42,092,36,05,38,326,40,21,26,359,33*7D,1
1778781746654986090,$GPGSV,3,2,12,17,25,120,39,24,24,218,37,11,08,016,26,30,05,101,10*70,1
1778781746806215479,$GPGSV,3,3,12,13,62,117,38,44,42,284,40,26,47,087,,28,28,153,*73,1
1778781746968923830,$GPRMC,180438.000,A,1205.8231,S,07701.4398,W,2.67,25.90,140526,,,A*57,1
1778781747208293164,$GPGGA,180439.000,1205.8223,S,07701.4394,W,1,08,0.9,140.4,M,8.4,M,,0000*6E,1
1778781747334358349,$GPGSA,M,3,20,19,05,21,17,24,11,30,,,,,1.7,0.9,1.5*3A,1
1778781747497026608,$GPRMC,180439.000,A,1205.8223,S,07701.4394,W,2.88,32.10,140526,,,A*56,1
1778781748208720181,$GPGGA,180440.000,1205.8216,S,07701.4387,W,1,08,0.9,140.4,M,8.4,M,,0000*64,1
1778781748334785996,$GPGSA,M,3,20,19,05,21,17,24,11,30,,,,,1.7,0.9,1.5*3A,1
1778781748497400385,$GPRMC,180440.000,A,1205.8216,S,07701.4387,W,4.28,44.80,140526,,,A*58,1
1778781749208418310,$GPGGA,180441.000,1205.8208,S,07701.4374,W,1,08,0.9,140.5,M,8.4,M,,0000*67,1
1778781749334490088,$GPGSA,M,3,20,19,05,21,17,24,11,30,,,,,1.7,0.9,1.5*3A,1
1778781749497152718,$GPRMC,180441.000,A,1205.8208,S,07701.4374,W,6.11,65.34,140526,,,A*5E,1
1778781750207746328,$GPGGA,180442.000,1205.8203,S,07701.4355,W,1,08,0.9,140.7,M,8.4,M,,0000*6E,1
1778781750333794291,$GPGSA,M,3,20,19,05,21,17,24,11,30,,,,,1.7,0.9,1.5*3A,1
1778781750496478032,$GPRMC,180442.000,A,1205.8203,S,07701.4355,W,7.96,74.58,140526,,,A*51,1
1778781751206659976,$GPGGA,180443.000,1205.8204,S,07701.4327,W,1,07,1.0,141.0,M,8.4,M,,0000*6C,1
1778781751328100883,$GPGSA,M,3,20,19,21,17,24,11,30,,,,,,1.8,1.0,1.5*38,1
1778781751488525235,$GPGSV,3,1,12,20,73,155,43,19,42,092,42,21,26,359,25,17,25,120,21*75,1
1778781751648926087,$GPGSV,3,2,12,24,24,218,37,11,08,016,19,30,05,101,12,05,38,326,19*77,1
1778781751800173772,$GPGSV,3,3,12,13,62,117,40,44,42,284,42,26,47,087,,28,28,153,*7E,1
1778781751965155457,$GPRMC,180443.000,A,1205.8204,S,07701.4327,W,10.88,88.83,140526,,,A*6E,1
1778781752203474531,$GPGGA,180444.000,1205.8207,S,07701.4294,W,1,08,0.9,141.2,M,8.4,M,,0000*64,1
1778781752329510105,$GPGSA,M,3,20,19,05,21,17,24,11,30,,,,,1.7,0.9,1.5*3A,1
1778781752494532679,$GPRMC,180444.000,A,1205.8207,S,07701.4294,W,12.32,94.84,140526,,,A*6A,1
1778781753207184956,$GPGGA,180445.000,1205.8212,S,07701.4256,W,1,08,0.9,141.3,M,8.4,M,,0000*6E,1
1778781753333231901,$GPGSA,M,3,20,19,05,21,17,24,11,30,,,,,1.7,0.9,1.5*3A,1
1778781753498227938,$GPRMC,180445.000,A,1205.8212,S,07701.4256,W,13.87,97.25,140526,,,A*66,1
1778781754207767307,$GPGGA,180446.000,1205.8218,S,07701.4213,W,1,08,0.9,141.6,M,8.4,M,,0000*63,1
1778781754333823344,$GPGSA,M,3,20,19,05,21,17,24,11,30,,,,,1.7,0.9,1.5*3A,1
1778781754498795363,$GPRMC,180446.000,A,1205.8218,S,07701.4213,W,15.35,96.21,140526,,,A*64,1
1778781755208151307,$GPGGA,180447.000,1205.8227,S,07701.4167,W,1,08,0.9,142.0,M,8.4,M,,0000*6B,1
1778781755334217399,$GPGSA,M,3,20,19,05,21,17,24,11,30,,,,,1.7,0.9,1.5*3A,1
1778781755499183751,$GPRMC,180447.000,A,1205.8227,S,07701.4167,W,15.61,96.33,140526,,,A*6B,1
1778781756206648621,$GPGGA,180448.000,1205.8235,S,07701.4122,W,1,08,0.9,142.4,M,8.4,M,,0000*62,1
1778781756332671343,$GPGSA,M,3,20,19,05,21,17,24,11,30,,,,,1.7,0.9,1.5*3A,1
1778781756493085028,$GPGSV,3,1,12,20,73,155,42,19,42,092,42,05,38,326,36,21,26,359,33*7E,1
1778781756653488121,$GPGSV,3,2,12,17,25,120,18,24,24,218,23,11,08,016,17,30,05,101,13*77,1
1778781756804742361,$GPGSV,3,3,12,13,62,117,39,44,42,284,43,26,47,087,,28,28,153,*71,1
1778781756969718639,$GPRMC,180448.000,A,1205.8235,S,07701.4122,W,15.21,96.92,140526,,,A*69,1
1778781757207427972,$GPGGA,180449.000,1205.8242,S,07701.4079,W,1,08,0.9,142.7,M,8.4,M,,0000*6F,1
1778781757333467880,$GPGSA,M,3,20,19,05,21,17,24,11,30,,,,,1.7,0.9,1.5*3A,1
1778781757498457657,$GPRMC,180449.000,A,1205.8242,S,07701.4079,W,14.99,97.05,140526,,,A*6A,1
1778781758201548601,$GPGGA,180450.000,1205.8247,S,07701.4035,W,1,08,0.9,142.9,M,8.4,M,,0000*64,1
1778781758327571546,$GPGSA,M,3,20,19,05,21,17,24,11,30,,,,,1.7,0.9,1.5*3A,1
1778781758492570249,$GPRMC,180450.000,A,1205.8247,S,07701.4035,W,15.51,97.14,140526,,,A*6A,1
1778781759207541101,$GPGGA,180451.000,1205.8252,S,07701.3990,W,1,08,0.9,142.9,M,8.4,M,,0000*60,1
1778781759333577045,$GPGSA,M,3,20,19,05,21,17,24,11,30,,,,,1.7,0.9,1.5*3A,1
1778781759498571823,$GPRMC,180451.000,A,1205.8252,S,07701.3990,W,16.05,96.88,140526,,,A*68,1
1778781760202092730,$GPGGA,180452.000,1205.8256,S,07701.3944,W,1,08,0.9,143.3,M,8.4,M,,0000*65,1
1778781760328113767,$GPGSA,M,3,20,19,05,21,17,24,11,30,,,,,1.7,0.9,1.5*3A,1
1778781760493105267,$GPRMC,180452.000,A,1205.8256,S,07701.3944,W,15.87,95.90,140526,,,A*65,1
1778781761207045914,$GPGGA,180453.000,1205.8260,S,07701.3901,W,1,08,0.9,143.7,M,8.4,M,,0000*64,1
1778781761333073285,$GPGSA,M,3,20,19,05,21,17,24,11,30,,,,,1.7,0.9,1.5*3A,1
1778781761493487581,$GPGSV,3,1,12,20,73,155,41,19,42,092,41,05,38,326,38,21,26,359,33*70,1
1778781761653882618,$GPGSV,3,2,12,17,25,120,27,24,24,218,34,11,08,016,24,30,05,101,14*7A,1
1778781761805133414,$GPGSV,3,3,12,13,62,117,39,44,42,284,43,26,47,087,,28,28,153,*71,1
1778781761970122877,$GPRMC,180453.000,A,1205.8260,S,07701.3901,W,14.77,96.09,140526,,,A*6D,1
1778781762207407451,$GPGGA,180454.000,1205.8262,S,07701.3860,W,1,08,0.9,144.3,M,8.4,M,,0000*64,1
1778781762333463525,$GPGSA,M,3,20,19,05,21,17,24,11,30,,,,,1.7,0.9,1.5*3A,1
1778781762498442617,$GPRMC,180454.000,A,1205.8262,S,07701.3860,W,13.54,93.40,140526,,,A*60,1
1778781763207580191,$GPGGA,180455.000,1205.8263,S,07701.3826,W,1,08,0.9,144.8,M,8.4,M,,0000*6D,1
1778781763333624691,$GPGSA,M,3,20,19,05,21,17,24,11,30,,,,,1.7,0.9,1.5*3A,1
1778781763498597024,$GPRMC,180455.000,A,1205.8263,S,07701.3826,W,11.22,93.52,140526,,,A*62,1
1778781764205233542,$GPGGA,180456.000,1205.8266,S,07701.3799,W,1,07,1.0,145.2,M,8.4,M,,0000*6C,1
1778781764326687301,$GPGSA,M,3,20,19,05,21,17,24,11,,,,,,2.0,1.0,1.7*37,1
1778781764489405672,$GPRMC,180456.000,A,1205.8266,S,07701.3799,W,8.70,97.12,140526,,,A*50,1
1778781765204978116,$GPGGA,180457.000,1205.8271,S,07701.3776,W,1,07,1.0,145.4,M,8.4,M,,0000*6C,1
1778781765326438319,$GPGSA,M,3,20,19,05,21,17,24,11,,,,,,2.0,1.0,1.7*37,1
1778781765489138967,$GPRMC,180457.000,A,1205.8271,S,07701.3776,W,7.98,99.09,140526,,,A*5B,1
1778781766207231189,$GPGGA,180458.000,1205.8274,S,07701.3754,W,1,08,0.9,146.0,M,8.4,M,,0000*66,1
1778781766333263430,$GPGSA,M,3,20,19,05,21,17,24,11,30,,,,,1.7,0.9,1.5*3A,1
1778781766493682226,$GPGSV,3,1,12,20,73,155,43,19,42,092,41,05,38,326,39,21,26,359,31*71,1
1778781766654077096,$GPGSV,3,2,12,17,25,120,22,24,24,218,21,11,08,016,14,30,05,101,13*7F,1
1778781766805331448,$GPGSV,3,3,12,13,62,117,40,44,42,284,45,26,47,087,,28,28,153,*79,1
1778781766968035430,$GPRMC,180458.000,A,1205.8274,S,07701.3754,W,8.26,98.13,140526,,,A*51,1
1778781767208026263,$GPGGA,180459.000,1205.8278,S,07701.3729,W,1,08,0.9,146.7,M,8.4,M,,0000*66,1
1778781767334096855,$GPGSA,M,3,20,19,05,21,17,24,11,30,,,,,1.7,0.9,1.5*3A,1
1778781767496751688,$GPRMC,180459.000,A,1205.8278,S,07701.3729,W,9.63,98.84,140526,,,A*58,1
1778781768202547929,$GPGGA,180500.000,1205.8284,S,07701.3701,W,1,08,0.9,146.9,M,8.4,M,,0000*6C,1
1778781768328603762,$GPGSA,M,3,20,19,05,21,17,24,11,30,,,,,1.7,0.9,1.5*3A,1
1778781768495885558,$GPRMC,180500.000,A,1205.8284,S,07701.3701,W,10.54,100.58,140526,,,A*51,1
1778781769207802873,$GPGGA,180501.000,1205.8287,S,07701.3669,W,1,08,0.9,147.7,M,8.4,M,,0000*6E,1
1778781769333778391,$GPGSA,M,3,20,19,05,21,17,24,11,30,,,,,1.7,0.9,1.5*3A,1
1778781769501051169,$GPRMC,180501.000,A,1205.8287,S,07701.3669,W,11.50,100.42,140526,,,A*52,1
1778781770202679279,$GPGGA,180502.000,1205.8288,S,07701.3633,W,1,08,0.9,149.2,M,8.4,M,,0000*66,1
1778781770328712168,$GPGSA,M,3,20,19,05,21,17,24,11,30,,,,,1.7,0.9,1.5*3A,1
1778781770495995798,$GPRMC,180502.000,A,1205.8288,S,07701.3633,W,12.15,101.93,140526,,,A*5E,1
1778781771207218908,$GPGGA,180503.000,1205.8294,S,07701.3597,W,1,08,0.9,150.0,M,8.4,M,,0000*6D,1
1778781771333258927,$GPGSA,M,3,20,19,05,21,17,24,11,30,,,,,1.7,0.9,1.5*3A,1
1778781771493660408,$GPGSV,3,1,12,20,73,155,44,19,42,092,43,05,38,326,39,21,26,359,28*7C,1
1778781771654066630,$GPGSV,3,2,12,17,25,120,22,24,24,218,28,11,08,016,19,30,05,101,11*79,1
1778781771805309445,$GPGSV,3,3,12,13,62,117,41,44,42,284,44,26,47,087,,28,28,153,*79,1
1778781771972595408,$GPRMC,180503.000,A,1205.8294,S,07701.3597,W,12.73,101.91,140526,,,A*5D,1
1778781772207375815,$GPGGA,180504.000,1205.8300,S,07701.3560,W,1,08,0.9,151.1,M,8.4,M,,0000*6E,1
1778781772333415889,$GPGSA,M,3,20,19,05,21,17,24,11,30,,,,,1.7,0.9,1.5*3A,1
1778781772500687371,$GPRMC,180504.000,A,1205.8300,S,07701.3560,W,13.67,100.51,140526,,,A*57,1
1778781773207118926,$GPGGA,180505.000,1205.8305,S,07701.3519,W,1,08,0.9,152.1,M,8.4,M,,0000*67,1
1778781773333164241,$GPGSA,M,3,20,19,05,21,17,24,11,30,,,,,1.7,0.9,1.5*3A,1
1778781773498147037,$GPRMC,180505.000,A,1205.8305,S,07701.3519,W,14.52,99.21,140526,,,A*6A,1
1778781774202074055,$GPGGA,180506.000,1205.8309,S,07701.3476,W,1,08,0.9,152.8,M,8.4,M,,0000*69,1
1778781774328116721,$GPGSA,M,3,20,19,05,21,17,24,11,30,,,,,1.7,0.9,1.5*3A,1
1778781774493114907,$GPRMC,180506.000,A,1205.8309,S,07701.3476,W,15.02,96.25,140526,,,A*62,1
1778781775205785573,$GPGGA,180507.000,1205.8313,S,07701.3432,W,1,08,0.9,153.2,M,8.4,M,,0000*68,1
1778781775331816554,$GPGSA,M,3,20,19,05,21,17,24,11,30,,,,,1.7,0.9,1.5*3A,1
1778781775496879165,$GPRMC,180507.000,A,1205.8313,S,07701.3432,W,15.37,96.93,140526,,,A*63,1
1778781776207819591,$GPGGA,180508.000,1205.8318,S,07701.3387,W,1,08,0.9,153.6,M,8.4,M,,0000*61,1
1778781776333884165,$GPGSA,M,3,20,19,05,21,17,24,11,30,,,,,1.7,0.9,1.5*3A,1
1778781776494265202,$GPGSV,3,1,12,20,73,155,41,19,42,092,44,05,38,326,38,21,26,359,29*7E,1
1778781776654667016,$GPGSV,3,2,12,17,25,120,31,24,24,218,27,11,08,016,18,30,05,101,16*72,1
1778781776805920979,$GPGSV,3,3,12,13,62,117,43,44,42,284,47,26,47,087,,28,28,153,*78,1
1778781776970923368,$GPRMC,180508.000,A,1205.8318,S,07701.3387,W,16.21,97.33,140526,,,A*61,1
1778781777207562201,$GPGGA,180509.000,1205.8323,S,07701.3339,W,1,08,0.9,154.1,M,8.4,M,,0000*6D,1
1778781777333615442,$GPGSA,M,3,20,19,05,21,17,24,11,30,,,,,1.7,0.9,1.5*3A,1
1778781777498593720,$GPRMC,180509.000,A,1205.8323,S,07701.3339,W,16.81,96.38,140526,,,A*6D,1
1778781778202939478,$GPGGA,180510.000,1205.8327,S,07701.3291,W,1,08,0.9,155.1,M,8.4,M,,0000*63,1
1778781778328970756,$GPGSA,M,3,20,19,05,21,17,24,11,30,,,,,1.7,0.9,1.5*3A,1
1778781778493963571,$GPRMC,180510.000,A,1205.8327,S,07701.3291,W,17.06,96.19,140526,,,A*6F,1
1778781779206850811,$GPGGA,180511.000,1205.8334,S,07701.3242,W,1,08,0.9,156.1,M,8.4,M,,0000*6D,1
1778781779332895681,$GPGSA,M,3,20,19,05,21,17,24,11,30,,,,,1.7,0.9,1.5*3A,1
1778781779497889070,$GPRMC,180511.000,A,1205.8334,S,07701.3242,W,17.09,97.57,140526,,,A*66,1
1778781780209107162,$GPGGA,180512.000,1205.8340,S,07701.3194,W,1,08,0.9,157.2,M,8.4,M,,0000*67,1
1778781780335158459,$GPGSA,M,3,20,19,05,21,17,24,11,30,,,,,1.7,0.9,1.5*3A,1
1778781780500133162,$GPRMC,180512.000,A,1205.8340,S,07701.3194,W,16.70,97.01,140526,,,A*62,1
1778781781209060680,$GPGGA,180513.000,1205.8344,S,07701.3148,W,1,08,0.9,157.8,M,8.4,M,,0000*69,1
1778781781335132717,$GPGSA,M,3,20,19,05,21,17,24,11,30,,,,,1.7,0.9,1.5*3A,1
1778781781495503421,$GPGSV,3,1,12,20,73,154,43,19,42,093,44,05,38,327,40,21,26,359,28*73,1
1778781781655901124,$GPGSV,3,2,12,17,25,120,30,24,24,217,18,11,08,016,22,30,05,101,30*7D,1
1778781781807144106,$GPGSV,3,3,12,13,62,115,43,44,42,284,46,26,47,086,,28,27,153,*75,1
1778781781972154217,$GPRMC,180513.000,A,1205.8344,S,07701.3148,W,15.55,97.40,140526,,,A*67,1
1778781782207964939,$GPGGA,180514.000,1205.8349,S,07701.3105,W,1,08,0.9,157.8,M,8.4,M,,0000*6A,1
1778781782334033587,$GPGSA,M,3,20,19,05,21,17,24,11,30,,,,,1.7,0.9,1.5*3A,1
1778781782499009457,$GPRMC,180514.000,A,1205.8349,S,07701.3105,W,14.51,95.65,140526,,,A*64,1
1778781783208139142,$GPGGA,180515.000,1205.8356,S,07701.3067,W,1,08,0.9,157.9,M,8.4,M,,0000*61,1
1778781783334200679,$GPGSA,M,3,20,19,05,21,17,24,11,30,,,,,1.7,0.9,1.5*3A,1
1778781783499155234,$GPRMC,180515.000,A,1205.8356,S,07701.3067,W,13.89,98.57,140526,,,A*60,1
1778781784202658401,$GPGGA,180516.000,1205.8363,S,07701.3027,W,1,08,0.9,158.2,M,8.4,M,,0000*64,1
1778781784328702475,$GPGSA,M,3,20,19,05,21,17,24,11,30,,,,,1.7,0.9,1.5*3A,1
1778781784493699086,$GPRMC,180516.000,A,1205.8363,S,07701.3027,W,14.75,95.94,140526,,,A*67,1
1778781785207421270,$GPGGA,180517.000,1205.8373,S,07701.2991,W,1,08,0.9,158.1,M,8.4,M,,0000*62,1
1778781785333465733,$GPGSA,M,3,20,19,05,21,17,24,11,30,,,,,1.7,0.9,1.5*3A,1
1778781785498443048,$GPRMC,180517.000,A,1205.8373,S,07701.2991,W,13.88,96.09,140526,,,A*60,1
1778781786207437825,$GPGGA,180518.000,1205.8378,S,07701.2954,W,1,08,0.9,158.3,M,8.4,M,,0000*6D,1
1778781786333459140,$GPGSA,M,3,20,19,05,21,17,24,11,30,,,,,1.7,0.9,1.5*3A,1
1778781786493810270,$GPGSV,3,1,12,20,73,154,40,19,42,093,44,05,38,327,37,21,26,359,40*7E,1
1778781786654218455,$GPGSV,3,2,12,17,25,120,24,24,24,217,26,11,08,016,34,30,05,101,27*74,1
1778781786805527621,$GPGSV,3,3,12,13,62,115,42,44,42,284,43,26,47,086,,28,27,153,*71,1
1778781786970456603,$GPRMC,180518.000,A,1205.8378,S,07701.2954,W,11.89,97.19,140526,,,A*6E,1
1778781787207963584,$GPGGA,180519.000,1205.8375,S,07701.2915,W,1,08,0.9,160.3,M,8.4,M,,0000*6F,1
1778781787334014603,$GPGSA,M,3,20,19,05,21,17,24,11,30,,,,,1.7,0.9,1.5*3A,1
1778781787496689584,$GPRMC,180519.000,A,1205.8375,S,07701.2915,W,9.61,97.37,140526,,,A*54,1
1778781788202736898,$GPGGA,180520.000,1205.8383,S,07701.2893,W,1,08,0.9,159.2,M,8.4,M,,0000*68,1
1778781788328764824,$GPGSA,M,3,20,19,05,21,17,24,11,30,,,,,1.7,0.9,1.5*3A,1
1778781788491433991,$GPRMC,180520.000,A,1205.8383,S,07701.2893,W,6.76,97.89,140526,,,A*54,1
1778781789202655842,$GPGGA,180521.000,1205.8391,S,07701.2878,W,1,08,0.9,157.9,M,8.4,M,,0000*6A,1
1778781789328700361,$GPGSA,M,3,20,19,05,21,17,24,11,30,,,,,1.7,0.9,1.5*3A,1
1778781789491395805,$GPRMC,180521.000,A,1205.8391,S,07701.2878,W,4.73,97.00,140526,,,A*55,1
1778781790208047305,$GPGGA,180522.000,1205.8398,S,07701.2868,W,1,08,0.9,156.6,M,8.4,M,,0000*6F,1
1778781790334098397,$GPGSA,M,3,20,19,05,21,17,24,11,30,,,,,1.7,0.9,1.5*3A,1
1778781790496761434,$GPRMC,180522.000,A,1205.8398,S,07701.2868,W,2.47,94.48,140526,,,A*50,1
1778781791208196452,$GPGGA,180523.000,1205.8401,S,07701.2860,W,1,08,0.9,156.1,M,8.4,M,,0000*66,1
1778781791334265896,$GPGSA,M,3,20,19,05,21,17,24,11,30,,,,,1.7,0.9,1.5*3A,1
1778781791494633211,$GPGSV,3,1,12,20,73,154,34,19,42,093,45,05,38,327,33,21,26,359,32*7D,1
1778781791655047193,$GPGSV,3,2,12,17,25,120,27,24,24,217,21,11,08,016,31,30,05,101,29*7B,1
1778781791806279359,$GPGSV,3,3,12,13,62,115,39,44,42,284,44,26,47,086,,28,27,153,*7A,1
1778781791968996878,$GPRMC,180523.000,A,1205.8401,S,07701.2860,W,1.39,87.61,140526,,,A*5D,1
1778781792204182952,$GPGGA,180524.000,1205.8403,S,07701.2854,W,1,08,0.9,156.2,M,8.4,M,,0000*67,1
1778781792330236118,$GPGSA,M,3,20,19,05,21,17,24,11,30,,,,,1.7,0.9,1.5*3A,1
1778781792492929099,$GPRMC,180524.000,A,1205.8403,S,07701.2854,W,0.84,87.61,140526,,,A*58,1
1778781793204557284,$GPGGA,180525.000,1205.8404,S,07701.2849,W,1,08,0.9,156.4,M,8.4,M,,0000*6B,1
1778781793330585488,$GPGSA,M,3,20,19,05,21,17,24,11,30,,,,,1.7,0.9,1.5*3A,1
1778781793493302747,$GPRMC,180525.000,A,1205.8404,S,07701.2849,W,0.19,87.61,140526,,,A*56,1
1778781794212646098,$GPGGA,180526.000,1205.8406,S,07701.2845,W,1,08,0.9,156.2,M,8.4,M,,0000*60,1
1778781794338680006,$GPGSA,M,3,20,19,05,21,17,24,11,30,,,,,1.7,0.9,1.5*3A,1
1778781794501369117,$GPRMC,180526.000,A,1205.8406,S,07701.2845,W,1.43,84.42,140526,,,A*57,1
1778781795208838283,$GPGGA,180527.000,1205.8408,S,07701.2837,W,1,08,0.9,156.2,M,8.4,M,,0000*6A,1
1778781795334907116,$GPGSA,M,3,20,19,05,21,17,24,11,30,,,,,1.7,0.9,1.5*3A,1
1778781795497591505,$GPRMC,180527.000,A,1205.8408,S,07701.2837,W,2.19,76.65,140526,,,A*59,1
1778781796209438005,$GPGGA,180528.000,1205.8409,S,07701.2831,W,1,08,0.9,156.3,M,8.4,M,,0000*63,1
1778781796335498671,$GPGSA,M,3,20,19,05,21,17,24,11,30,,,,,1.7,0.9,1.5*3A,1
1778781796495872708,$GPGSV,3,1,12,20,74,153,36,19,42,093,45,05,38,327,33,21,26,359,33*7E,1
1778781796656281301,$GPGSV,3,2,12,17,25,120,27,24,24,217,24,11,08,016,29,30,05,101,29*77,1
1778781796807544264,$GPGSV,3,3,12,13,62,115,40,44,42,284,45,26,47,086,,28,27,153,*75,1
1778781796970225023,$GPRMC,180528.000,A,1205.8409,S,07701.2831,W,0.52,76.65,140526,,,A*5C,1
1778781797209801763,$GPGGA,180529.000,1205.8409,S,07701.2831,W,1,08,0.9,156.3,M,8.4,M,,0000*62,1
1778781797335861060,$GPGSA,M,3,20,19,05,21,17,24,11,30,,,,,1.7,0.9,1.5*3A,1
1778781797498527078,$GPRMC,180529.000,A,1205.8409,S,07701.2831,W,0.02,76.65,140526,,,A*58,1
1778781798209754263,$GPGGA,180530.000,1205.8409,S,07701.2831,W,1,08,0.9,156.3,M,8.4,M,,0000*6A,1
1778781798335808670,$GPGSA,M,3,20,19,05,21,17,24,11,30,,,,,1.7,0.9,1.5*3A,1
1778781798498491874,$GPRMC,180530.000,A,1205.8409,S,07701.2831,W,0.00,76.65,140526,,,A*52,1
1778781799204708818,$GPGGA,180531.000,1205.8409,S,07701.2831,W,1,08,0.9,156.3,M,8.4,M,,0000*6B,1
1778781799330739373,$GPGSA,M,3,20,19,05,21,17,24,11,30,,,,,1.7,0.9,1.5*3A,1
1778781799493449225,$GPRMC,180531.000,A,1205.8409,S,07701.2831,W,0.00,76.65,140526,,,A*53,1
1778781800204039706,$GPGGA,180532.000,1205.8409,S,07701.2831,W,1,08,0.9,156.3,M,8.4,M,,0000*68,1
1778781800330072058,$GPGSA,M,3,20,19,05,21,17,24,11,30,,,,,1.7,0.9,1.5*3A,1
1778781800492777872,$GPRMC,180532.000,A,1205.8409,S,07701.2831,W,0.00,76.65,140526,,,A*50,1
1778781801209204298,$GPGGA,180533.000,1205.8409,S,07701.2831,W,1,08,0.9,156.3,M,8.4,M,,0000*69,1
1778781801335263076,$GPGSA,M,3,20,19,05,21,17,24,11,30,,,,,1.7,0.9,1.5*3A,1
1778781801495647261,$GPGSV,3,1,12,20,74,153,39,19,42,093,44,05,38,327,36,21,26,359,33*75,1
1778781801656043464,$GPGSV,3,2,12,17,25,120,26,24,24,217,25,11,08,016,25,30,05,101,28*7A,1
1778781801807288187,$GPGSV,3,3,12,13,62,115,39,44,42,284,45,26,47,086,,28,27,153,*7B,1
1778781801969997205,$GPRMC,180533.000,A,1205.8409,S,07701.2831,W,0.00,76.65,140526,,,A*51,1
1778781802209351668,$GPGGA,180534.000,1205.8409,S,07701.2831,W,1,08,0.9,156.3,M,8.4,M,,0000*6E,1
1778781802335426020,$GPGSA,M,3,20,19,05,21,17,24,11,30,,,,,1.7,0.9,1.5*3A,1
1778781802498141353,$GPRMC,180534.000,A,1205.8409,S,07701.2831,W,0.00,76.65,140526,,,A*56,1
1778781803209312371,$GPGGA,180535.000,1205.8409,S,07701.2831,W,1,08,0.9,156.3,M,8.4,M,,0000*6F,1
1778781803335382612,$GPGSA,M,3,20,19,05,21,17,24,11,30,,,,,1.7,0.9,1.5*3A,1
1778781803498055871,$GPRMC,180535.000,A,1205.8409,S,07701.2831,W,0.00,76.65,140526,,,A*57,1
1778781804209902963,$GPGGA,180536.000,1205.8409,S,07701.2831,W,1,08,0.9,156.4,M,8.4,M,,0000*6B,1
1778781804335969148,$GPGSA,M,3,20,19,05,21,17,24,11,30,,,,,1.7,0.9,1.5*3A,1
1778781804498638537,$GPRMC,180536.000,A,1205.8409,S,07701.2831,W,0.00,76.65,140526,,,A*54,1
1778781805206314814,$GPGGA,180537.000,1205.8409,S,07701.2831,W,1,07,1.0,156.4,M,8.4,M,,0000*6D,1
1778781805327764407,$GPGSA,M,3,20,19,05,21,17,24,30,,,,,,1.9,1.0,1.6*3F,1
1778781805490476332,$GPRMC,180537.000,A,1205.8409,S,07701.2831,W,0.00,76.65,140526,,,A*55,1
1778781806206054684,$GPGGA,180538.000,1205.8409,S,07701.2831,W,1,07,1.0,156.4,M,8.4,M,,0000*62,1
1778781806327502739,$GPGSA,M,3,20,19,05,21,17,24,30,,,,,,1.9,1.0,1.6*3F,1
1778781806487923369,$GPGSV,3,1,12,20,74,153,39,19,42,093,44,05,38,327,37,21,26,359,27*71,1
1778781806648325943,$GPGSV,3,2,12,17,25,120,26,24,24,217,25,30,05,101,28,11,08,016,28*77,1
1778781806799568758,$GPGSV,3,3,12,13,62,115,39,44,42,284,45,26,47,086,,28,27,153,*7B,1
1778781806962270424,$GPRMC,180538.000,A,1205.8409,S,07701.2831,W,0.00,76.65,140526,,,A*5A,1
1778781807210183350,$GPGGA,180539.000,1205.8409,S,07701.2831,W,1,08,0.9,156.4,M,8.4,M,,0000*64,1
1778781807336249942,$GPGSA,M,3,20,19,05,21,17,24,11,30,,,,,1.7,0.9,1.5*3A,1
1778781807498920035,$GPRMC,180539.000,A,1205.8409,S,07701.2831,W,0.00,76.65,140526,,,A*5B,1
1778781808209502775,$GPGGA,180540.000,1205.8409,S,07701.2831,W,1,08,0.9,156.4,M,8.4,M,,0000*6A,1
1778781808335570942,$GPGSA,M,3,20,19,05,21,17,24,11,30,,,,,1.7,0.9,1.5*3A,1
1778781808498244238,$GPRMC,180540.000,A,1205.8409,S,07701.2831,W,0.00,76.65,140526,,,A*55,1
1778781809209047738,$GPGGA,180541.000,1205.8409,S,07701.2831,W,1,08,0.9,156.4,M,8.4,M,,0000*6B,1
1778781809335112960,$GPGSA,M,3,20,19,05,21,17,24,11,30,,,,,1.7,0.9,1.5*3A,1
1778781809497781330,$GPRMC,180541.000,A,1205.8409,S,07701.2831,W,0.00,76.65,140526,,,A*54,1
1778781810209431737,$GPGGA,180542.000,1205.8409,S,07701.2831,W,1,08,0.9,156.4,M,8.4,M,,0000*68,1
1778781810335486848,$GPGSA,M,3,20,19,05,21,17,24,11,30,,,,,1.7,0.9,1.5*3A,1
1778781810498163663,$GPRMC,180542.000,A,1205.8409,S,07701.2831,W,0.00,76.65,140526,,,A*57,1
1778781811205835940,$GPGGA,180543.000,1205.8409,S,07701.2831,W,1,08,0.9,156.4,M,8.4,M,,0000*69,1
1778781811331870922,$GPGSA,M,3,20,19,05,21,17,24,11,30,,,,,1.7,0.9,1.5*3A,1
1778781811492271625,$GPGSV,3,1,12,20,74,153,39,19,42,093,44,05,38,327,38,21,26,359,26*7F,1
1778781811652684866,$GPGSV,3,2,12,17,25,120,26,24,24,217,25,11,08,016,30,30,05,101,29*7F,1
1778781811803925310,$GPGSV,3,3,12,13,62,115,41,44,42,284,46,26,47,086,,28,27,153,*77,1
1778781811966620458,$GPRMC,180543.000,A,1205.8409,S,07701.2831,W,0.00,76.65,140526,,,A*56,1
1778781812209356254,$GPGGA,180544.000,1205.8409,S,07701.2830,W,1,08,0.9,156.4,M,8.4,M,,0000*6F,1
1778781812335409365,$GPGSA,M,3,20,19,05,21,17,24,11,30,,,,,1.7,0.9,1.5*3A,1
1778781812498059513,$GPRMC,180544.000,A,1205.8409,S,07701.2830,W,0.00,76.65,140526,,,A*50,1
1778781813209079420,$GPGGA,180545.000,1205.8409,S,07701.2830,W,1,08,0.9,156.4,M,8.4,M,,0000*6E,1
1778781813335149124,$GPGSA,M,3,20,19,05,21,17,24,11,30,,,,,1.7,0.9,1.5*3A,1
1778781813497816365,$GPRMC,180545.000,A,1205.8409,S,07701.2830,W,0.00,76.65,140526,,,A*51,1
1778781814209444975,$GPGGA,180546.000,1205.8409,S,07701.2830,W,1,08,0.9,156.5,M,8.4,M,,0000*6C,1
1778781814335510883,$GPGSA,M,3,20,19,05,21,17,24,11,30,,,,,1.7,0.9,1.5*3A,1
1778781814498195660,$GPRMC,180546.000,A,1205.8409,S,07701.2830,W,0.00,76.65,140526,,,A*52,1
1778781815209829197,$GPGGA,180547.000,1205.8409,S,07701.2830,W,1,08,0.9,156.5,M,8.4,M,,0000*6D,1
1778781815335894178,$GPGSA,M,3,20,19,05,21,17,24,11,30,,,,,1.7,0.9,1.5*3A,1
1778781815498546234,$GPRMC,180547.000,A,1205.8409,S,07701.2830,W,0.00,76.65,140526,,,A*53,1
1778781816204149734,$GPGGA,180548.000,1205.8409,S,07701.2830,W,1,08,0.9,156.5,M,8.4,M,,0000*62,1
1778781816330170530,$GPGSA,M,3,20,19,05,21,17,24,11,30,,,,,1.7,0.9,1.5*3A,1
1778781816490592030,$GPGSV,3,1,12,20,74,153,39,19,42,093,44,05,38,327,38,21,26,359,27*7E,1
1778781816651020659,$GPGSV,3,2,12,17,25,120,26,24,24,217,19,11,08,016,31,30,05,101,29*71,1
1778781816802245307,$GPGSV,3,3,12,13,62,115,41,44,42,284,46,26,47,086,,28,27,153,*77,1
1778781816964950548,$GPRMC,180548.000,A,1205.8409,S,07701.2830,W,0.00,76.65,140526,,,A*5C,1
1778781817209736696,$GPGGA,180549.000,1205.8409,S,07701.2830,W,1,08,0.9,156.5,M,8.4,M,,0000*63,1
1778781817335800492,$GPGSA,M,3,20,19,05,21,17,24,11,30,,,,,1.7,0.9,1.5*3A,1
1778781817498455677,$GPRMC,180549.000,A,1205.8409,S,07701.2830,W,0.00,76.65,140526,,,A*5D,1
1778781818204061084,$GPGGA,180550.000,1205.8409,S,07701.2830,W,1,08,0.9,156.5,M,8.4,M,,0000*6B,1
1778781818330096640,$GPGSA,M,3,20,19,05,21,17,24,11,30,,,,,1.7,0.9,1.5*3A,1
1778781818492787677,$GPRMC,180550.000,A,1205.8409,S,07701.2830,W,0.00,76.65,140526,,,A*55,1
1778781819209018491,$GPGGA,180551.000,1205.8409,S,07701.2830,W,1,08,0.9,156.5,M,8.4,M,,0000*6A,1
1778781819335088454,$GPGSA,M,3,20,19,05,21,17,24,11,30,,,,,1.7,0.9,1.5*3A,1
1778781819497756028,$GPRMC,180551.000,A,1205.8409,S,07701.2830,W,0.00,76.65,140526,,,A*54,1
1778781820209185842,$GPGGA,180552.000,1205.8409,S,07701.2830,W,1,08,0.9,156.5,M,8.4,M,,0000*69,1
1778781820335250694,$GPGSA,M,3,20,19,05,21,17,24,11,30,,,,,1.7,0.9,1.5*3A,1
1778781820497907101,$GPRMC,180552.000,A,1205.8409,S,07701.2830,W,0.00,76.65,140526,,,A*57,1
1778781821208924064,$GPGGA,180553.000,1205.8409,S,07701.2830,W,1,08,0.9,156.5,M,8.4,M,,0000*68,1
1778781821335003601,$GPGSA,M,3,20,19,05,21,17,24,11,30,,,,,1.7,0.9,1.5*3A,1
1778781821495363693,$GPGSV,3,1,12,20,74,153,39,19,42,093,43,05,38,327,37,21,26,359,27*76,1
1778781821655780471,$GPGSV,3,2,12,17,25,120,26,24,24,217,18,11,08,016,32,30,05,101,29*73,1
1778781821807031971,$GPGSV,3,3,12,13,62,115,41,44,42,284,45,26,47,086,,28,27,153,*74,1
1778781821969712471,$GPRMC,180553.000,A,1205.8409,S,07701.2830,W,0.00,76.65,140526,,,A*56,1
1778781822203877730,$GPGGA,180554.000,1205.8409,S,07701.2830,W,1,08,0.9,156.5,M,8.4,M,,0000*6F,1
1778781822329915285,$GPGSA,M,3,20,19,05,21,17,24,11,30,,,,,1.7,0.9,1.5*3A,1
1778781822492625952,$GPRMC,180554.000,A,1205.8409,S,07701.2830,W,0.00,76.65,140526,,,A*51,1
1778781823209263933,$GPGGA,180555.000,1205.8409,S,07701.2830,W,1,08,0.9,156.5,M,8.4,M,,0000*6E,1
1778781823335317063,$GPGSA,M,3,20,19,05,21,17,24,11,30,,,,,1.7,0.9,1.5*3A,1
1778781823498057840,$GPRMC,180555.000,A,1205.8409,S,07701.2830,W,0.00,76.65,140526,,,A*50,1
1778781824204627895,$GPGGA,180556.000,1205.8409,S,07701.2830,W,1,08,0.9,156.5,M,8.4,M,,0000*6D,1
1778781824330661414,$GPGSA,M,3,20,19,05,21,17,24,11,30,,,,,1.7,0.9,1.5*3A,1
1778781824493356136,$GPRMC,180556.000,A,1205.8409,S,07701.2830,W,0.00,76.65,140526,,,A*53,1
1778781825208955580,$GPGGA,180557.000,1205.8409,S,07701.2830,W,1,08,0.9,156.5,M,8.4,M,,0000*6C,1
