Unix_time,GPS_data,flagStop
1778780694190089884,$GPGGA,174706.000,1205.8820,S,07701.2826,W,1,06,1.9,164.5,M,8.4,M,,0000*6F,0
1778780715397487112,$GPGSA,M,3,20,05,21,17,14,30,,,,,,,3.0,1.9,2.3*30,0
1778780715397995075,$GPRMC,174706.000,A,1205.8820,S,07701.2826,W,0.16,276.80,140526,,,A*61,0
1778780715398711649,$GPGGA,174707.000,1205.8820,S,07701.2826,W,1,06,1.9,164.5,M,8.4,M,,0000*6E,0
1778780715399437797,$GPGSA,M,3,20,05,21,17,14,30,,,,,,,3.0,1.9,2.3*30,0
1778780715399916834,$GPRMC,174707.000,A,1205.8820,S,07701.2826,W,0.00,276.80,140526,,,A*67,0
1778780715400464260,$GPGGA,174708.000,1205.8818,S,07701.2823,W,1,06,1.9,165.1,M,8.4,M,,0000*6A,0
1778780715401189427,$GPGSA,M,3,20,05,21,17,14,30,,,,,,,3.0,1.9,2.3*30,0
1778780715401668519,$GPGSV,3,1,12,20,65,170,47,05,44,317,40,21,34,355,14,17,28,111,48*7B,0
1778780715402326019,$GPGSV,3,2,12,14,10,144,28,30,08,109,16,19,41,080,19,44,42,284,46*77,0
1778780715402981945,$GPGSV,3,3,12,13,59,135,,26,48,101,,28,36,154,,24,22,225,*77,0
1778780715403562316,$GPRMC,174708.000,A,1205.8818,S,07701.2823,W,0.16,276.80,140526,,,A*61,0
1778780715404236149,$GPGGA,174709.000,1205.8818,S,07701.2822,W,1,08,1.0,165.2,M,8.4,M,,0000*6E,0
1778780715404966019,$GPGSA,M,3,20,05,19,21,17,24,14,30,,,,,2.0,1.0,1.7*31,0
1778780715405482704,$GPRMC,174709.000,A,1205.8818,S,07701.2822,W,0.00,276.80,140526,,,A*66,0
1778780715406154723,$GPGGA,174710.000,1205.8818,S,07701.2822,W,1,09,0.9,165.2,M,8.4,M,,0000*6F,0
1778780715406835834,$GPGSA,M,3,20,05,19,21,17,24,14,11,30,,,,1.6,0.9,1.4*3F,0
1778780715407327223,$GPRMC,174710.000,A,1205.8818,S,07701.2822,W,0.00,276.80,140526,,,A*6E,0
1778780715407462667,$GPGGA,174711.000,1205.8817,S,07701.2822,W,1,09,0.9,165.4,M,8.4,M,,0000*67,0
1778780715407606075,$GPGSA,M,3,20,05,19,21,17,24,14,11,30,,,,1.6,0.9,1.4*3F,0
1778780715407713982,$GPRMC,174711.000,A,1205.8817,S,07701.2822,W,0.00,276.80,140526,,,A*60,0
1778780715407849649,$GPGGA,174712.000,1205.8817,S,07701.2821,W,1,09,0.9,165.5,M,8.4,M,,0000*66,0
1778780715407993001,$GPGSA,M,3,20,05,19,21,17,24,14,11,30,,,,1.6,0.9,1.4*3F,0
1778780715408100204,$GPRMC,174712.000,A,1205.8817,S,07701.2821,W,0.00,276.80,140526,,,A*60,0
1778780715408235186,$GPGGA,174713.000,1205.8816,S,07701.2820,W,1,09,0.9,165.7,M,8.4,M,,0000*65,0
1778780715408378908,$GPGSA,M,3,20,05,19,21,17,24,14,11,30,,,,1.6,0.9,1.4*3F,0
1778780715408486834,$GPGSV,3,1,12,20,65,170,47,05,44,317,41,19,41,080,19,21,34,355,18*7A,0
1778780715408618279,$GPGSV,3,2,12,17,28,111,48,24,22,225,29,14,10,144,27,11,08,009,23*72,0
1778780715408759371,$GPGSV,3,3,12,30,08,109,15,44,42,284,46,13,59,135,,26,48,101,*76,0
1778780715408884445,$GPRMC,174713.000,A,1205.8816,S,07701.2820,W,0.00,276.80,140526,,,A*61,0
1778780715409019260,$GPGGA,174714.000,1205.8816,S,07701.2819,W,1,09,0.9,165.9,M,8.4,M,,0000*66,0
1778780715409162482,$GPGSA,M,3,20,05,19,21,17,24,14,11,30,,,,1.6,0.9,1.4*3F,0
1778780715409269353,$GPRMC,174714.000,A,1205.8816,S,07701.2819,W,0.00,276.80,140526,,,A*6C,0
1778780715409404482,$GPGGA,174715.000,1205.8815,S,07701.2819,W,1,09,0.9,166.0,M,8.4,M,,0000*6E,0
1778780715409546834,$GPGSA,M,3,20,05,19,21,17,24,14,11,30,,,,1.6,0.9,1.4*3F,0
1778780715409654056,$GPRMC,174715.000,A,1205.8815,S,07701.2819,W,0.00,276.80,140526,,,A*6E,0
1778780715409789241,$GPGGA,174716.000,1205.8816,S,07701.2814,W,1,09,0.9,166.3,M,8.4,M,,0000*60,0
1778780715409932871,$GPGSA,M,3,20,05,19,21,17,24,14,11,30,,,,1.6,0.9,1.4*3F,0
1778780715410040112,$GPRMC,174716.000,A,1205.8816,S,07701.2814,W,0.07,276.80,140526,,,A*64,0
1778780715410176501,$GPGGA,174717.000,1205.8816,S,07701.2814,W,1,08,0.9,166.4,M,8.4,M,,0000*67,0
1778780715410320204,$GPGSA,M,3,20,05,19,21,17,24,14,11,,,,,1.7,0.9,1.5*3C,0
1778780715410424371,$GPRMC,174717.000,A,1205.8816,S,07701.2814,W,0.00,276.80,140526,,,A*62,0
1778780715410561390,$GPGGA,174718.000,1205.8816,S,07701.2814,W,1,06,1.5,166.4,M,8.4,M,,0000*6B,0
1778780715410704853,$GPGSA,M,3,20,05,19,21,17,14,,,,,,,2.6,1.5,2.1*32,0
1778780715410802167,$GPGSV,3,1,12,20,65,170,47,05,44,317,41,19,41,080,18,21,34,355,23*73,0
1778780715410935093,$GPGSV,3,2,12,17,28,111,48,14,10,144,26,44,42,284,46,13,59,135,*78,0
1778780715411148075,$GPGSV,3,3,12,26,48,101,,28,36,154,,24,22,225,,23,20,052,*7A,0
1778780715411266779,$GPRMC,174718.000,A,1205.8816,S,07701.2814,W,0.00,276.80,140526,,,A*6D,0
1778780715411401797,$GPGGA,174719.000,1205.8816,S,07701.2814,W,1,06,1.5,166.4,M,8.4,M,,0000*6A,0
1778780715411544241,$GPGSA,M,3,20,05,19,21,17,14,,,,,,,2.6,1.5,2.1*32,0
1778780715411640223,$GPRMC,174719.000,A,1205.8816,S,07701.2814,W,0.00,276.80,140526,,,A*6C,0
1778780715411775945,$GPGGA,174720.000,1205.8816,S,07701.2814,W,1,08,0.9,166.4,M,8.4,M,,0000*63,0
1778780715411918538,$GPGSA,M,3,20,05,19,21,17,24,14,11,,,,,1.7,0.9,1.5*3C,0
1778780715412022093,$GPRMC,174720.000,A,1205.8816,S,07701.2814,W,0.00,276.80,140526,,,A*66,0
1778780715412157297,$GPGGA,174721.000,1205.8816,S,07701.2814,W,1,08,0.9,166.4,M,8.4,M,,0000*62,0
1778780715412300093,$GPGSA,M,3,20,05,19,21,17,24,14,11,,,,,1.7,0.9,1.5*3C,0
1778780715412403649,$GPRMC,174721.000,A,1205.8816,S,07701.2814,W,0.00,276.80,140526,,,A*67,0
1778780715412538779,$GPGGA,174722.000,1205.8816,S,07701.2814,W,1,08,0.9,166.4,M,8.4,M,,0000*61,0
1778780715412690260,$GPGSA,M,3,20,05,19,21,17,24,14,11,,,,,1.7,0.9,1.5*3C,0
1778780715412794408,$GPRMC,174722.000,A,1205.8816,S,07701.2814,W,0.00,276.80,140526,,,A*64,0
1778780715412930001,$GPGGA,174723.000,1205.8816,S,07701.2814,W,1,08,0.9,166.4,M,8.4,M,,0000*60,0
1778780715413073056,$GPGSA,M,3,20,05,19,21,17,24,14,11,,,,,1.7,0.9,1.5*3C,0
1778780715413176741,$GPGSV,3,1,12,20,65,170,47,05,44,317,41,19,41,080,19,21,34,355,22*73,0
1778780715413308445,$GPGSV,3,2,12,17,28,111,47,24,22,225,28,14,10,144,25,11,08,009,22*7F,0
1778780715413440130,$GPGSV,3,3,12,44,42,284,46,13,59,135,,26,48,101,,28,36,154,*7E,0
1778780715413560704,$GPRMC,174723.000,A,1205.8816,S,07701.2814,W,0.00,276.80,140526,,,A*65,0
1778780715413696297,$GPGGA,174724.000,1205.8816,S,07701.2814,W,1,07,1.0,166.4,M,8.4,M,,0000*60,0
1778780715413839260,$GPGSA,M,3,20,05,19,21,17,24,14,,,,,,2.2,1.0,1.9*3E,0
1778780715413939038,$GPRMC,174724.000,A,1205.8816,S,07701.2814,W,0.00,276.80,140526,,,A*62,0
1778780715414074390,$GPGGA,174725.000,1205.8816,S,07701.2814,W,1,07,1.0,166.5,M,8.4,M,,0000*60,0
1778780715414217241,$GPGSA,M,3,20,05,19,21,17,24,14,,,,,,2.2,1.0,1.9*3E,0
1778780715414317056,$GPRMC,174725.000,A,1205.8816,S,07701.2814,W,0.00,276.80,140526,,,A*63,0
1778780715414452519,$GPGGA,174726.000,1205.8816,S,07701.2813,W,1,07,1.0,166.5,M,8.4,M,,0000*64,0
1778780715414595241,$GPGSA,M,3,20,05,19,21,17,24,14,,,,,,2.2,1.0,1.9*3E,0
1778780715414695093,$GPRMC,174726.000,A,1205.8816,S,07701.2813,W,0.00,276.80,140526,,,A*67,0
1778780715414830519,$GPGGA,174727.000,1205.8816,S,07701.2813,W,1,08,1.0,166.5,M,8.4,M,,0000*6A,0
1778780715414978353,$GPGSA,M,3,20,05,19,21,17,24,14,30,,,,,1.9,1.0,1.7*3B,0
1778780715494032427,$GPRMC,174727.000,A,1205.8816,S,07701.2813,W,0.00,276.80,140526,,,A*66,0
1778780716195191722,$GPGGA,174728.000,1205.8816,S,07701.2813,W,1,08,1.0,166.6,M,8.4,M,,0000*66,0
1778780716321210445,$GPGSA,M,3,20,05,19,21,17,24,14,30,,,,,1.9,1.0,1.7*3B,0
1778780716481606796,$GPGSV,3,1,12,20,65,170,47,05,44,317,40,19,41,080,18,21,34,355,22*73,0
1778780716641999370,$GPGSV,3,2,12,17,28,111,47,24,22,225,30,14,10,144,18,30,08,109,17*7C,0
1778780716788711315,$GPGSV,3,3,12,44,42,284,46,13,59,135,,26,48,101,,28,36,154,*7E,0
1778780716953675037,$GPRMC,174728.000,A,1205.8816,S,07701.2813,W,0.00,276.80,140526,,,A*69,0
1778780717199080333,$GPGGA,174729.000,1205.8816,S,07701.2813,W,1,08,1.0,166.7,M,8.4,M,,0000*66,0
1778780717325093314,$GPGSA,M,3,20,05,19,21,17,24,14,30,,,,,1.9,1.0,1.7*3B,0
1778780717490120648,$GPRMC,174729.000,A,1205.8816,S,07701.2813,W,0.00,276.80,140526,,,A*68,0
1778780718195047758,$GPGGA,174730.000,1205.8815,S,07701.2812,W,1,08,1.0,166.7,M,8.4,M,,0000*6C,1
1778780718321120869,$GPGSA,M,3,20,05,19,21,17,24,14,30,,,,,1.9,1.0,1.7*3B,1
1778780718486099740,$GPRMC,174730.000,A,1205.8815,S,07701.2812,W,0.00,276.80,140526,,,A*62,1
1778780719198812498,$GPGGA,174731.000,1205.8815,S,07701.2812,W,1,08,0.9,166.8,M,8.4,M,,0000*6A,1
1778780719324813795,$GPGSA,M,3,20,05,21,17,24,14,11,30,,,,,1.8,0.9,1.5*38,1
1778780719489822869,$GPRMC,174731.000,A,1205.8815,S,07701.2812,W,0.00,276.80,140526,,,A*63,1
1778780720190795535,$GPGGA,174732.000,1205.8815,S,07701.2812,W,1,08,0.9,166.8,M,8.4,M,,0000*69,1
1778780720316835127,$GPGSA,M,3,20,05,21,17,24,14,11,30,,,,,1.8,0.9,1.5*38,1
1778780720481818127,$GPRMC,174732.000,A,1205.8815,S,07701.2812,W,0.00,276.80,140526,,,A*60,1
1778780721194509182,$GPGGA,174733.000,1205.8815,S,07701.2812,W,1,08,0.9,166.8,M,8.4,M,,0000*68,1
1778780721320534386,$GPGSA,M,3,20,05,21,17,24,14,11,30,,,,,1.8,0.9,1.5*38,1
1778780721480946756,$GPGSV,3,1,12,20,65,170,47,05,44,317,40,21,34,355,21,17,28,111,47*72,1
1778780721641348738,$GPGSV,3,2,12,24,22,225,28,14,10,144,17,11,08,009,27,30,08,109,18*7F,1
1778780721788016701,$GPGSV,3,3,12,44,42,284,46,13,59,135,,26,48,101,,19,41,080,*74,1
1778780721953008256,$GPRMC,174733.000,A,1205.8815,S,07701.2812,W,0.00,276.80,140526,,,A*61,1
1778780722197154423,$GPGGA,174734.000,1205.8815,S,07701.2812,W,1,08,0.9,166.8,M,8.4,M,,0000*6F,1
1778780722323192108,$GPGSA,M,3,20,05,21,17,24,14,11,30,,,,,1.8,0.9,1.5*38,1
1778780722488204793,$GPRMC,174734.000,A,1205.8815,S,07701.2812,W,0.00,276.80,140526,,,A*66,1
1778780723188363329,$GPGGA,174735.000,1205.8815,S,07701.2812,W,1,06,1.9,166.8,M,8.4,M,,0000*61,1
1778780723305243589,$GPGSA,M,3,20,05,21,17,14,30,,,,,,,2.9,1.9,2.3*38,1
1778780723470231885,$GPRMC,174735.000,A,1205.8815,S,07701.2812,W,0.00,276.80,140526,,,A*67,1
1778780724190616996,$GPGGA,174736.000,1205.8815,S,07701.2812,W,1,05,3.3,166.8,M,8.4,M,,0000*69,1
1778780724302910440,$GPGSA,M,3,20,05,21,17,30,,,,,,,,5.2,3.3,4.0*3C,1
1778780724467896847,$GPRMC,174736.000,A,1205.8815,S,07701.2812,W,0.00,276.80,140526,,,A*64,1
1778780725193917013,$GPGGA,174737.000,1205.8815,S,07701.2812,W,1,07,1.0,166.8,M,8.4,M,,0000*6B,1
1778780725315360995,$GPGSA,M,3,20,05,21,17,24,11,30,,,,,,1.9,1.0,1.6*37,1
1778780725480354032,$GPRMC,174737.000,A,1205.8815,S,07701.2812,W,0.00,276.80,140526,,,A*65,1
1778780726189061402,$GPGGA,174738.000,1205.8815,S,07701.2812,W,1,07,1.0,166.8,M,8.4,M,,0000*64,1
1778780726310528624,$GPGSA,M,3,20,05,21,17,24,11,30,,,,,,1.9,1.0,1.6*37,1
1778780726470977327,$GPGSV,3,1,12,20,65,170,47,05,44,317,39,21,34,355,21,17,28,111,46*7D,1
1778780726631359050,$GPGSV,3,2,12,24,22,225,27,11,08,009,24,30,08,109,17,14,10,144,08*72,1
1778780726778003642,$GPGSV,3,3,12,44,42,284,46,13,59,135,,26,48,101,,19,41,080,*74,1
1778780726942998123,$GPRMC,174738.000,A,1205.8815,S,07701.2812,W,0.00,276.80,140526,,,A*6A,1
1778780727193814586,$GPGGA,174739.000,1205.8815,S,07701.2812,W,1,07,1.0,166.9,M,8.4,M,,0000*64,1
1778780727315272031,$GPGSA,M,3,20,05,21,17,24,11,30,,,,,,1.9,1.0,1.6*37,1
1778780727480258512,$GPRMC,174739.000,A,1205.8815,S,07701.2812,W,0.00,276.80,140526,,,A*6B,1
1778780728197101363,$GPGGA,174740.000,1205.8815,S,07701.2812,W,1,07,1.0,166.9,M,8.4,M,,0000*6A,1
1778780728318574308,$GPGSA,M,3,20,05,21,17,24,11,30,,,,,,1.9,1.0,1.6*37,1
1778780728483550660,$GPRMC,174740.000,A,1205.8815,S,07701.2812,W,0.00,276.80,140526,,,A*65,1
1778780729192679659,$GPGGA,174741.000,1205.8815,S,07701.2811,W,1,07,1.0,166.9,M,8.4,M,,0000*68,1
1778780729314129085,$GPGSA,M,3,20,05,21,17,24,11,30,,,,,,1.9,1.0,1.6*37,1
1778780729479138011,$GPRMC,174741.000,A,1205.8815,S,07701.2811,W,0.00,276.80,140526,,,A*67,1
1778780730188260992,$GPGGA,174742.000,1205.8814,S,07701.2807,W,1,07,1.0,167.4,M,8.4,M,,0000*61,1
1778780730309713196,$GPGSA,M,3,20,05,21,17,24,11,30,,,,,,1.9,1.0,1.6*37,1
1778780730474715881,$GPRMC,174742.000,A,1205.8814,S,07701.2807,W,0.14,276.80,140526,,,A*67,1
1778780731198012528,$GPGGA,174743.000,1205.8814,S,07701.2807,W,1,07,1.0,167.4,M,8.4,M,,0000*60,1
1778780731319465325,$GPGSA,M,3,20,05,21,17,24,11,30,,,,,,1.9,1.0,1.6*37,1
1778780731479877750,$GPGSV,3,1,12,20,65,170,47,05,44,317,38,21,34,355,21,17,28,111,46*7C,1
1778780731640279139,$GPGSV,3,2,12,24,22,225,27,11,08,009,22,30,08,109,18,14,10,144,07*74,1
1778780731791518972,$GPGSV,3,3,12,19,41,080,22,44,42,284,46,13,59,135,,26,48,101,*74,1
1778780731956522787,$GPRMC,174743.000,A,1205.8814,S,07701.2807,W,0.00,276.80,140526,,,A*63,1
1778780732197753546,$GPGGA,174744.000,1205.8814,S,07701.2807,W,1,08,0.9,167.5,M,8.4,M,,0000*61,1
1778780732323785509,$GPGSA,M,3,20,05,19,21,17,24,11,30,,,,,1.7,0.9,1.5*3A,1
1778780732488791472,$GPRMC,174744.000,A,1205.8814,S,07701.2807,W,0.00,276.80,140526,,,A*64,1
1778780733199802009,$GPGGA,174745.000,1205.8814,S,07701.2807,W,1,09,0.9,167.5,M,8.4,M,,0000*61,1
1778780733330405472,$GPGSA,M,3,20,05,19,21,17,24,14,11,30,,,,1.6,0.9,1.4*3F,1
1778780733495405490,$GPRMC,174745.000,A,1205.8814,S,07701.2807,W,0.00,276.80,140526,,,A*65,1
1778780734200163712,$GPGGA,174746.000,1205.8814,S,07701.2807,W,1,09,0.9,167.5,M,8.4,M,,0000*62,1
1778780734330858730,$GPGSA,M,3,20,05,19,21,17,24,14,11,30,,,,1.6,0.9,1.4*3F,1
1778780734495795212,$GPRMC,174746.000,A,1205.8814,S,07701.2807,W,0.00,276.80,140526,,,A*66,1
1778780735199991767,$GPGGA,174747.000,1205.8814,S,07701.2807,W,1,09,0.9,167.5,M,8.4,M,,0000*63,1
1778780735330532600,$GPGSA,M,3,20,05,19,21,17,24,14,11,30,,,,1.6,0.9,1.4*3F,1
1778780735495538063,$GPRMC,174747.000,A,1205.8814,S,07701.2807,W,0.00,276.80,140526,,,A*67,1
1778780736199247562,$GPGGA,174748.000,1205.8814,S,07701.2806,W,1,09,0.9,167.6,M,8.4,M,,0000*6E,1
1778780736329870970,$GPGSA,M,3,20,05,19,21,17,24,14,11,30,,,,1.6,0.9,1.4*3F,1
1778780736490273099,$GPGSV,3,1,12,20,65,170,47,05,44,317,37,19,41,080,24,21,34,355,15*78,1
1778780736650693321,$GPGSV,3,2,12,17,28,111,46,24,22,225,28,14,10,144,16,11,08,009,22*7E,1
1778780736801939099,$GPGSV,3,3,12,30,08,109,19,44,42,284,46,13,59,135,,26,48,101,*7A,1
1778780736966918173,$GPRMC,174748.000,A,1205.8814,S,07701.2806,W,0.00,276.80,140526,,,A*69,1
1778780737199415488,$GPGGA,174749.000,1205.8813,S,07701.2806,W,1,09,0.9,167.6,M,8.4,M,,0000*68,1
1778780737330030821,$GPGSA,M,3,20,05,19,21,17,24,14,11,30,,,,1.6,0.9,1.4*3F,1
1778780737495019469,$GPRMC,174749.000,A,1205.8813,S,07701.2806,W,0.00,276.80,140526,,,A*6F,1
1778780738199160858,$GPGGA,174750.000,1205.8813,S,07701.2806,W,1,09,0.9,167.7,M,8.4,M,,0000*61,1
1778780738329764654,$GPGSA,M,3,20,05,19,21,17,24,14,11,30,,,,1.6,0.9,1.4*3F,1
1778780738494769117,$GPRMC,174750.000,A,1205.8813,S,07701.2806,W,0.00,276.80,140526,,,A*67,1
1778780739198705172,$GPGGA,174751.000,1205.8813,S,07701.2806,W,1,09,0.9,167.7,M,8.4,M,,0000*60,1
1778780739329310005,$GPGSA,M,3,20,05,19,21,17,24,14,11,30,,,,1.6,0.9,1.4*3F,1
1778780739494307820,$GPRMC,174751.000,A,1205.8813,S,07701.2806,W,0.00,276.80,140526,,,A*66,1
1778780740198439708,$GPGGA,174752.000,1205.8813,S,07701.2806,W,1,09,0.9,167.7,M,8.4,M,,0000*63,1
1778780740329051523,$GPGSA,M,3,20,05,19,21,17,24,14,11,30,,,,1.6,0.9,1.4*3F,1
1778780740494046986,$GPRMC,174752.000,A,1205.8813,S,07701.2806,W,0.00,276.80,140526,,,A*65,1
1778780741199249782,$GPGGA,174753.000,1205.8813,S,07701.2806,W,1,09,0.9,167.7,M,8.4,M,,0000*62,1
1778780741329919726,$GPGSA,M,3,20,05,19,21,17,24,14,11,30,,,,1.6,0.9,1.4*3F,1
1778780741490262578,$GPGSV,3,1,12,20,65,170,47,05,44,317,37,19,41,080,24,21,34,355,16*7B,1
1778780741650677189,$GPGSV,3,2,12,17,28,111,46,24,22,225,21,14,10,144,19,11,08,009,22*78,1
1778780741801904578,$GPGSV,3,3,12,30,08,109,18,44,42,284,46,13,59,135,,26,48,101,*7B,1
1778780741966896763,$GPRMC,174753.000,A,1205.8813,S,07701.2806,W,0.00,276.80,140526,,,A*64,1
1778780742197924226,$GPGGA,174754.000,1205.8813,S,07701.2806,W,1,07,1.5,167.7,M,8.4,M,,0000*66,1
1778780742319384022,$GPGSA,M,3,20,05,19,21,17,14,30,,,,,,2.3,1.5,1.8*3E,1
1778780742484385262,$GPRMC,174754.000,A,1205.8813,S,07701.2806,W,0.00,276.80,140526,,,A*63,1
1778780743196233447,$GPGGA,174755.000,1205.8813,S,07701.2806,W,1,07,1.5,167.7,M,8.4,M,,0000*67,1
1778780743317669836,$GPGSA,M,3,20,05,19,21,17,14,30,,,,,,2.3,1.5,1.8*3E,1
1778780743482667891,$GPRMC,174755.000,A,1205.8813,S,07701.2806,W,0.00,276.80,140526,,,A*62,1
1778780744192847632,$GPGGA,174756.000,1205.8813,S,07701.2806,W,1,07,1.1,167.7,M,8.4,M,,0000*60,1
1778780744314370039,$GPGSA,M,3,20,05,21,17,24,14,30,,,,,,2.1,1.1,1.8*36,1
1778780744479286317,$GPRMC,174756.000,A,1205.8813,S,07701.2806,W,0.00,276.80,140526,,,A*61,1
1778780745192794187,$GPGGA,174757.000,1205.8813,S,07701.2805,W,1,07,1.1,167.8,M,8.4,M,,0000*6D,0
1778780745314264668,$GPGSA,M,3,20,05,21,17,24,14,30,,,,,,2.1,1.1,1.8*36,0
1778780745479246946,$GPRMC,174757.000,A,1205.8813,S,07701.2805,W,0.00,276.80,140526,,,A*63,0
1778780746196082797,$GPGGA,174758.000,1205.8812,S,07701.2805,W,1,07,1.1,168.0,M,8.4,M,,0000*64,0
1778780746317542390,$GPGSA,M,3,20,05,21,17,24,14,30,,,,,,2.1,1.1,1.8*36,0
1778780746477956704,$GPGSV,3,1,12,20,65,170,48,05,44,317,37,21,34,355,17,17,28,111,46*79,0
1778780746638352686,$GPGSV,3,2,12,24,22,225,28,14,10,144,19,30,08,109,17,19,41,080,22*7F,0
1778780746785012408,$GPGSV,3,3,12,44,42,284,47,13,59,135,,26,48,101,,28,36,154,*7F,0
1778780746950003889,$GPRMC,174758.000,A,1205.8812,S,07701.2805,W,0.00,276.80,140526,,,A*6D,0
1778780747192292871,$GPGGA,174759.000,1205.8814,S,07701.2804,W,1,07,1.5,167.8,M,8.4,M,,0000*61,0
1778780747313821982,$GPGSA,M,3,20,05,19,21,17,14,30,,,,,,2.3,1.5,1.8*3E,0
1778780747478738463,$GPRMC,174759.000,A,1205.8814,S,07701.2804,W,0.20,276.80,140526,,,A*69,0
1778780748195580203,$GPGGA,174800.000,1205.8812,S,07701.2807,W,1,07,1.5,168.0,M,8.4,M,,0000*60,0
1778780748317027907,$GPGSA,M,3,20,05,19,21,17,14,30,,,,,,2.3,1.5,1.8*3E,0
1778780748482026222,$GPRMC,174800.000,A,1205.8812,S,07701.2807,W,2.32,273.63,140526,,,A*66,0
1778780749200118129,$GPGGA,174801.000,1205.8810,S,07701.2819,W,1,07,1.5,167.7,M,8.4,M,,0000*64,0
1778780749321567518,$GPGSA,M,3,20,05,19,21,17,14,30,,,,,,2.3,1.5,1.8*3E,0
1778780749486586851,$GPRMC,174801.000,A,1205.8810,S,07701.2819,W,5.00,279.94,140526,,,A*6E,0
1778780750200697017,$GPGGA,174802.000,1205.8806,S,07701.2840,W,1,08,1.0,167.3,M,8.4,M,,0000*62,0
1778780750326732276,$GPGSA,M,3,20,05,19,21,17,24,14,30,,,,,1.9,1.0,1.7*3B,0
1778780750491729998,$GPRMC,174802.000,A,1205.8806,S,07701.2840,W,7.06,278.91,140526,,,A*66,0
1778780751196492702,$GPGGA,174803.000,1205.8803,S,07701.2865,W,1,08,1.0,166.7,M,8.4,M,,0000*64,0
1778780751322528016,$GPGSA,M,3,20,05,19,21,17,24,14,30,,,,,1.9,1.0,1.7*3B,0
1778780751482930035,$GPGSV,3,1,12,20,65,170,47,05,44,317,46,19,41,080,27,21,34,355,26*7D,0
1778780751643345775,$GPGSV,3,2,12,17,28,111,46,24,22,225,28,14,10,144,26,30,08,109,16*78,0
1778780751790003349,$GPGSV,3,3,12,44,42,284,48,13,59,135,,26,48,101,,28,36,154,*70,0
1778780751955011016,$GPRMC,174803.000,A,1205.8803,S,07701.2865,W,7.69,279.18,140526,,,A*6C,0
1778780752196242905,$GPGGA,174804.000,1205.8799,S,07701.2886,W,1,08,1.0,166.9,M,8.4,M,,0000*6C,0
1778780752322270053,$GPGSA,M,3,20,05,19,21,17,24,14,30,,,,,1.9,1.0,1.7*3B,0
1778780752487264812,$GPRMC,174804.000,A,1205.8799,S,07701.2886,W,8.20,279.72,140526,,,A*64,0
1778780753199519645,$GPGGA,174805.000,1205.8793,S,07701.2910,W,1,07,1.5,167.1,M,8.4,M,,0000*6A,0
1778780753320976737,$GPGSA,M,3,20,05,19,21,17,14,30,,,,,,2.3,1.5,1.8*3E,0
1778780753485981756,$GPRMC,174805.000,A,1205.8793,S,07701.2910,W,8.87,280.18,140526,,,A*66,0
1778780754194901959,$GPGGA,174806.000,1205.8793,S,07701.2941,W,1,08,1.0,165.6,M,8.4,M,,0000*62,0
1778780754320932959,$GPGSA,M,3,20,05,19,21,17,24,14,30,,,,,1.9,1.0,1.7*3B,0
1778780754485941922,$GPRMC,174806.000,A,1205.8793,S,07701.2941,W,8.54,277.90,140526,,,A*67,0
1778780755199643607,$GPGGA,174807.000,1205.8792,S,07701.2970,W,1,08,1.0,164.0,M,8.4,M,,0000*67,0
1778780755325680533,$GPGSA,M,3,20,05,19,21,17,24,14,30,,,,,1.9,1.0,1.7*3B,0
1778780755490672106,$GPRMC,174807.000,A,1205.8792,S,07701.2970,W,8.07,276.99,140526,,,A*6B,0
1778780756190014439,$GPGGA,174808.000,1205.8793,S,07701.2998,W,1,08,1.0,162.0,M,8.4,M,,0000*69,0
1778780756316057680,$GPGSA,M,3,20,05,19,21,17,24,14,30,,,,,1.9,1.0,1.7*3B,0
1778780756476454680,$GPGSV,3,1,12,20,65,170,38,05,44,317,24,19,41,080,43,21,34,355,41*72,0
1778780756636862032,$GPGSV,3,2,12,17,28,111,47,24,22,225,38,14,10,144,25,30,08,109,24*7A,0
1778780756788113254,$GPGSV,3,3,12,11,08,009,16,44,42,284,47,13,59,135,,26,48,101,*76,0
1778780756953099457,$GPRMC,174808.000,A,1205.8793,S,07701.2998,W,7.16,278.15,140526,,,A*66,0
1778780757196424105,$GPGGA,174809.000,1205.8794,S,07701.3023,W,1,08,1.0,160.2,M,8.4,M,,0000*67,0
1778780757322458698,$GPGSA,M,3,20,05,19,21,17,24,14,30,,,,,1.9,1.0,1.7*3B,0
1778780757487474920,$GPRMC,174809.000,A,1205.8794,S,07701.3023,W,6.20,278.20,140526,,,A*6A,0
1778780758196819346,$GPGGA,174810.000,1205.8795,S,07701.3048,W,1,08,1.0,158.4,M,8.4,M,,0000*6E,0
1778780758322842290,$GPGSA,M,3,20,05,19,21,17,24,14,30,,,,,1.9,1.0,1.7*3B,0
1778780758487833975,$GPRMC,174810.000,A,1205.8795,S,07701.3048,W,6.70,279.21,140526,,,A*6B,0
1778780759196615049,$GPGGA,174811.000,1205.8799,S,07701.3079,W,1,08,1.0,155.7,M,8.4,M,,0000*6F,0
1778780759322629012,$GPGSA,M,3,20,05,19,21,17,24,14,30,,,,,1.9,1.0,1.7*3B,0
1778780759487649086,$GPRMC,174811.000,A,1205.8799,S,07701.3079,W,7.77,278.25,140526,,,A*67,0
1778780760191753085,$GPGGA,174812.000,1205.8799,S,07701.3108,W,1,08,1.0,154.2,M,8.4,M,,0000*6F,0
1778780760317774585,$GPGSA,M,3,20,05,19,21,17,24,14,30,,,,,1.9,1.0,1.7*3B,0
1778780760482802752,$GPRMC,174812.000,A,1205.8799,S,07701.3108,W,7.96,275.65,140526,,,A*65,0
1778780761195419677,$GPGGA,174813.000,1205.8800,S,07701.3131,W,1,08,1.0,153.6,M,8.4,M,,0000*68,0
1778780761321444177,$GPGSA,M,3,20,05,19,21,17,24,14,30,,,,,1.9,1.0,1.7*3B,0
1778780761481858992,$GPGSV,3,1,12,20,65,170,38,05,44,317,30,19,41,080,45,21,34,355,36*71,0
1778780761642266825,$GPGSV,3,2,12,17,28,111,34,24,22,225,37,14,10,144,25,30,08,109,25*70,0
1778780761789003066,$GPGSV,3,3,12,44,42,284,48,13,59,135,,26,48,101,,28,36,154,*70,0
1778780761953918603,$GPRMC,174813.000,A,1205.8800,S,07701.3131,W,6.65,269.84,140526,,,A*6E,0
1778780762198327214,$GPGGA,174814.000,1205.8800,S,07701.3153,W,1,08,1.0,153.5,M,8.4,M,,0000*68,0
1778780762324322825,$GPGSA,M,3,20,05,19,21,17,24,14,30,,,,,1.9,1.0,1.7*3B,0
1778780762489319862,$GPRMC,174814.000,A,1205.8800,S,07701.3153,W,7.92,273.42,140526,,,A*65,0
1778780763202838898,$GPGGA,174815.000,1205.8794,S,07701.3185,W,1,08,1.0,152.8,M,8.4,M,,0000*6C,0
1778780763328853824,$GPGSA,M,3,20,05,19,21,17,24,14,30,,,,,1.9,1.0,1.7*3B,0
1778780763493848287,$GPRMC,174815.000,A,1205.8794,S,07701.3185,W,9.39,278.28,140526,,,A*65,0
1778780764199653027,$GPGGA,174816.000,1205.8787,S,07701.3217,W,1,08,1.0,152.6,M,8.4,M,,0000*6B,0
1778780764325690768,$GPGSA,M,3,20,05,19,21,17,24,14,30,,,,,1.9,1.0,1.7*3B,0
1778780764492978527,$GPRMC,174816.000,A,1205.8787,S,07701.3217,W,10.31,278.38,140526,,,A*5D,0
1778780765194394730,$GPGGA,174817.000,1205.8784,S,07701.3246,W,1,08,1.0,152.3,M,8.4,M,,0000*68,0
1778780765320437286,$GPGSA,M,3,20,05,19,21,17,24,14,30,,,,,1.9,1.0,1.7*3B,0
1778780765487713934,$GPRMC,174817.000,A,1205.8784,S,07701.3246,W,10.11,276.66,140526,,,A*5C,0
1778780766194356767,$GPGGA,174818.000,1205.8785,S,07701.3281,W,1,08,1.0,150.5,M,8.4,M,,0000*69,0
1778780766320391489,$GPGSA,M,3,20,05,19,21,17,24,14,30,,,,,1.9,1.0,1.7*3B,0
1778780766480819896,$GPGSV,3,1,12,20,65,170,45,05,44,317,40,19,41,080,45,21,34,355,22*79,0
1778780766641228470,$GPGSV,3,2,12,17,28,111,46,24,22,225,41,14,10,144,31,30,08,109,19*7E,0
1778780766787879581,$GPGSV,3,3,12,44,42,284,44,13,59,135,,26,48,101,,28,36,154,*7C,0
1778780766955177840,$GPRMC,174818.000,A,1205.8785,S,07701.3281,W,10.17,276.18,140526,,,A*56,0
1778780767190823377,$GPGGA,174819.000,1205.8783,S,07701.3315,W,1,07,1.3,149.0,M,8.4,M,,0000*63,0
1778780767312219136,$GPGSA,M,3,20,05,19,17,24,14,30,,,,,,2.2,1.3,1.8*3C,0
1778780767479501692,$GPRMC,174819.000,A,1205.8783,S,07701.3315,W,10.17,277.98,140526,,,A*54,0
1778780768187599451,$GPGGA,174820.000,1205.8781,S,07701.3349,W,1,07,1.3,147.5,M,8.4,M,,0000*69,0
1778780768309054469,$GPGSA,M,3,20,05,19,17,24,14,30,,,,,,2.2,1.3,1.8*3C,0
1778780768476342506,$GPRMC,174820.000,A,1205.8781,S,07701.3349,W,10.57,278.69,140526,,,A*50,0
1778780769196302283,$GPGGA,174821.000,1205.8778,S,07701.3381,W,1,08,1.0,146.5,M,8.4,M,,0000*67,0
1778780769322362302,$GPGSA,M,3,20,05,19,21,17,24,14,30,,,,,1.9,1.0,1.7*3B,0
1778780769489642506,$GPRMC,174821.000,A,1205.8778,S,07701.3381,W,10.39,278.76,140526,,,A*55,0
1778780770195430320,$GPGGA,174822.000,1205.8774,S,07701.3413,W,1,08,1.0,145.8,M,8.4,M,,0000*6A,0
1778780770321460394,$GPGSA,M,3,20,05,19,21,17,24,14,30,,,,,1.9,1.0,1.7*3B,0
1778780770488763560,$GPRMC,174822.000,A,1205.8774,S,07701.3413,W,10.46,278.21,140526,,,A*5C,0
1778780771193919116,$GPGGA,174823.000,1205.8768,S,07701.3441,W,1,08,1.0,145.6,M,8.4,M,,0000*6F,0
1778780771319958856,$GPGSA,M,3,20,05,19,21,17,24,14,30,,,,,1.9,1.0,1.7*3B,0
1778780771480366893,$GPGSV,3,1,12,20,65,170,45,05,44,317,43,19,41,080,44,21,34,355,41*7E,0
1778780771640779245,$GPGSV,3,2,12,17,28,111,47,24,22,225,40,14,10,144,26,30,08,109,18*79,0
1778780771787499597,$GPGSV,3,3,12,44,42,284,40,13,59,135,,26,48,101,,28,36,154,*78,0
1778780771952433541,$GPRMC,174823.000,A,1205.8768,S,07701.3441,W,9.93,277.74,140526,,,A*68,0
1778780772193684448,$GPGGA,174824.000,1205.8765,S,07701.3468,W,1,08,1.0,145.5,M,8.4,M,,0000*6D,0
1778780772319709689,$GPGSA,M,3,20,05,19,21,17,24,14,30,,,,,1.9,1.0,1.7*3B,0
1778780772484698800,$GPRMC,174824.000,A,1205.8765,S,07701.3468,W,9.45,273.38,140526,,,A*6E,0
1778780773191123040,$GPGGA,174825.000,1205.8761,S,07701.3497,W,1,08,1.0,145.7,M,8.4,M,,0000*6A,0
1778780773317151929,$GPGSA,M,3,20,05,19,21,17,24,14,30,,,,,1.9,1.0,1.7*3B,0
1778780773484441336,$GPRMC,174825.000,A,1205.8761,S,07701.3497,W,10.50,277.26,140526,,,A*5C,0
1778780773530272688,$PSRF156,23,1,0*09,0
1778780774195659095,$GPGGA,174826.000,1205.8758,S,07701.3527,W,1,08,1.0,145.8,M,8.4,M,,0000*66,0
1778780774321701836,$GPGSA,M,3,20,05,19,21,17,24,14,30,,,,,1.9,1.0,1.7*3B,0
1778780774488984021,$GPRMC,174826.000,A,1205.8758,S,07701.3527,W,10.90,277.17,140526,,,A*51,0
1778780775194386780,$GPGGA,174827.000,1205.8754,S,07701.3557,W,1,08,1.0,145.8,M,8.4,M,,0000*6C,0
1778780775320414113,$GPGSA,M,3,20,05,19,21,17,24,14,30,,,,,1.9,1.0,1.7*3B,0
1778780775487685650,$GPRMC,174827.000,A,1205.8754,S,07701.3557,W,10.59,277.53,140526,,,A*5E,0
1778780776195165465,$GPGGA,174828.000,1205.8751,S,07701.3587,W,1,08,1.0,145.4,M,8.4,M,,0000*67,0
1778780776321193761,$GPGSA,M,3,20,05,19,21,17,24,14,30,,,,,1.9,1.0,1.7*3B,0
1778780776481614909,$GPGSV,3,1,12,20,66,168,45,05,44,319,28,19,41,081,44,21,33,356,29*7C,0
1778780776642011761,$GPGSV,3,2,12,17,28,112,47,24,22,224,38,14,10,143,28,30,07,108,21*79,0
1778780776788668168,$GPGSV,3,3,12,44,42,284,46,13,60,133,,26,48,099,,28,35,154,*71,0
1778780776955961075,$GPRMC,174828.000,A,1205.8751,S,07701.3587,W,10.61,278.82,140526,,,A*51,0
1778780777204320149,$GPGGA,174829.000,1205.8745,S,07701.3616,W,1,08,1.0,145.4,M,8.4,M,,0000*68,0
1778780777330340982,$GPGSA,M,3,20,05,19,21,17,24,14,30,,,,,1.9,1.0,1.7*3B,0
1778780777497613371,$GPRMC,174829.000,A,1205.8745,S,07701.3616,W,10.04,278.40,140526,,,A*53,0
1778780778196517963,$GPGGA,174830.000,1205.8741,S,07701.3643,W,1,09,0.9,145.5,M,8.4,M,,0000*6C,0
1778780778327143537,$GPGSA,M,3,20,05,19,21,17,24,14,11,30,,,,1.6,0.9,1.4*3F,0
1778780778494521963,$GPRMC,174830.000,A,1205.8741,S,07701.3643,W,10.00,278.45,140526,,,A*5E,0
1778780779195232222,$GPGGA,174831.000,1205.8736,S,07701.3673,W,1,08,0.9,145.4,M,8.4,M,,0000*6E,0
1778780779321263703,$GPGSA,M,3,20,05,19,17,24,14,11,30,,,,,1.6,0.9,1.4*3C,0
1778780779488564129,$GPRMC,174831.000,A,1205.8736,S,07701.3673,W,10.39,279.04,140526,,,A*52,0
1778780780190596073,$GPGGA,174832.000,1205.8732,S,07701.3702,W,1,08,1.0,145.3,M,8.4,M,,0000*61,0
1778780780316648962,$GPGSA,M,3,20,05,19,21,17,24,14,30,,,,,1.9,1.0,1.7*3B,0
1778780780483939758,$GPRMC,174832.000,A,1205.8732,S,07701.3702,W,10.00,278.46,140526,,,A*5F,0
1778780781200967258,$GPGGA,174833.000,1205.8728,S,07701.3731,W,1,09,0.9,145.1,M,8.4,M,,0000*60,0
1778780781331595480,$GPGSA,M,3,20,05,19,21,17,24,14,11,30,,,,1.6,0.9,1.4*3F,0
1778780781492010702,$GPGSV,3,1,12,20,66,168,45,05,44,319,44,19,41,081,45,21,33,356,32*7D,0
1778780781652416017,$GPGSV,3,2,12,17,28,112,47,24,22,224,38,14,10,143,25,11,08,010,21*70,0
1778780781803660480,$GPGSV,3,3,12,30,07,108,22,44,42,284,47,13,60,133,,26,48,099,*71,0
1778780781970933350,$GPRMC,174833.000,A,1205.8728,S,07701.3731,W,10.00,278.45,140526,,,A*56,0
1778780782199680276,$GPGGA,174834.000,1205.8723,S,07701.3760,W,1,09,0.9,145.0,M,8.4,M,,0000*69,0
1778780782330293961,$GPGSA,M,3,20,05,19,21,17,24,14,11,30,,,,1.6,0.9,1.4*3F,0
1778780782497584757,$GPRMC,174834.000,A,1205.8723,S,07701.3760,W,10.37,278.88,140526,,,A*5B,0
1778780783199016757,$GPGGA,174835.000,1205.8719,S,07701.3790,W,1,09,0.9,144.8,M,8.4,M,,0000*67,0
1778780783329624886,$GPGSA,M,3,20,05,19,21,17,24,14,11,30,,,,1.6,0.9,1.4*3F,0
1778780783496948256,$GPRMC,174835.000,A,1205.8719,S,07701.3790,W,10.26,278.74,140526,,,A*5F,0
1778780784194589404,$GPGGA,174836.000,1205.8715,S,07701.3819,W,1,09,0.9,144.6,M,8.4,M,,0000*68,0
1778780784325208200,$GPGSA,M,3,20,05,19,21,17,24,14,11,30,,,,1.6,0.9,1.4*3F,0
1778780784492497330,$GPRMC,174836.000,A,1205.8715,S,07701.3819,W,10.00,278.57,140526,,,A*5B,0
1778780785201217959,$GPGGA,174837.000,1205.8710,S,07701.3848,W,1,09,0.9,144.3,M,8.4,M,,0000*6D,0
1778780785331822885,$GPGSA,M,3,20,05,19,21,17,24,14,11,30,,,,1.6,0.9,1.4*3F,0
1778780785499120329,$GPRMC,174837.000,A,1205.8710,S,07701.3848,W,10.28,278.14,140526,,,A*56,0
1778780786199495329,$GPGGA,174838.000,1205.8707,S,07701.3877,W,1,09,0.9,144.3,M,8.4,M,,0000*68,0
1778780786330110940,$GPGSA,M,3,20,05,19,21,17,24,14,11,30,,,,1.6,0.9,1.4*3F,0
1778780786490531403,$GPGSV,3,1,12,20,66,168,45,05,44,319,40,19,41,081,46,21,33,356,34*7C,0
1778780786650933625,$GPGSV,3,2,12,17,28,112,47,24,22,224,39,14,10,143,32,11,08,010,18*7D,0
1778780786802182958,$GPGSV,3,3,12,30,07,108,27,44,42,284,48,13,60,133,,26,48,099,*7B,0
1778780786969460847,$GPRMC,174838.000,A,1205.8707,S,07701.3877,W,10.39,277.00,140526,,,A*59,0
1778780787197829069,$GPGGA,174839.000,1205.8705,S,07701.3906,W,1,09,0.9,144.4,M,8.4,M,,0000*6B,0
1778780787328398476,$GPGSA,M,3,20,05,19,21,17,24,14,11,30,,,,1.6,0.9,1.4*3F,0
1778780787495688921,$GPRMC,174839.000,A,1205.8705,S,07701.3906,W,10.45,276.03,140526,,,A*54,0
1778780788195250291,$GPGGA,174840.000,1205.8701,S,07701.3935,W,1,08,1.0,144.4,M,8.4,M,,0000*68,0
1778780788321282291,$GPGSA,M,3,20,05,19,21,17,24,14,30,,,,,1.9,1.0,1.7*3B,0
1778780788488565828,$GPRMC,174840.000,A,1205.8701,S,07701.3935,W,10.28,277.60,140526,,,A*51,0
1778780789192699790,$GPGGA,174841.000,1205.8697,S,07701.3965,W,1,06,1.7,144.5,M,8.4,M,,0000*6A,0
1778780789309561790,$GPGSA,M,3,20,05,19,17,14,30,,,,,,,2.5,1.7,1.9*38,0
1778780789476855920,$GPRMC,174841.000,A,1205.8697,S,07701.3965,W,10.48,278.05,140526,,,A*51,0
1778780790198289827,$GPGGA,174842.000,1205.8691,S,07701.3995,W,1,06,1.7,144.2,M,8.4,M,,0000*67,0
1778780790315161252,$GPGSA,M,3,20,05,19,17,14,30,,,,,,,2.5,1.7,1.9*38,0
1778780790482454567,$GPRMC,174842.000,A,1205.8691,S,07701.3995,W,10.39,278.39,140526,,,A*52,0
1778780791203448844,$GPGGA,174843.000,1205.8686,S,07701.4024,W,1,08,1.0,144.3,M,8.4,M,,0000*6C,0
1778780791329477770,$GPGSA,M,3,20,05,19,21,17,24,14,30,,,,,1.9,1.0,1.7*3B,0
1778780791489892252,$GPGSV,3,1,12,20,66,168,45,05,44,319,43,19,41,081,46,21,33,356,25*7F,0
1778780791650299363,$GPGSV,3,2,12,17,28,112,47,24,22,224,28,14,10,143,29,30,07,108,36*7F,0
1778780791801539900,$GPGSV,3,3,12,11,08,010,18,44,42,284,47,13,60,133,,26,48,099,*7C,0
1778780791966550733,$GPRMC,174843.000,A,1205.8686,S,07701.4024,W,9.89,279.21,140526,,,A*6A,0
1778780792198829751,$GPGGA,174844.000,1205.8682,S,07701.4052,W,1,08,1.0,144.1,M,8.4,M,,0000*6C,0
1778780792324853696,$GPGSA,M,3,20,05,19,21,17,24,14,30,,,,,1.9,1.0,1.7*3B,0
1778780792489861084,$GPRMC,174844.000,A,1205.8682,S,07701.4052,W,9.79,277.33,140526,,,A*6A,0
1778780793198147362,$GPGGA,174845.000,1205.8679,S,07701.4082,W,1,08,1.0,143.8,M,8.4,M,,0000*6A,0
1778780793324175343,$GPGSA,M,3,20,05,19,21,17,24,14,30,,,,,1.9,1.0,1.7*3B,0
1778780793491472325,$GPRMC,174845.000,A,1205.8679,S,07701.4082,W,10.41,278.69,140526,,,A*51,0
1778780794201243139,$GPGGA,174846.000,1205.8675,S,07701.4111,W,1,09,0.9,143.5,M,8.4,M,,0000*6A,0
1778780794331897565,$GPGSA,M,3,20,05,19,21,17,24,14,11,30,,,,1.6,0.9,1.4*3F,0
1778780794499133954,$GPRMC,174846.000,A,1205.8675,S,07701.4111,W,10.19,278.55,140526,,,A*57,0
1778780795196815638,$GPGGA,174847.000,1205.8670,S,07701.4141,W,1,08,1.0,143.1,M,8.4,M,,0000*66,0
1778780795322839527,$GPGSA,M,3,20,05,19,21,17,24,14,30,,,,,1.9,1.0,1.7*3B,0
1778780795490118897,$GPRMC,174847.000,A,1205.8670,S,07701.4141,W,10.25,278.16,140526,,,A*5E,0
1778780796198015675,$GPGGA,174848.000,1205.8667,S,07701.4170,W,1,08,1.0,142.9,M,8.4,M,,0000*64,0
1778780796324042638,$GPGSA,M,3,20,05,19,21,17,24,14,30,,,,,1.9,1.0,1.7*3B,0
1778780796484458841,$GPGSV,3,1,12,20,66,168,45,05,44,319,43,19,41,081,46,21,33,356,40*7C,0
1778780796644875286,$GPGSV,3,2,12,17,28,112,47,24,22,224,39,14,10,143,27,30,07,108,34*73,0
1778780796796109804,$GPGSV,3,3,12,11,08,010,14,44,42,284,47,13,60,133,,26,48,099,*70,0
1778780796963404989,$GPRMC,174848.000,A,1205.8667,S,07701.4170,W,10.72,278.38,140526,,,A*5B,0
1778780797199223582,$GPGGA,174849.000,1205.8662,S,07701.4201,W,1,09,0.9,142.7,M,8.4,M,,0000*62,0
1778780797329857545,$GPGSA,M,3,20,05,19,21,17,24,14,11,30,,,,1.6,0.9,1.4*3F,0
1778780797497131044,$GPRMC,174849.000,A,1205.8662,S,07701.4201,W,10.74,278.33,140526,,,A*57,0
1778780798201053692,$GPGGA,174850.000,1205.8659,S,07701.4231,W,1,09,0.9,142.5,M,8.4,M,,0000*63,0
1778780798331669692,$GPGSA,M,3,20,05,19,21,17,24,14,11,30,,,,1.6,0.9,1.4*3F,0
1778780798498959488,$GPRMC,174850.000,A,1205.8659,S,07701.4231,W,10.14,278.79,140526,,,A*5C,0
1778780799200389747,$GPGGA,174851.000,1205.8655,S,07701.4259,W,1,09,0.9,142.3,M,8.4,M,,0000*66,0
1778780799330990080,$GPGSA,M,3,20,05,19,21,17,24,14,11,30,,,,1.6,0.9,1.4*3F,0
1778780799495993117,$GPRMC,174851.000,A,1205.8655,S,07701.4259,W,9.99,278.20,140526,,,A*6E,0
1778780800199510154,$GPGGA,174852.000,1205.8651,S,07701.4288,W,1,09,0.9,142.1,M,8.4,M,,0000*6F,0
1778780800330143783,$GPGSA,M,3,20,05,19,21,17,24,14,11,30,,,,1.6,0.9,1.4*3F,0
1778780800497411820,$GPRMC,174852.000,A,1205.8651,S,07701.4288,W,10.19,278.07,140526,,,A*50,0
1778780801204938190,$GPGGA,174853.000,1205.8646,S,07701.4315,W,1,09,0.9,142.3,M,8.4,M,,0000*6F,0
1778780801335519505,$GPGSA,M,3,20,05,19,21,17,24,14,11,30,,,,1.6,0.9,1.4*3F,0
1778780801495983468,$GPGSV,3,1,12,20,66,168,45,05,44,319,44,19,41,081,46,21,33,356,40*7B,0
1778780801656304172,$GPGSV,3,2,12,17,28,112,48,24,22,224,36,14,10,143,30,11,08,010,19*7E,0
1778780801812152097,$GPGSV,3,3,12,30,07,108,36,06,01,046,12,44,42,284,47,13,60,133,*7A,0
1778780801977135857,$GPRMC,174853.000,A,1205.8646,S,07701.4315,W,9.71,278.52,140526,,,A*64,0
1778780802196918579,$GPGGA,174854.000,1205.8643,S,07701.4341,W,1,09,0.9,142.2,M,8.4,M,,0000*6D,0
1778780802327526042,$GPGSA,M,3,20,05,19,21,17,24,14,11,30,,,,1.6,0.9,1.4*3F,0
1778780802492541893,$GPRMC,174854.000,A,1205.8643,S,07701.4341,W,9.15,277.93,140526,,,A*67,0
1778780803200408652,$GPGGA,174855.000,1205.8640,S,07701.4366,W,1,09,0.9,142.2,M,8.4,M,,0000*6A,0
1778780803331020282,$GPGSA,M,3,20,05,19,21,17,24,14,11,30,,,,1.6,0.9,1.4*3F,0
1778780803496028559,$GPRMC,174855.000,A,1205.8640,S,07701.4366,W,8.45,276.62,140526,,,A*6B,0
1778780804193691189,$GPGGA,174856.000,1205.8638,S,07701.4389,W,1,09,0.9,142.2,M,8.4,M,,0000*67,0
1778780804324303614,$GPGSA,M,3,20,05,19,21,17,24,14,11,30,,,,1.6,0.9,1.4*3F,0
1778780804489315633,$GPRMC,174856.000,A,1205.8638,S,07701.4389,W,8.14,276.88,140526,,,A*66,0
1778780805199906910,$GPGGA,174857.000,1205.8636,S,07701.4413,W,1,09,0.9,141.7,M,8.4,M,,0000*6A,0
1778780805330554855,$GPGSA,M,3,20,05,19,21,17,24,14,11,30,,,,1.6,0.9,1.4*3F,0
1778780805495583466,$GPRMC,174857.000,A,1205.8636,S,07701.4413,W,7.49,277.52,140526,,,A*6C,0
1778780806197772243,$GPGGA,174858.000,1205.8634,S,07701.4433,W,1,08,1.0,141.4,M,8.4,M,,0000*6F,0
1778780806323800650,$GPGSA,M,3,20,05,19,21,17,24,14,30,,,,,1.9,1.0,1.6*3A,0
1778780806484232354,$GPGSV,3,1,12,20,66,168,45,05,44,319,45,19,41,081,46,21,33,356,24*78,0
1778780806644631391,$GPGSV,3,2,12,17,28,112,47,24,22,224,41,14,10,143,30,30,07,108,29*76,0
1778780806791278039,$GPGSV,3,3,12,44,42,284,47,13,60,133,,26,48,099,,28,35,154,*70,0
1778780806956283946,$GPRMC,174858.000,A,1205.8634,S,07701.4433,W,5.62,277.20,140526,,,A*6D,0
1778780807196481983,$GPGGA,174859.000,1205.8632,S,07701.4446,W,1,08,1.0,141.4,M,8.4,M,,0000*6A,0
1778780807322506409,$GPGSA,M,3,20,05,19,21,17,24,14,30,,,,,1.9,1.0,1.6*3A,0
1778780807487513464,$GPRMC,174859.000,A,1205.8632,S,07701.4446,W,3.47,279.53,140526,,,A*63,0
1778780808192470520,$GPGGA,174900.000,1205.8630,S,07701.4453,W,1,08,1.0,141.3,M,8.4,M,,0000*66,0
1778780808318504168,$GPGSA,M,3,20,05,19,21,17,24,14,30,,,,,1.9,1.0,1.6*3A,0
1778780808483505890,$GPRMC,174900.000,A,1205.8630,S,07701.4453,W,1.57,280.20,140526,,,A*69,0
1778780809197434574,$GPGGA,174901.000,1205.8630,S,07701.4457,W,1,08,1.0,141.2,M,8.4,M,,0000*62,0
1778780809323457371,$GPGSA,M,3,20,05,19,21,17,24,14,30,,,,,1.9,1.0,1.6*3A,1
1778780809488461593,$GPRMC,174901.000,A,1205.8630,S,07701.4457,W,1.37,280.15,140526,,,A*6C,1
1778780810197592815,$GPGGA,174902.000,1205.8630,S,07701.4460,W,1,08,1.0,141.0,M,8.4,M,,0000*67,1
1778780810323614537,$GPGSA,M,3,20,05,19,21,17,24,14,30,,,,,1.9,1.0,1.6*3A,1
1778780810488625463,$GPRMC,174902.000,A,1205.8630,S,07701.4460,W,0.87,280.15,140526,,,A*61,1
1778780811202958777,$GPGGA,174903.000,1205.8631,S,07701.4461,W,1,08,1.0,140.8,M,8.4,M,,0000*6F,1
1778780811328998129,$GPGSA,M,3,20,05,19,21,17,24,14,30,,,,,1.9,1.0,1.6*3A,1
1778780811489408369,$GPGSV,3,1,12,20,66,168,45,05,44,319,44,19,41,081,46,21,33,356,38*74,1
1778780811649809999,$GPGSV,3,2,12,17,28,112,47,24,22,224,41,14,10,143,34,30,07,108,31*7B,1
1778780811796535462,$GPGSV,3,3,12,44,42,284,45,13,60,133,,26,48,099,,28,35,154,*72,1
1778780811961462314,$GPRMC,174903.000,A,1205.8631,S,07701.4461,W,0.28,280.15,140526,,,A*65,1
1778780812197716517,$GPGGA,174904.000,1205.8631,S,07701.4464,W,1,08,1.0,140.7,M,8.4,M,,0000*62,1
1778780812323739758,$GPGSA,M,3,20,05,19,21,17,24,14,30,,,,,1.9,1.0,1.6*3A,1
1778780812488758239,$GPRMC,174904.000,A,1205.8631,S,07701.4464,W,1.66,280.91,140526,,,A*60,1
1778780813197248220,$GPGGA,174905.000,1205.8629,S,07701.4474,W,1,08,1.0,140.7,M,8.4,M,,0000*6B,1
1778780813323278109,$GPGSA,M,3,20,05,19,21,17,24,14,30,,,,,1.9,1.0,1.6*3A,1
1778780813488272479,$GPRMC,174905.000,A,1205.8629,S,07701.4474,W,4.92,279.16,140526,,,A*6E,1
1778780814196590294,$GPGGA,174906.000,1205.8627,S,07701.4490,W,1,08,1.0,140.6,M,8.4,M,,0000*6D,1
1778780814322607053,$GPGSA,M,3,20,05,19,21,17,24,14,30,,,,,1.9,1.0,1.6*3A,1
1778780814487609849,$GPRMC,174906.000,A,1205.8627,S,07701.4490,W,6.39,280.06,140526,,,A*6D,1
1778780815194654219,$GPGGA,174907.000,1205.8624,S,07701.4508,W,1,08,1.0,140.4,M,8.4,M,,0000*6D,1
1778780815320693163,$GPGSA,M,3,20,05,19,21,17,24,14,30,,,,,1.9,1.0,1.6*3A,1
1778780815485687052,$GPRMC,174907.000,A,1205.8624,S,07701.4508,W,6.26,281.33,140526,,,A*66,1
1778780816198364496,$GPGGA,174908.000,1205.8618,S,07701.4524,W,1,08,1.0,140.2,M,8.4,M,,0000*65,1
1778780816324397311,$GPGSA,M,3,20,05,19,21,17,24,14,30,,,,,1.9,1.0,1.6*3A,1
1778780816484807107,$GPGSV,3,1,12,20,66,168,45,05,44,319,45,19,41,081,46,21,33,356,41*7B,1
1778780816645270033,$GPGSV,3,2,12,17,28,112,48,24,22,224,41,14,10,143,28,30,07,108,31*79,1
1778780816791869255,$GPGSV,3,3,12,44,42,284,36,13,60,133,,26,48,099,,28,35,154,*76,1
1778780816956874885,$GPRMC,174908.000,A,1205.8618,S,07701.4524,W,5.65,297.01,140526,,,A*6A,1
1778780817194156440,$GPGGA,174909.000,1205.8608,S,07701.4535,W,1,08,1.0,140.0,M,8.4,M,,0000*67,1
1778780817320190162,$GPGSA,M,3,20,05,19,21,17,24,14,30,,,,,1.9,1.0,1.6*3A,1
1778780817485188903,$GPRMC,174909.000,A,1205.8608,S,07701.4535,W,5.19,322.74,140526,,,A*6C,1
1778780818194517625,$GPGGA,174910.000,1205.8593,S,07701.4540,W,1,08,1.0,139.8,M,8.4,M,,0000*6A,1
1778780818320557662,$GPGSA,M,3,20,05,19,21,17,24,14,30,,,,,1.9,1.0,1.6*3A,1
1778780818485564847,$GPRMC,174910.000,A,1205.8593,S,07701.4540,W,5.95,342.39,140526,,,A*6C,1
1778780819196355161,$GPGGA,174911.000,1205.8575,S,07701.4537,W,1,08,1.0,139.6,M,8.4,M,,0000*6D,1
1778780819322399328,$GPGSA,M,3,20,05,19,21,17,24,14,30,,,,,1.9,1.0,1.6*3A,1
1778780819485095513,$GPRMC,174911.000,A,1205.8575,S,07701.4537,W,7.20,10.97,140526,,,A*59,1
1778780820192153290,$GPGGA,174912.000,1205.8556,S,07701.4530,W,1,08,1.0,139.5,M,8.4,M,,0000*6B,1
1778780820318184197,$GPGSA,M,3,20,05,19,21,17,24,14,30,,,,,1.9,1.0,1.6*3A,1
1778780820480885271,$GPRMC,174912.000,A,1205.8556,S,07701.4530,W,7.18,21.46,140526,,,A*59,1
1778780821193764271,$GPGGA,174913.000,1205.8536,S,07701.4522,W,1,08,1.0,139.8,M,8.4,M,,0000*62,1
1778780821319796160,$GPGSA,M,3,20,05,19,21,17,24,14,30,,,,,1.9,1.0,1.6*3A,1
1778780821480209438,$GPGSV,3,1,12,20,66,168,45,05,44,319,44,19,41,081,28,21,33,356,37*73,1
1778780821640621808,$GPGSV,3,2,12,17,28,112,33,24,22,224,27,14,10,143,29,30,07,108,26*72,1
1778780821791857771,$GPGSV,3,3,12,11,08,010,13,44,42,284,30,13,60,133,,26,48,099,*77,1
1778780821954559456,$GPRMC,174913.000,A,1205.8536,S,07701.4522,W,7.57,22.97,140526,,,A*59,1
1778780822193300919,$GPGGA,174914.000,1205.8516,S,07701.4514,W,1,08,1.0,140.1,M,8.4,M,,0000*65,1
1778780822319329956,$GPGSA,M,3,20,05,19,21,17,24,14,30,,,,,1.9,1.0,1.6*3A,1
1778780822482046659,$GPRMC,174914.000,A,1205.8516,S,07701.4514,W,8.11,20.16,140526,,,A*5F,1
1778780823192665418,$GPGGA,174915.000,1205.8493,S,07701.4510,W,1,08,1.0,140.4,M,8.4,M,,0000*69,1
1778780823318674529,$GPGSA,M,3,20,05,19,21,17,24,14,30,,,,,1.9,1.0,1.6*3A,1
1778780823481368399,$GPRMC,174915.000,A,1205.8493,S,07701.4510,W,8.23,14.47,140526,,,A*54,1
1778780824196135325,$GPGGA,174916.000,1205.8468,S,07701.4507,W,1,08,1.0,140.7,M,8.4,M,,0000*6B,1
1778780824322170084,$GPGSA,M,3,20,05,19,21,17,24,14,30,,,,,1.9,1.0,1.6*3A,1
1778780824484861843,$GPRMC,174916.000,A,1205.8468,S,07701.4507,W,8.34,10.51,140526,,,A*50,1
1778780825196930695,$GPGGA,174917.000,1205.8443,S,07701.4504,W,1,08,1.0,140.8,M,8.4,M,,0000*6F,1
1778780825322948232,$GPGSA,M,3,20,05,19,21,17,24,14,30,,,,,1.9,1.0,1.6*3A,1
1778780825485650805,$GPRMC,174917.000,A,1205.8443,S,07701.4504,W,8.76,10.11,140526,,,A*59,1
1778780826190830675,$GPGGA,174918.000,1205.8417,S,07701.4497,W,1,07,1.0,141.1,M,8.4,M,,0000*6D,1
1778780826312290435,$GPGSA,M,3,20,05,19,21,17,24,14,,,,,,2.2,1.0,1.9*3E,1
1778780826472804212,$GPGSV,3,1,12,20,66,168,45,05,44,319,43,19,41,081,39,21,33,356,41*75,1
1778780826633094101,$GPGSV,3,2,12,17,28,112,27,24,22,224,32,14,10,143,29,06,01,046,16*78,1
1778780826784337490,$GPGSV,3,3,12,30,07,108,12,44,42,284,40,13,60,133,,26,48,099,*75,1
1778780826947058768,$GPRMC,174918.000,A,1205.8417,S,07701.4497,W,9.45,16.06,140526,,,A*5D,1
1778780827198085730,$GPGGA,174919.000,1205.8390,S,07701.4487,W,1,08,1.0,141.7,M,8.4,M,,0000*6C,1
1778780827324122323,$GPGSA,M,3,20,05,19,21,17,24,14,30,,,,,1.9,1.0,1.6*3A,1
1778780827486822489,$GPRMC,174919.000,A,1205.8390,S,07701.4487,W,9.82,24.09,140526,,,A*50,1
1778780828193657434,$GPGGA,174920.000,1205.8364,S,07701.4474,W,1,07,1.0,141.8,M,8.4,M,,0000*61,1
1778780828315106952,$GPGSA,M,3,20,05,19,21,17,24,14,,,,,,2.2,1.0,1.9*3E,1
1778780828480111267,$GPRMC,174920.000,A,1205.8364,S,07701.4474,W,10.74,27.09,140526,,,A*6F,1
1778780829193614618,$GPGGA,174921.000,1205.8338,S,07701.4459,W,1,07,1.0,141.9,M,8.4,M,,0000*67,1
1778780829315055970,$GPGSA,M,3,20,05,19,21,17,24,14,,,,,,2.2,1.0,1.9*3E,1
1778780829480080155,$GPRMC,174921.000,A,1205.8338,S,07701.4459,W,10.18,26.13,140526,,,A*68,1
1778780830196072229,$GPGGA,174922.000,1205.8313,S,07701.4448,W,1,08,1.0,141.8,M,8.4,M,,0000*63,1
1778780830322102821,$GPGSA,M,3,20,05,19,21,17,24,14,30,,,,,1.9,1.0,1.6*3A,1
1778780830484803562,$GPRMC,174922.000,A,1205.8313,S,07701.4448,W,9.06,23.71,140526,,,A*54,1
1778780831198733191,$GPGGA,174923.000,1205.8291,S,07701.4438,W,1,08,1.0,141.8,M,8.4,M,,0000*6E,1
1778780831324764283,$GPGSA,M,3,20,05,19,21,17,24,14,30,,,,,1.9,1.0,1.6*3A,1
1778780831485173246,$GPGSV,3,1,12,20,66,168,44,05,44,319,42,19,41,081,43,21,33,356,27*78,1
1778780831645590598,$GPGSV,3,2,12,17,28,112,38,24,22,224,15,14,10,143,19,30,07,108,14*7A,1
1778780831796828654,$GPGSV,3,3,12,11,08,010,14,44,42,284,40,13,60,133,,26,48,099,*77,1
1778780831959576857,$GPRMC,174923.000,A,1205.8291,S,07701.4438,W,7.83,22.28,140526,,,A*57,1
1778780832194927746,$GPGGA,174924.000,1205.8273,S,07701.4430,W,1,07,1.0,141.9,M,8.4,M,,0000*63,1
1778780832316390505,$GPGSA,M,3,20,05,19,21,17,24,14,,,,,,2.2,1.0,1.9*3E,1
1778780832479091857,$GPRMC,174924.000,A,1205.8273,S,07701.4430,W,6.04,20.84,140526,,,A*5E,1
1778780833194761671,$GPGGA,174925.000,1205.8260,S,07701.4424,W,1,07,1.0,142.0,M,8.4,M,,0000*6F,1
1778780833316133282,$GPGSA,M,3,20,05,19,21,17,24,14,,,,,,2.2,1.0,1.9*3E,1
1778780833478842282,$GPRMC,174925.000,A,1205.8260,S,07701.4424,W,4.50,20.50,140526,,,A*52,1
1778780834198403467,$GPGGA,174926.000,1205.8249,S,07701.4420,W,1,08,0.9,142.1,M,8.4,M,,0000*65,1
1778780834324418634,$GPGSA,M,3,20,05,19,21,17,24,14,11,,,,,1.7,0.9,1.4*3D,1
1778780834487135615,$GPRMC,174926.000,A,1205.8249,S,07701.4420,W,3.44,21.78,140526,,,A*57,1
1778780835192726726,$GPGGA,174927.000,1205.8241,S,07701.4417,W,1,08,0.9,142.2,M,8.4,M,,0000*6B,1
1778780835318807818,$GPGSA,M,3,20,05,19,21,17,24,14,11,,,,,1.7,0.9,1.4*3D,1
1778780835481479337,$GPRMC,174927.000,A,1205.8241,S,07701.4417,W,2.71,22.49,140526,,,A*5C,1
1778780836198084003,$GPGGA,174928.000,1205.8233,S,07701.4413,W,1,08,0.9,142.3,M,8.4,M,,0000*64,1
1778780836324123281,$GPGSA,M,3,20,05,19,21,17,24,14,11,,,,,1.7,0.9,1.4*3D,1
1778780836484545447,$GPGSV,3,1,12,20,66,168,42,05,44,319,41,19,41,081,40,21,33,356,23*7A,1
1778780836644948021,$GPGSV,3,2,12,17,28,112,24,24,22,224,18,14,10,143,27,11,08,010,20*74,1
1778780836800780243,$GPGSV,3,3,12,06,01,046,11,30,07,108,05,44,42,284,37,13,60,133,*7E,1
1778780836963474354,$GPRMC,174928.000,A,1205.8233,S,07701.4413,W,3.71,23.54,140526,,,A*5E,1
1778780837200412761,$GPGGA,174929.000,1205.8222,S,07701.4407,W,1,08,0.9,142.4,M,8.4,M,,0000*67,1
1778780837326375891,$GPGSA,M,3,20,05,19,21,17,24,14,11,,,,,1.7,0.9,1.4*3D,1
1778780837489071521,$GPRMC,174929.000,A,1205.8222,S,07701.4407,W,4.75,26.70,140526,,,A*5A,1
1778780838198837039,$GPGGA,174930.000,1205.8211,S,07701.4399,W,1,08,0.9,142.5,M,8.4,M,,0000*6E,1
1778780838324870631,$GPGSA,M,3,20,05,19,21,17,24,14,11,,,,,1.7,0.9,1.4*3D,1
1778780838487616594,$GPRMC,174930.000,A,1205.8211,S,07701.4399,W,5.39,39.22,140526,,,A*52,1
1778780839198793890,$GPGGA,174931.000,1205.8201,S,07701.4384,W,1,08,0.9,143.0,M,8.4,M,,0000*66,1
1778780839324827112,$GPGSA,M,3,20,05,19,21,17,24,14,11,,,,,1.7,0.9,1.4*3D,1
1778780839487527519,$GPRMC,174931.000,A,1205.8201,S,07701.4384,W,6.73,60.04,140526,,,A*5B,1
1778780840198128000,$GPGGA,174932.000,1205.8195,S,07701.4362,W,1,08,0.9,143.7,M,8.4,M,,0000*64,1
1778780840324156963,$GPGSA,M,3,20,05,19,21,17,24,14,11,,,,,1.7,0.9,1.4*3D,1
1778780840486866148,$GPRMC,174932.000,A,1205.8195,S,07701.4362,W,8.67,80.70,140526,,,A*58,1
1778780841193288055,$GPGGA,174933.000,1205.8195,S,07701.4334,W,1,06,1.1,143.8,M,8.4,M,,0000*6E,1
1778780841310155370,$GPGSA,M,3,20,05,19,21,24,14,,,,,,,2.2,1.1,1.9*39,1
1778780841470559481,$GPGSV,3,1,12,20,66,168,39,05,44,319,34,19,41,081,41,21,33,356,23*75,1
1778780841631028685,$GPGSV,3,2,12,24,22,224,23,14,10,143,26,11,08,010,10,30,07,108,05*7E,1
1778780841777655740,$GPGSV,3,3,12,44,42,284,42,13,60,133,,26,48,099,,28,35,154,*75,1
1778780841942621370,$GPRMC,174933.000,A,1205.8195,S,07701.4334,W,10.47,88.85,140526,,,A*63,1
1778780842195120536,$GPGGA,174934.000,1205.8197,S,07701.4301,W,1,07,1.0,143.9,M,8.4,M,,0000*6C,1
1778780842316558795,$GPGSA,M,3,20,05,19,21,24,14,11,,,,,,1.8,1.0,1.4*3C,1
1778780842481560944,$GPRMC,174934.000,A,1205.8197,S,07701.4301,W,11.69,92.73,140526,,,A*6F,1
1778780843194657165,$GPGGA,174935.000,1205.8200,S,07701.4263,W,1,07,1.0,144.1,M,8.4,M,,0000*6A,1
1778780843316099906,$GPGSA,M,3,20,05,19,21,24,14,11,,,,,,1.8,1.0,1.4*3C,1
1778780843481102850,$GPRMC,174935.000,A,1205.8200,S,07701.4263,W,13.35,97.23,140526,,,A*6D,1
1778780844186292813,$GPGGA,174936.000,1205.8205,S,07701.4220,W,1,06,1.1,144.6,M,8.4,M,,0000*6C,1
1778780844303148776,$GPGSA,M,3,20,05,19,21,24,14,,,,,,,2.2,1.1,1.9*39,1
1778780844468144387,$GPRMC,174936.000,A,1205.8205,S,07701.4220,W,14.88,97.06,140526,,,A*6A,1
1778780845193733701,$GPGGA,174937.000,1205.8214,S,07701.4176,W,1,06,1.1,144.8,M,8.4,M,,0000*63,1
1778780845310599479,$GPGSA,M,3,20,05,19,21,24,14,,,,,,,2.2,1.1,1.9*39,1
1778780845475616757,$GPRMC,174937.000,A,1205.8214,S,07701.4176,W,15.70,96.72,140526,,,A*6F,1
1778780846191199664,$GPGGA,174938.000,1205.8224,S,07701.4128,W,1,07,1.0,145.0,M,8.4,M,,0000*6D,1
1778780846312629867,$GPGSA,M,3,20,05,19,21,17,24,14,,,,,,2.2,1.0,1.9*3E,1
1778780846473044163,$GPGSV,3,1,12,20,66,168,39,05,44,319,22,19,41,081,40,21,33,356,41*77,1
1778780846633460274,$GPGSV,3,2,12,17,28,112,19,24,22,224,28,14,10,143,19,30,07,108,05*77,1
1778780846780106608,$GPGSV,3,3,12,44,42,284,44,13,60,133,,26,48,099,,28,35,154,*73,1
1778780846945105404,$GPRMC,174938.000,A,1205.8224,S,07701.4128,W,16.22,96.86,140526,,,A*67,1
1778780847191976496,$GPGGA,174939.000,1205.8233,S,07701.4080,W,1,06,1.1,145.4,M,8.4,M,,0000*6D,1
1778780847308889663,$GPGSA,M,3,20,05,19,21,24,14,,,,,,,2.2,1.1,1.9*39,1
1778780847473909237,$GPRMC,174939.000,A,1205.8233,S,07701.4080,W,16.38,97.07,140526,,,A*60,1
1778780848193386273,$GPGGA,174940.000,1205.8238,S,07701.4032,W,1,07,1.0,145.6,M,8.4,M,,0000*63,1
1778780848314833977,$GPGSA,M,3,20,05,19,21,17,24,14,,,,,,2.2,1.0,1.9*3E,1
1778780848479833144,$GPRMC,174940.000,A,1205.8238,S,07701.4032,W,16.63,96.29,140526,,,A*6F,1
1778780849192503199,$GPGGA,174941.000,1205.8241,S,07701.3983,W,1,07,1.0,145.9,M,8.4,M,,0000*67,1
1778780849313964884,$GPGSA,M,3,20,05,19,21,17,24,14,,,,,,2.2,1.0,1.9*3E,1
1778780849478957680,$GPRMC,174941.000,A,1205.8241,S,07701.3983,W,16.82,95.93,140526,,,A*69,1
1778780850194133494,$GPGGA,174942.000,1205.8246,S,07701.3935,W,1,07,1.0,146.2,M,8.4,M,,0000*66,1
1778780850315581124,$GPGSA,M,3,20,05,19,21,17,24,14,,,,,,2.1,1.0,1.9*3D,1
1778780850480585717,$GPRMC,174942.000,A,1205.8246,S,07701.3935,W,16.83,96.36,140526,,,A*6D,1
1778780851198872957,$GPGGA,174943.000,1205.8251,S,07701.3886,W,1,08,0.9,146.5,M,8.4,M,,0000*68,1
1778780851324915809,$GPGSA,M,3,20,05,19,21,17,24,14,11,,,,,1.7,0.9,1.4*3D,1
1778780851485321734,$GPGSV,3,1,12,20,66,168,39,05,44,319,44,19,41,081,41,21,33,356,39*79,1
1778780851645730475,$GPGSV,3,2,12,17,28,112,21,24,22,224,34,14,10,143,17,11,08,010,25*79,1
1778780851796976049,$GPGSV,3,3,12,30,07,108,07,44,42,284,44,13,60,133,,26,48,099,*75,1
1778780851961965845,$GPRMC,174943.000,A,1205.8251,S,07701.3886,W,16.56,95.23,140526,,,A*6C,1
1778780852194037049,$GPGGA,174944.000,1205.8255,S,07701.3839,W,1,09,0.9,146.7,M,8.4,M,,0000*6C,1
1778780852324656660,$GPGSA,M,3,20,05,19,21,17,24,14,11,30,,,,1.6,0.9,1.4*3F,1
1778780852489667956,$GPRMC,174944.000,A,1205.8255,S,07701.3839,W,16.03,93.68,140526,,,A*62,1
1778780853200661085,$GPGGA,174945.000,1205.8257,S,07701.3792,W,1,09,0.9,147.0,M,8.4,M,,0000*67,1
1778780853331272363,$GPGSA,M,3,20,05,19,21,17,24,14,11,30,,,,1.6,0.9,1.4*3F,1
1778780853496275900,$GPRMC,174945.000,A,1205.8257,S,07701.3792,W,16.11,93.20,140526,,,A*60,1
1778780854200613103,$GPGGA,174946.000,1205.8262,S,07701.3745,W,1,09,0.9,147.2,M,8.4,M,,0000*6A,1
1778780854331233825,$GPGSA,M,3,20,05,19,21,17,24,14,11,30,,,,1.6,0.9,1.4*3F,1
1778780854496241418,$GPRMC,174946.000,A,1205.8262,S,07701.3745,W,16.34,97.08,140526,,,A*66,1
1778780855199953084,$GPGGA,174947.000,1205.8270,S,07701.3697,W,1,09,0.9,147.2,M,8.4,M,,0000*66,1
1778780855330562491,$GPGSA,M,3,20,05,19,21,17,24,14,11,30,,,,1.6,0.9,1.4*3F,1
1778780855495557362,$GPRMC,174947.000,A,1205.8270,S,07701.3697,W,16.97,99.82,140526,,,A*6F,1
1778780856195940380,$GPGGA,174948.000,1205.8276,S,07701.3645,W,1,09,0.9,148.2,M,8.4,M,,0000*6F,1
1778780856326556861,$GPGSA,M,3,20,05,19,21,17,24,14,11,30,,,,1.6,0.9,1.4*3F,1
1778780856486966546,$GPGSV,3,1,12,20,66,168,42,05,44,319,42,19,41,081,41,21,33,356,27*7C,1
1778780856647380028,$GPGSV,3,2,12,17,28,112,35,24,22,224,33,14,10,143,16,11,08,010,21*7E,1
1778780856798618379,$GPGSV,3,3,12,30,07,108,10,44,42,284,44,13,60,133,,26,48,099,*73,1
1778780856965907620,$GPRMC,174948.000,A,1205.8276,S,07701.3645,W,17.50,101.35,140526,,,A*5F,1
1778780857198806972,$GPGGA,174949.000,1205.8292,S,07701.3597,W,1,08,0.9,148.4,M,8.4,M,,0000*6F,1
1778780857324859120,$GPGSA,M,3,20,05,19,21,17,24,14,11,,,,,1.7,0.9,1.4*3D,1
1778780857492135268,$GPRMC,174949.000,A,1205.8292,S,07701.3597,W,17.90,100.90,140526,,,A*5A,1
1778780858193582934,$GPGGA,174950.000,1205.8303,S,07701.3546,W,1,08,0.9,148.4,M,8.4,M,,0000*62,1
1778780858319601064,$GPGSA,M,3,20,05,19,21,17,24,14,11,,,,,1.7,0.9,1.4*3D,1
1778780858486892397,$GPRMC,174950.000,A,1205.8303,S,07701.3546,W,17.83,101.14,140526,,,A*58,1
1778780859198730248,$GPGGA,174951.000,1205.8314,S,07701.3497,W,1,08,0.9,148.5,M,8.4,M,,0000*69,1
1778780859324756693,$GPGSA,M,3,20,05,19,21,17,24,14,11,,,,,1.7,0.9,1.4*3D,1
1778780859492046230,$GPRMC,174951.000,A,1205.8314,S,07701.3497,W,17.73,101.98,140526,,,A*59,1
1778780860198471896,$GPGGA,174952.000,1205.8327,S,07701.3448,W,1,08,0.9,149.0,M,8.4,M,,0000*6C,1
1778780860324502303,$GPGSA,M,3,20,05,19,21,17,24,14,11,,,,,1.7,0.9,1.4*3D,1
1778780860489505433,$GPRMC,174952.000,A,1205.8327,S,07701.3448,W,17.49,98.39,140526,,,A*6B,1
1778780861195306821,$GPGGA,174953.000,1205.8333,S,07701.3397,W,1,07,1.0,150.0,M,8.4,M,,0000*62,1
1778780861316757136,$GPGSA,M,3,20,05,19,21,17,24,14,,,,,,2.1,1.0,1.9*3D,1
1778780861477173154,$GPGSV,3,1,12,20,66,168,40,05,44,319,44,19,41,081,42,21,33,356,30*7D,1
1778780861637572043,$GPGSV,3,2,12,17,28,112,25,24,22,224,23,14,10,143,18,11,08,010,14*76,1
1778780861788815339,$GPGSV,3,3,12,30,07,108,12,44,42,284,47,13,60,133,,26,48,099,*72,1
1778780861953805969,$GPRMC,174953.000,A,1205.8333,S,07701.3397,W,17.75,96.94,140526,,,A*6C,1
1778780862195669913,$GPGGA,174954.000,1205.8338,S,07701.3345,W,1,07,1.0,150.5,M,8.4,M,,0000*64,1
1778780862317151154,$GPGSA,M,3,20,05,19,21,17,24,14,,,,,,2.1,1.0,1.9*3D,1
1778780862482184080,$GPRMC,174954.000,A,1205.8338,S,07701.3345,W,18.07,95.16,140526,,,A*6C,1
1778780863191669265,$GPGGA,174955.000,1205.8340,S,07701.3293,W,1,07,1.0,151.0,M,8.4,M,,0000*64,1
1778780863313122876,$GPGSA,M,3,20,05,19,21,17,24,14,,,,,,2.1,1.0,1.9*3D,1
1778780863478122024,$GPRMC,174955.000,A,1205.8340,S,07701.3293,W,17.95,92.26,140526,,,A*68,1
1778780864192050708,$GPGGA,174956.000,1205.8338,S,07701.3241,W,1,08,0.9,154.1,M,8.4,M,,0000*64,1
1778780864318072486,$GPGSA,M,3,20,05,19,21,17,24,14,11,,,,,1.7,0.9,1.4*3D,1
1778780864483073356,$GPRMC,174956.000,A,1205.8338,S,07701.3241,W,16.57,95.36,140526,,,A*62,1
1778780865194580374,$GPGGA,174957.000,1205.8342,S,07701.3195,W,1,07,1.0,155.7,M,8.4,M,,0000*62,1
1778780865315955430,$GPGSA,M,3,20,05,19,21,24,14,11,,,,,,1.8,1.0,1.4*3C,1
1778780865480945411,$GPRMC,174957.000,A,1205.8342,S,07701.3195,W,15.66,95.97,140526,,,A*6E,1
1778780866191752707,$GPGGA,174958.000,1205.8350,S,07701.3155,W,1,06,1.1,156.3,M,8.4,M,,0000*65,1
1778780866308620559,$GPGSA,M,3,20,05,19,21,24,14,,,,,,,2.2,1.1,1.9*39,1
1778780866469035188,$GPGSV,3,1,12,20,66,168,38,05,44,319,45,19,41,081,43,21,33,356,29*7A,1
1778780866624862855,$GPGSV,3,2,12,24,22,224,18,14,10,143,28,44,42,284,44,13,60,133,*75,1
1778780866766942170,$GPGSV,3,3,12,26,48,099,,28,35,154,,17,28,112,,23,20,052,*74,1
1778780866931915355,$GPRMC,174958.000,A,1205.8350,S,07701.3155,W,13.88,97.83,140526,,,A*6F,1
1778780867194610170,$GPGGA,174959.000,1205.8353,S,07701.3118,W,1,07,1.0,157.0,M,8.4,M,,0000*6C,1
1778780867316066188,$GPGSA,M,3,20,05,19,21,17,24,14,,,,,,2.1,1.0,1.9*3D,1
1778780867481068262,$GPRMC,174959.000,A,1205.8353,S,07701.3118,W,12.36,97.28,140526,,,A*61,1
1778780868194387299,$GPGGA,175000.000,1205.8354,S,07701.3083,W,1,07,1.0,157.9,M,8.4,M,,0000*65,1
1778780868315815391,$GPGSA,M,3,20,05,19,21,17,24,14,,,,,,2.1,1.0,1.9*3D,1
1778780868480831984,$GPRMC,175000.000,A,1205.8354,S,07701.3083,W,12.06,96.77,140526,,,A*69,1
1778780869195786983,$GPGGA,175001.000,1205.8356,S,07701.3048,W,1,08,0.9,158.2,M,8.4,M,,0000*62,1
1778780869321826187,$GPGSA,M,3,20,05,19,21,17,24,14,11,,,,,1.7,0.9,1.4*3D,1
1778780869486815742,$GPRMC,175001.000,A,1205.8356,S,07701.3048,W,12.67,96.63,140526,,,A*6F,1
1778780870193647075,$GPGGA,175002.000,1205.8360,S,07701.3014,W,1,07,1.0,158.4,M,8.4,M,,0000*6C,1
1778780870315096075,$GPGSA,M,3,20,05,19,21,24,14,11,,,,,,1.8,1.0,1.4*3C,1
1778780870480117575,$GPRMC,175002.000,A,1205.8360,S,07701.3014,W,11.96,97.16,140526,,,A*6E,1
1778780871196936556,$GPGGA,175003.000,1205.8369,S,07701.2984,W,1,07,1.0,159.2,M,8.4,M,,0000*62,1
1778780871318393741,$GPGSA,M,3,20,05,19,21,24,14,11,,,,,,1.8,1.0,1.4*3C,1
1778780871478803815,$GPGSV,3,1,12,20,66,168,29,05,44,319,45,19,41,081,40,21,33,356,42*74,1
1778780871639204982,$GPGSV,3,2,12,24,22,224,28,14,10,143,20,11,08,010,20,17,28,112,23*77,1
1778780871790449130,$GPGSV,3,3,12,30,07,108,16,44,42,284,43,13,60,133,,26,48,099,*72,1
1778780871955461296,$GPRMC,175003.000,A,1205.8369,S,07701.2984,W,11.58,97.61,140526,,,A*65,1
1778780872198554667,$GPGGA,175004.000,1205.8373,S,07701.2952,W,1,08,0.9,160.1,M,8.4,M,,0000*6B,1
1778780872324649352,$GPGSA,M,3,20,05,19,21,24,14,11,30,,,,,1.6,0.9,1.4*39,1
1778780872489683074,$GPRMC,175004.000,A,1205.8373,S,07701.2952,W,10.90,97.84,140526,,,A*6C,1
1778780873191429296,$GPGGA,175005.000,1205.8375,S,07701.2921,W,1,08,0.9,161.2,M,8.4,M,,0000*6A,1
1778780873317459777,$GPGSA,M,3,20,05,19,21,24,14,11,30,,,,,1.6,0.9,1.4*39,1
1778780873482465573,$GPRMC,175005.000,A,1205.8375,S,07701.2921,W,10.47,96.43,140526,,,A*6F,1
1778780874192444684,$GPGGA,175006.000,1205.8373,S,07701.2891,W,1,08,0.9,162.5,M,8.4,M,,0000*61,1
1778780874318457073,$GPGSA,M,3,20,05,19,21,24,14,11,30,,,,,1.6,0.9,1.4*39,1
1778780874481181776,$GPRMC,175006.000,A,1205.8373,S,07701.2891,W,9.45,93.26,140526,,,A*5C,1
1778780875200930498,$GPGGA,175007.000,1205.8367,S,07701.2863,W,1,08,0.9,164.4,M,8.4,M,,0000*6F,1
1778780875326979942,$GPGSA,M,3,20,05,19,21,24,14,11,30,,,,,1.6,0.9,1.4*39,1
1778780875489661257,$GPRMC,175007.000,A,1205.8367,S,07701.2863,W,8.20,92.25,140526,,,A*55,1
1778780876200886497,$GPGGA,175008.000,1205.8369,S,07701.2840,W,1,09,0.9,166.4,M,8.4,M,,0000*6C,1
1778780876331502664,$GPGSA,M,3,20,05,19,21,17,24,14,11,30,,,,1.6,0.9,1.4*3F,1
1778780876491918127,$GPGSV,3,1,12,20,66,168,21,05,44,319,45,19,41,081,45,21,33,356,34*78,1
1778780876652325664,$GPGSV,3,2,12,17,28,112,22,24,22,224,31,14,10,143,28,11,08,010,29*7F,1
1778780876803571442,$GPGSV,3,3,12,30,07,108,18,44,42,284,45,13,60,133,,26,48,099,*7A,1
1778780876966255886,$GPRMC,175008.000,A,1205.8369,S,07701.2840,W,8.56,92.65,140526,,,A*50,1
1778780877200208552,$GPGGA,175009.000,1205.8369,S,07701.2815,W,1,09,0.9,168.5,M,8.4,M,,0000*62,1
1778780877330821886,$GPGSA,M,3,20,05,19,21,17,24,14,11,30,,,,1.6,0.9,1.4*3F,1
1778780877493547663,$GPRMC,175009.000,A,1205.8369,S,07701.2815,W,9.29,97.15,140526,,,A*5A,1
1778780878200790163,$GPGGA,175010.000,1205.8372,S,07701.2790,W,1,09,0.9,169.3,M,8.4,M,,0000*65,1
1778780878331433700,$GPGSA,M,3,20,05,19,21,17,24,14,11,30,,,,1.6,0.9,1.4*3F,1
1778780878494118959,$GPRMC,175010.000,A,1205.8372,S,07701.2790,W,9.02,99.11,140526,,,A*59,1
1778780879200738959,$GPGGA,175011.000,1205.8377,S,07701.2762,W,1,09,0.9,170.2,M,8.4,M,,0000*65,1
1778780879331359625,$GPGSA,M,3,20,05,19,21,17,24,14,11,30,,,,1.6,0.9,1.4*3F,1
1778780879496369996,$GPRMC,175011.000,A,1205.8377,S,07701.2762,W,9.68,101.97,140526,,,A*62,1
1778780880195486828,$GPGGA,175012.000,1205.8384,S,07701.2737,W,1,09,0.9,170.8,M,8.4,M,,0000*60,1
1778780880326115088,$GPGSA,M,3,20,05,19,21,17,24,14,11,30,,,,1.6,0.9,1.4*3F,1
1778780880491121865,$GPRMC,175012.000,A,1205.8384,S,07701.2737,W,8.84,103.17,140526,,,A*64,1
1778780881200450346,$GPGGA,175013.000,1205.8393,S,07701.2720,W,1,09,0.9,171.5,M,8.4,M,,0000*6D,1
1778780881331072217,$GPGSA,M,3,20,05,19,21,17,24,14,11,30,,,,1.6,0.9,1.4*3F,1
1778780881491475013,$GPGSV,3,1,12,20,66,168,42,05,44,319,41,19,41,081,42,21,33,356,38*72,1
