Unix_time,GPS_data,flagStop
1777415977309382483,$GPGGA,223937.000,1206.2549,S,07701.1925,W,1,04,1.8,140.0,M,8.3,M,,0000*6F,0
1777416007065957854,$GPGSA,M,3,24,29,12,15,,,,,,,,,3.0,1.8,2.3*3F,0
1777416007066430924,$GPGSV,3,1,12,24,64,081,25,29,61,290,37,12,33,162,28,15,20,005,19*76,0
1777416007067127947,$GPGSV,3,2,12,11,25,112,04,51,52,289,,14,54,272,,09,36,250,*72,0
1777416007067777813,$GPGSV,3,3,12,04,09,339,,20,03,323,,05,02,044,,10,01,300,*79,0
1777416007068376246,$GPRMC,223937.000,A,1206.2549,S,07701.1925,W,0.47,6.56,280426,,,A*62,0
1777416007069050052,$GPGGA,223938.000,1206.2546,S,07701.1920,W,1,05,1.6,140.3,M,8.3,M,,0000*66,0
1777416007069781883,$GPGSA,M,3,24,29,12,11,15,,,,,,,,2.8,1.6,2.3*38,0
1777416007070252582,$GPRMC,223938.000,A,1206.2546,S,07701.1920,W,0.13,6.56,280426,,,A*66,0
1777416007070923759,$GPGGA,223939.000,1206.2546,S,07701.1920,W,1,05,1.6,140.4,M,8.3,M,,0000*60,0
1777416007071664347,$GPGSA,M,3,24,29,12,11,15,,,,,,,,2.8,1.6,2.3*38,0
1777416007072136028,$GPRMC,223939.000,A,1206.2546,S,07701.1920,W,0.32,6.56,280426,,,A*64,0
1777416007072806761,$GPGGA,223940.000,1206.2547,S,07701.1922,W,1,05,1.6,140.6,M,8.3,M,,0000*6F,0
1777416007073536370,$GPGSA,M,3,24,29,12,11,15,,,,,,,,2.8,1.6,2.3*38,0
1777416007074007217,$GPRMC,223940.000,A,1206.2547,S,07701.1922,W,0.12,6.56,280426,,,A*6B,0
1777416007074671507,$GPGGA,223941.000,1206.2547,S,07701.1921,W,1,05,1.6,140.9,M,8.3,M,,0000*62,0
1777416007075393599,$GPGSA,M,3,24,29,12,11,15,,,,,,,,2.8,1.6,2.3*38,0
1777416007075852282,$GPRMC,223941.000,A,1206.2547,S,07701.1921,W,0.17,6.56,280426,,,A*6C,0
1777416007076507277,$GPGGA,223942.000,1206.2548,S,07701.1923,W,1,05,1.6,141.0,M,8.3,M,,0000*64,0
1777416007077213928,$GPGSA,M,3,24,29,12,11,15,,,,,,,,2.8,1.6,2.3*38,0
1777416007077673075,$GPGSV,3,1,12,24,64,081,23,29,61,290,37,12,33,162,28,11,25,112,16*79,0
1777416007078326811,$GPGSV,3,2,12,15,20,005,20,51,52,289,,14,54,272,,09,36,250,*72,0
1777416007078923484,$GPGSV,3,3,12,04,09,339,,20,03,323,,05,02,044,,10,01,300,*79,0
1777416007079508234,$GPRMC,223942.000,A,1206.2548,S,07701.1923,W,0.80,6.56,280426,,,A*6C,0
1777416007080158008,$GPGGA,223943.000,1206.2548,S,07701.1925,W,1,05,1.6,141.2,M,8.3,M,,0000*61,0
1777416007080864159,$GPGSA,M,3,24,29,12,11,15,,,,,,,,2.8,1.6,2.3*38,0
1777416007081319121,$GPRMC,223943.000,A,1206.2548,S,07701.1925,W,0.28,6.56,280426,,,A*69,0
1777416007081968154,$GPGGA,223944.000,1206.2549,S,07701.1926,W,1,05,1.6,141.2,M,8.3,M,,0000*64,0
1777416007082533853,$GPGSA,M,3,24,29,12,11,15,,,,,,,,2.8,1.6,2.3*38,0
1777416007082625871,$GPRMC,223944.000,A,1206.2549,S,07701.1926,W,0.10,6.56,280426,,,A*67,0
1777416007082756215,$GPGGA,223945.000,1206.2548,S,07701.1926,W,1,05,1.6,141.3,M,8.3,M,,0000*65,0
1777416007082898852,$GPGSA,M,3,24,29,12,11,15,,,,,,,,2.8,1.6,2.3*38,0
1777416007082991000,$GPRMC,223945.000,A,1206.2548,S,07701.1926,W,0.38,6.56,280426,,,A*6D,0
1777416007083122324,$GPGGA,223946.000,1206.2547,S,07701.1925,W,1,05,1.6,141.4,M,8.3,M,,0000*6D,0
1777416007083277163,$GPGSA,M,3,24,29,12,11,15,,,,,,,,2.8,1.6,2.3*38,0
1777416007083378587,$GPRMC,223946.000,A,1206.2547,S,07701.1925,W,0.65,6.56,280426,,,A*6A,0
1777416007083526038,$GPGGA,223947.000,1206.2546,S,07701.1924,W,1,05,1.6,141.7,M,8.3,M,,0000*6F,0
1777416007083706075,$GPGSA,M,3,24,29,12,11,15,,,,,,,,2.8,1.6,2.3*38,0
1777416007083825235,$GPGSV,3,1,12,24,64,081,19,29,61,290,37,12,33,162,28,11,25,112,18*7E,0
1777416007083992072,$GPGSV,3,2,12,15,20,005,20,48,33,280,,14,54,272,,09,36,250,*74,0
1777416007084143744,$GPGSV,3,3,12,04,09,339,,20,03,323,,05,02,044,,10,01,300,*79,0
1777416007084290825,$GPRMC,223947.000,A,1206.2546,S,07701.1924,W,0.95,6.56,280426,,,A*64,0
1777416007084456050,$GPGGA,223948.000,1206.2545,S,07701.1922,W,1,05,1.6,141.9,M,8.3,M,,0000*6B,0
1777416007084635791,$GPGSA,M,3,24,29,12,11,15,,,,,,,,2.8,1.6,2.3*38,0
1777416007084751675,$GPRMC,223948.000,A,1206.2545,S,07701.1922,W,0.80,6.56,280426,,,A*6A,0
1777416007084917603,$GPGGA,223949.000,1206.2544,S,07701.1921,W,1,05,1.6,142.1,M,8.3,M,,0000*63,0
1777416007085060148,$GPGSA,M,3,24,29,12,11,15,,,,,,,,2.8,1.6,2.3*38,0
1777416007085150704,$GPRMC,223949.000,A,1206.2544,S,07701.1921,W,0.36,6.56,280426,,,A*64,0
1777416007085361123,$GPGGA,223950.000,1206.2544,S,07701.1921,W,1,05,1.6,142.2,M,8.3,M,,0000*68,0
1777416007085501391,$GPGSA,M,3,24,29,12,11,15,,,,,,,,2.8,1.6,2.3*38,0
1777416007085591391,$GPRMC,223950.000,A,1206.2544,S,07701.1921,W,0.21,6.56,280426,,,A*6A,0
1777416007085719864,$GPGGA,223951.000,1206.2545,S,07701.1921,W,1,05,1.6,142.5,M,8.3,M,,0000*6F,0
1777416007085858632,$GPGSA,M,3,24,29,12,11,15,,,,,,,,2.8,1.6,2.3*38,0
1777416007085948280,$GPRMC,223951.000,A,1206.2545,S,07701.1921,W,0.09,6.56,280426,,,A*60,0
1777416007086076291,$GPGGA,223952.000,1206.2545,S,07701.1921,W,1,05,1.6,142.7,M,8.3,M,,0000*6E,0
1777416007086215281,$GPGSA,M,3,24,29,12,11,15,,,,,,,,2.8,1.6,2.3*38,0
1777416007086305263,$GPGSV,3,1,12,24,64,081,18,29,61,290,37,12,33,162,28,11,25,112,19*7E,0
1777416007086432977,$GPGSV,3,2,12,15,20,005,20,48,33,280,,14,54,272,,09,36,250,*74,0
1777416007086550046,$GPGSV,3,3,12,04,09,339,,20,03,323,,05,02,044,,10,01,300,*79,0
1777416007086663300,$GPRMC,223952.000,A,1206.2545,S,07701.1921,W,0.17,6.56,280426,,,A*6C,0
1777416007086791015,$GPGGA,223953.000,1206.2543,S,07701.1919,W,1,05,1.6,142.8,M,8.3,M,,0000*6D,0
1777416007086929819,$GPGSA,M,3,24,29,12,11,15,,,,,,,,2.8,1.6,2.3*38,0
1777416007087019782,$GPRMC,223953.000,A,1206.2543,S,07701.1919,W,0.25,6.56,280426,,,A*61,0
1777416007087147534,$GPGGA,223954.000,1206.2542,S,07701.1918,W,1,05,1.6,143.0,M,8.3,M,,0000*63,0
1777416007087306186,$GPGSA,M,3,24,29,12,11,15,,,,,,,,2.8,1.6,2.3*38,0
1777416007087397001,$GPRMC,223954.000,A,1206.2542,S,07701.1918,W,0.22,6.56,280426,,,A*61,0
1777416007087525993,$GPGGA,223955.000,1206.2542,S,07701.1918,W,1,05,1.6,143.3,M,8.3,M,,0000*61,0
1777416007087666205,$GPGSA,M,3,24,29,12,11,15,,,,,,,,2.8,1.6,2.3*38,0
1777416007087756427,$GPRMC,223955.000,A,1206.2542,S,07701.1918,W,0.29,6.56,280426,,,A*6B,0
1777416007087885549,$GPGGA,223956.000,1206.2543,S,07701.1918,W,1,05,1.6,143.7,M,8.3,M,,0000*67,0
1777416007088024890,$GPGSA,M,3,24,29,12,11,15,,,,,,,,2.8,1.6,2.3*38,0
1777416007088115372,$GPRMC,223956.000,A,1206.2543,S,07701.1918,W,0.74,6.56,280426,,,A*61,0
1777416007088243882,$GPGGA,223957.000,1206.2545,S,07701.1920,W,1,05,1.6,144.0,M,8.3,M,,0000*6B,0
1777416007088383354,$GPGSA,M,3,24,29,12,11,15,,,,,,,,2.8,1.6,2.3*38,0
1777416007088473502,$GPGSV,3,1,12,24,64,081,19,29,61,290,37,12,33,162,27,11,25,112,20*7A,0
1777416007088602031,$GPGSV,3,2,12,15,20,005,21,48,33,280,,14,54,272,,09,36,250,*75,0
1777416007088719618,$GPGSV,3,3,12,04,09,339,,20,03,323,,05,02,044,,10,01,300,*79,0
1777416007088834298,$GPRMC,223957.000,A,1206.2545,S,07701.1920,W,0.37,6.56,280426,,,A*6A,0
1777416007088963679,$GPGGA,223958.000,1206.2546,S,07701.1920,W,1,05,1.6,144.1,M,8.3,M,,0000*66,0
1777416007089103669,$GPGSA,M,3,24,29,12,11,15,,,,,,,,2.8,1.6,2.3*38,0
1777416007089194557,$GPRMC,223958.000,A,1206.2546,S,07701.1920,W,0.23,6.56,280426,,,A*63,0
1777416007089323512,$GPGGA,223959.000,1206.2548,S,07701.1923,W,1,05,1.6,144.2,M,8.3,M,,0000*69,0
1777416007089463650,$GPGSA,M,3,24,29,12,11,15,,,,,,,,2.8,1.6,2.3*38,0
1777416007089554372,$GPRMC,223959.000,A,1206.2548,S,07701.1923,W,0.51,6.56,280426,,,A*6A,0
1777416007089683309,$GPGGA,224000.000,1206.2549,S,07701.1925,W,1,05,1.6,144.2,M,8.3,M,,0000*6C,0
1777416007089822947,$GPGSA,M,3,24,29,12,11,15,,,,,,,,2.8,1.6,2.3*38,0
1777416007089913113,$GPRMC,224000.000,A,1206.2549,S,07701.1925,W,0.33,6.56,280426,,,A*6B,0
1777416007090041642,$GPGGA,224001.000,1206.2550,S,07701.1928,W,1,05,1.6,144.2,M,8.3,M,,0000*68,0
1777416007090181151,$GPGSA,M,3,24,29,12,11,15,,,,,,,,2.8,1.6,2.3*38,0
1777416007090271317,$GPRMC,224001.000,A,1206.2550,S,07701.1928,W,0.45,6.56,280426,,,A*6E,0
1777416007090399828,$GPGGA,224002.000,1206.2549,S,07701.1929,W,1,05,1.6,144.2,M,8.3,M,,0000*62,0
1777416007090539336,$GPGSA,M,3,24,29,12,11,15,,,,,,,,2.8,1.6,2.3*38,0
1777416007090629707,$GPGSV,3,1,12,24,64,081,19,29,61,290,26,12,33,162,26,11,25,112,18*70,0
1777416007090758976,$GPGSV,3,2,12,15,20,005,20,48,33,280,,14,54,272,,09,36,250,*74,0
1777416007090877230,$GPGSV,3,3,12,04,09,339,,20,03,323,,05,02,044,,10,01,300,*79,0
1777416007091322527,$GPRMC,224002.000,A,1206.2549,S,07701.1929,W,0.38,6.56,280426,,,A*6E,0
1777416007091454019,$GPGGA,224003.000,1206.2549,S,07701.1931,W,1,05,1.6,144.1,M,8.3,M,,0000*69,0
1777416007091595712,$GPGSA,M,3,24,29,12,11,15,,,,,,,,2.8,1.6,2.3*38,0
1777416007091687637,$GPRMC,224003.000,A,1206.2549,S,07701.1931,W,0.26,6.56,280426,,,A*69,0
1777416007091818462,$GPGGA,224004.000,1206.2550,S,07701.1935,W,1,05,1.6,144.1,M,8.3,M,,0000*62,0
1777416007091960285,$GPGSA,M,3,24,29,12,11,15,,,,,,,,2.8,1.6,2.3*38,0
1777416007092050988,$GPRMC,224004.000,A,1206.2550,S,07701.1935,W,0.45,6.56,280426,,,A*67,0
1777416007092180314,$GPGGA,224005.000,1206.2551,S,07701.1940,W,1,05,1.6,144.2,M,8.3,M,,0000*63,0
1777416007092320840,$GPGSA,M,3,24,29,12,11,15,,,,,,,,2.8,1.6,2.3*38,0
1777416007092411655,$GPRMC,224005.000,A,1206.2551,S,07701.1940,W,0.55,6.56,280426,,,A*64,0
1777416007092541036,$GPGGA,224006.000,1206.2551,S,07701.1943,W,1,05,1.6,144.3,M,8.3,M,,0000*62,0
1777416007092682470,$GPGSA,M,3,24,29,12,11,15,,,,,,,,2.8,1.6,2.3*38,0
1777416007092775895,$GPRMC,224006.000,A,1206.2551,S,07701.1943,W,0.39,6.56,280426,,,A*6E,0
1777416007282931810,$GPGGA,224007.000,1206.2553,S,07701.1944,W,1,05,1.6,144.3,M,8.3,M,,0000*66,0
1777416007395169933,$GPGSA,M,3,24,29,12,11,15,,,,,,,,2.8,1.6,2.3*38,0
1777416007555535363,$GPGSV,3,1,12,24,64,081,19,29,61,290,25,12,33,162,26,11,25,112,16*7D,0
1777416007702217218,$GPGSV,3,2,12,15,20,005,20,48,33,280,,14,54,272,,09,36,250,*74,0
1777416007845113647,$GPGSV,3,3,12,04,09,339,,20,03,323,,05,02,044,,10,01,300,*79,0
1777416008004615440,$GPRMC,224007.000,A,1206.2553,S,07701.1944,W,0.60,6.56,280426,,,A*66,0
1777416008282432224,$GPGGA,224008.000,1206.2555,S,07701.1946,W,1,05,1.6,144.4,M,8.3,M,,0000*6A,0
1777416008394746073,$GPGSA,M,3,24,29,12,11,15,,,,,,,,2.8,1.6,2.3*38,0
1777416008555102499,$GPRMC,224008.000,A,1206.2555,S,07701.1946,W,0.95,6.56,280426,,,A*67,0
1777416009281839241,$GPGGA,224009.000,1206.2558,S,07701.1951,W,1,05,1.6,144.4,M,8.3,M,,0000*60,0
1777416009394051664,$GPGSA,M,3,24,29,12,11,15,,,,,,,,2.8,1.6,2.3*38,0
1777416009554424037,$GPRMC,224009.000,A,1206.2558,S,07701.1951,W,1.16,6.56,280426,,,A*67,0
1777416010281775364,$GPGGA,224010.000,1206.2560,S,07701.1950,W,1,05,1.6,144.6,M,8.3,M,,0000*60,0
1777416010394010517,$GPGSA,M,3,24,29,12,11,15,,,,,,,,2.8,1.6,2.3*38,0
1777416010554370802,$GPRMC,224010.000,A,1206.2560,S,07701.1950,W,0.87,6.56,280426,,,A*6C,0
1777416011282319249,$GPGGA,224011.000,1206.2562,S,07701.1946,W,1,05,1.6,144.6,M,8.3,M,,0000*64,0
1777416011394595458,$GPGSA,M,3,24,29,12,11,15,,,,,,,,2.8,1.6,2.3*38,0
1777416011555010321,$GPRMC,224011.000,A,1206.2562,S,07701.1946,W,0.71,6.56,280426,,,A*61,0
1777416012281488444,$GPGGA,224012.000,1206.2563,S,07701.1947,W,1,05,1.6,144.5,M,8.3,M,,0000*64,0
1777416012393729091,$GPGSA,M,3,24,29,12,11,15,,,,,,,,2.8,1.6,2.3*38,0
1777416012554189455,$GPGSV,3,1,12,24,64,081,30,29,61,290,28,12,33,162,26,11,25,112,16*7B,0
1777416012700820630,$GPGSV,3,2,12,15,20,005,21,48,33,280,,14,54,272,,09,36,250,*75,0
1777416012842864051,$GPGSV,3,3,12,04,09,339,,20,03,323,,05,02,044,,10,01,300,*79,0
1777416013003239747,$GPRMC,224012.000,A,1206.2563,S,07701.1947,W,0.53,6.56,280426,,,A*62,0
1777416013280673468,$GPGGA,224013.000,1206.2560,S,07701.1940,W,1,05,1.6,144.9,M,8.3,M,,0000*6D,0
1777416013392907803,$GPGSA,M,3,24,29,12,11,15,,,,,,,,2.8,1.6,2.3*38,0
1777416013553271653,$GPRMC,224013.000,A,1206.2560,S,07701.1940,W,0.26,6.56,280426,,,A*65,0
1777416014282118394,$GPGGA,224014.000,1206.2561,S,07701.1938,W,1,05,1.6,145.1,M,8.3,M,,0000*6D,0
1777416014394431341,$GPGSA,M,3,24,29,12,11,15,,,,,,,,2.8,1.6,2.3*38,0
1777416014559337934,$GPRMC,224014.000,A,1206.2561,S,07701.1938,W,1.38,307.88,280426,,,A*63,0
1777416015282084507,$GPGGA,224015.000,1206.2567,S,07701.1939,W,1,05,1.6,145.1,M,8.3,M,,0000*6B,0
1777416015394399171,$GPGSA,M,3,24,29,12,11,15,,,,,,,,2.8,1.6,2.3*38,0
1777416015559314543,$GPRMC,224015.000,A,1206.2567,S,07701.1939,W,1.29,252.68,280426,,,A*6A,0
1777416016280802728,$GPGGA,224016.000,1206.2578,S,07701.1944,W,1,05,1.6,144.5,M,8.3,M,,0000*69,0
1777416016393013625,$GPGSA,M,3,24,29,12,11,15,,,,,,,,2.8,1.6,2.3*38,0
1777416016558012943,$GPRMC,224016.000,A,1206.2578,S,07701.1944,W,1.00,252.68,280426,,,A*66,0
1777416017303082322,$GPGGA,224017.000,1206.2585,S,07701.1944,W,1,05,1.6,144.3,M,8.3,M,,0000*6C,0
1777416017415323219,$GPGSA,M,3,24,29,12,11,15,,,,,,,,2.8,1.6,2.3*38,0
1777416017575678652,$GPGSV,3,1,12,24,64,081,40,29,61,290,35,12,33,162,38,11,25,112,10*79,0
1777416017726916813,$GPGSV,3,2,12,15,20,005,21,48,33,280,30,14,54,272,,09,36,250,*76,0
1777416017868956385,$GPGSV,3,3,12,04,09,339,,20,03,323,,05,02,044,,10,01,300,*79,0
1777416018033897299,$GPRMC,224017.000,A,1206.2585,S,07701.1944,W,1.44,243.78,280426,,,A*64,0
1777416018280709275,$GPGGA,224018.000,1206.2594,S,07701.1953,W,1,05,1.6,143.9,M,8.3,M,,0000*68,0
1777416018393012052,$GPGSA,M,3,24,29,12,11,15,,,,,,,,2.8,1.6,2.3*38,0
1777416018557966620,$GPRMC,224018.000,A,1206.2594,S,07701.1953,W,1.61,249.47,280426,,,A*6C,0
1777416019281304278,$GPGGA,224019.000,1206.2596,S,07701.1957,W,1,05,1.6,144.0,M,8.3,M,,0000*61,0
1777416019393604871,$GPGSA,M,3,24,29,12,11,15,,,,,,,,2.8,1.6,2.3*38,0
1777416019558565848,$GPRMC,224019.000,A,1206.2596,S,07701.1957,W,0.81,249.47,280426,,,A*64,0
1777416020281707423,$GPGGA,224020.000,1206.2596,S,07701.1958,W,1,05,1.6,144.0,M,8.3,M,,0000*64,0
1777416020393977610,$GPGSA,M,3,24,29,12,11,15,,,,,,,,2.8,1.6,2.3*38,0
1777416020558938011,$GPRMC,224020.000,A,1206.2596,S,07701.1958,W,0.54,249.47,280426,,,A*69,0
1777416021280682558,$GPGGA,224021.000,1206.2595,S,07701.1959,W,1,05,1.6,143.9,M,8.3,M,,0000*69,0
1777416021392922855,$GPGSA,M,3,24,29,12,11,15,,,,,,,,2.8,1.6,2.3*38,0
1777416021557871751,$GPRMC,224021.000,A,1206.2595,S,07701.1959,W,0.52,249.47,280426,,,A*6C,0
1777416022280044513,$GPGGA,224022.000,1206.2592,S,07701.1959,W,1,05,1.6,143.9,M,8.3,M,,0000*6D,0
1777416022392267989,$GPGSA,M,3,24,29,12,11,15,,,,,,,,2.8,1.6,2.3*38,0
1777416022552656920,$GPGSV,3,1,12,24,64,081,45,29,61,290,42,12,33,162,31,11,25,112,14*71,0
1777416022708448923,$GPGSV,3,2,12,15,20,005,25,05,02,044,12,48,33,280,24,14,54,272,*78,0
1777416022850690671,$GPGSV,3,3,12,09,36,250,,04,09,339,,20,03,323,,10,01,300,*75,0
1777416023015460663,$GPRMC,224022.000,A,1206.2592,S,07701.1959,W,0.23,249.47,280426,,,A*6E,0
1777416023280183580,$GPGGA,224023.000,1206.2589,S,07701.1959,W,1,05,1.6,143.7,M,8.3,M,,0000*68,0
1777416023392477253,$GPGSA,M,3,24,29,12,11,15,,,,,,,,2.8,1.6,2.3*38,0
1777416023557416662,$GPRMC,224023.000,A,1206.2589,S,07701.1959,W,0.11,249.47,280426,,,A*64,0
1777416024280606532,$GPGGA,224024.000,1206.2585,S,07701.1959,W,1,05,1.6,143.6,M,8.3,M,,0000*62,1
1777416024392854994,$GPGSA,M,3,24,29,12,11,15,,,,,,,,2.8,1.6,2.3*38,1
1777416024557836597,$GPRMC,224024.000,A,1206.2585,S,07701.1959,W,0.09,249.47,280426,,,A*66,1
1777416025301856558,$GPGGA,224025.000,1206.2584,S,07701.1959,W,1,05,1.6,143.5,M,8.3,M,,0000*61,1
1777416025414097687,$GPGSA,M,3,24,29,12,11,15,,,,,,,,2.8,1.6,2.3*38,1
1777416025579063103,$GPRMC,224025.000,A,1206.2584,S,07701.1959,W,0.09,249.47,280426,,,A*66,1
1777416026302250512,$GPGGA,224026.000,1206.2583,S,07701.1959,W,1,05,1.6,143.4,M,8.3,M,,0000*64,1
1777416026414506358,$GPGSA,M,3,24,29,12,11,15,,,,,,,,2.8,1.6,2.3*38,1
1777416026579493648,$GPRMC,224026.000,A,1206.2583,S,07701.1959,W,0.00,249.47,280426,,,A*6B,1
1777416027278915850,$GPGGA,224027.000,1206.2585,S,07701.1959,W,1,05,1.6,143.0,M,8.3,M,,0000*67,1
1777416027391171153,$GPGSA,M,3,24,29,12,11,15,,,,,,,,2.8,1.6,2.3*38,1
1777416027551550131,$GPGSV,3,1,12,24,64,081,45,29,61,290,40,12,33,162,25,11,25,112,13*71,1
1777416027702768374,$GPGSV,3,2,12,15,20,005,28,48,33,280,24,14,54,272,,09,36,250,*7A,1
1777416027845900478,$GPGSV,3,3,12,04,09,339,,20,03,323,,05,02,044,,10,01,300,*79,1
1777416028009788299,$GPRMC,224027.000,A,1206.2585,S,07701.1959,W,0.23,249.47,280426,,,A*6D,1
1777416028307224557,$GPGGA,224028.000,1206.2587,S,07701.1959,W,1,05,1.6,142.3,M,8.3,M,,0000*68,1
1777416028419500052,$GPGSA,M,3,24,29,12,11,15,,,,,,,,2.8,1.6,2.3*38,1
1777416028584465610,$GPRMC,224028.000,A,1206.2587,S,07701.1959,W,0.21,249.47,280426,,,A*62,1
1777416029279329467,$GPGGA,224029.000,1206.2589,S,07701.1959,W,1,05,1.6,141.8,M,8.3,M,,0000*6F,1
1777416029391577826,$GPGSA,M,3,24,29,12,11,15,,,,,,,,2.8,1.6,2.3*38,1
1777416029556594075,$GPRMC,224029.000,A,1206.2589,S,07701.1959,W,0.07,249.47,280426,,,A*69,1
1777416030279986144,$GPGGA,224030.000,1206.2591,S,07701.1959,W,1,05,1.6,141.2,M,8.3,M,,0000*64,1
1777416030392203975,$GPGSA,M,3,24,29,12,11,15,,,,,,,,2.8,1.6,2.3*38,1
1777416030557170743,$GPRMC,224030.000,A,1206.2591,S,07701.1959,W,0.15,249.47,280426,,,A*6B,1
1777416031302451294,$GPGGA,224031.000,1206.2591,S,07701.1959,W,1,05,1.6,141.3,M,8.3,M,,0000*64,1
1777416031414709398,$GPGSA,M,3,24,29,12,11,15,,,,,,,,2.8,1.6,2.3*38,1
1777416031579658768,$GPRMC,224031.000,A,1206.2591,S,07701.1959,W,0.00,249.47,280426,,,A*6E,1
1777416032276202797,$GPGGA,224032.000,1206.2594,S,07701.1959,W,1,04,1.8,140.8,M,8.3,M,,0000*67,1
1777416032383953847,$GPGSA,M,3,24,29,12,15,,,,,,,,,3.0,1.8,2.3*3F,1
1777416032544246283,$GPGSV,3,1,12,24,63,078,44,29,62,287,39,12,33,161,25,15,19,006,28*7E,1
1777416032700062902,$GPGSV,3,2,12,05,02,045,15,11,24,113,08,48,33,280,31,14,54,274,*75,1
1777416032842100755,$GPGSV,3,3,12,09,36,252,,04,10,340,,20,03,324,,10,01,301,*77,1
1777416033007085145,$GPRMC,224032.000,A,1206.2594,S,07701.1959,W,0.08,249.47,280426,,,A*60,1
1777416033276389949,$GPGGA,224033.000,1206.2596,S,07701.1958,W,1,04,1.8,140.3,M,8.3,M,,0000*6E,1
1777416033384067315,$GPGSA,M,3,24,29,12,15,,,,,,,,,3.0,1.8,2.3*3F,1
1777416033549049423,$GPRMC,224033.000,A,1206.2596,S,07701.1958,W,0.15,249.47,280426,,,A*6E,1
1777416034276211860,$GPGGA,224034.000,1206.2598,S,07701.1958,W,1,04,1.8,139.9,M,8.3,M,,0000*63,1
1777416034383931151,$GPGSA,M,3,24,29,12,15,,,,,,,,,3.0,1.8,2.3*3F,1
1777416034548842655,$GPRMC,224034.000,A,1206.2598,S,07701.1958,W,0.15,249.47,280426,,,A*67,1
1777416035275790368,$GPGGA,224035.000,1206.2598,S,07701.1958,W,1,04,1.8,139.9,M,8.3,M,,0000*62,1
1777416035383453171,$GPGSA,M,3,24,29,12,15,,,,,,,,,3.0,1.8,2.3*3F,1
1777416035548421953,$GPRMC,224035.000,A,1206.2598,S,07701.1958,W,0.00,249.47,280426,,,A*62,1
1777416036275788894,$GPGGA,224036.000,1206.2597,S,07701.1957,W,1,04,1.8,140.1,M,8.3,M,,0000*67,1
1777416036383460179,$GPGSA,M,3,24,29,12,15,,,,,,,,,3.0,1.8,2.3*3F,1
1777416036548430393,$GPRMC,224036.000,A,1206.2597,S,07701.1957,W,0.10,249.47,280426,,,A*60,1
1777416037274341156,$GPGGA,224037.000,1206.2595,S,07701.1956,W,1,04,1.8,140.4,M,8.3,M,,0000*60,1
1777416037382018587,$GPGSA,M,3,24,29,12,15,,,,,,,,,3.0,1.8,2.3*3F,1
1777416037542400695,$GPGSV,3,1,12,24,63,078,42,29,62,287,38,12,33,161,25,15,19,006,28*79,1
1777416037693630080,$GPGSV,3,2,12,05,02,045,11,11,24,113,05,33,19,083,,14,54,274,*7B,1
1777416037835676283,$GPGSV,3,3,12,09,36,252,,04,10,340,,20,03,324,,10,01,301,*77,0
1777416038000644001,$GPRMC,224037.000,A,1206.2595,S,07701.1956,W,0.21,249.47,280426,,,A*60,0
1777416038275172799,$GPGGA,224038.000,1206.2592,S,07701.1955,W,1,04,1.8,140.7,M,8.3,M,,0000*68,0
1777416038382899886,$GPGSA,M,3,24,29,12,15,,,,,,,,,3.0,1.8,2.3*3F,0
1777416038547900172,$GPRMC,224038.000,A,1206.2592,S,07701.1955,W,0.04,249.47,280426,,,A*6C,0
1777416039275187681,$GPGGA,224039.000,1206.2589,S,07701.1954,W,1,04,1.8,141.2,M,8.3,M,,0000*66,0
1777416039382886710,$GPGSA,M,3,24,29,12,15,,,,,,,,,3.0,1.8,2.3*3F,0
1777416039547891622,$GPRMC,224039.000,A,1206.2589,S,07701.1954,W,0.11,249.47,280426,,,A*62,0
1777416040274573434,$GPGGA,224040.000,1206.2587,S,07701.1952,W,1,04,1.8,141.5,M,8.3,M,,0000*67,0
1777416040382246756,$GPGSA,M,3,24,29,12,15,,,,,,,,,3.0,1.8,2.3*3F,0
1777416040547226812,$GPRMC,224040.000,A,1206.2587,S,07701.1952,W,0.72,249.47,280426,,,A*61,0
1777416041276466410,$GPGGA,224041.000,1206.2586,S,07701.1950,W,1,05,1.6,141.5,M,8.3,M,,0000*6A,0
1777416041388775163,$GPGSA,M,3,24,29,12,11,15,,,,,,,,2.8,1.6,2.2*39,0
1777416041553689514,$GPRMC,224041.000,A,1206.2586,S,07701.1950,W,0.65,249.47,280426,,,A*65,0
1777416042276474870,$GPGGA,224042.000,1206.2585,S,07701.1947,W,1,05,1.6,141.5,M,8.3,M,,0000*6C,0
1777416042388751918,$GPGSA,M,3,24,29,12,11,15,,,,,,,,2.8,1.6,2.2*39,0
1777416042549135421,$GPGSV,3,1,12,24,63,078,43,29,62,287,33,12,33,161,32,11,24,113,11*70,0
1777416042695769467,$GPGSV,3,2,12,15,19,006,20,33,19,083,,14,54,274,,09,36,252,*7C,0
1777416042837888529,$GPGSV,3,3,12,04,10,340,,20,03,324,,05,02,045,,10,01,301,*78,0
1777416043002783221,$GPRMC,224042.000,A,1206.2585,S,07701.1947,W,1.32,117.96,280426,,,A*64,0
1777416043276285282,$GPGGA,224043.000,1206.2584,S,07701.1942,W,1,05,1.6,141.6,M,8.3,M,,0000*6A,0
1777416043388531344,$GPGSA,M,3,24,29,12,11,15,,,,,,,,2.8,1.6,2.2*39,0
1777416043551224635,$GPRMC,224043.000,A,1206.2584,S,07701.1942,W,1.57,90.93,280426,,,A*59,0
1777416044276301657,$GPGGA,224044.000,1206.2583,S,07701.1940,W,1,05,1.6,141.7,M,8.3,M,,0000*69,0
1777416044388562409,$GPGSA,M,3,24,29,12,11,15,,,,,,,,2.8,1.6,2.2*39,0
1777416044551251400,$GPRMC,224044.000,A,1206.2583,S,07701.1940,W,0.75,90.93,280426,,,A*5A,0
1777416045276112281,$GPGGA,224045.000,1206.2584,S,07701.1937,W,1,05,1.6,141.5,M,8.3,M,,0000*6D,0
1777416045388380890,$GPGSA,M,3,24,29,12,11,15,,,,,,,,2.8,1.6,2.2*39,0
1777416045551053598,$GPRMC,224045.000,A,1206.2584,S,07701.1937,W,1.43,85.22,280426,,,A*56,0
1777416046276554883,$GPGGA,224046.000,1206.2582,S,07701.1932,W,1,05,1.6,141.6,M,8.3,M,,0000*6E,0
1777416046388811533,$GPGSA,M,3,24,29,12,11,15,,,,,,,,2.8,1.6,2.2*39,0
1777416046551495617,$GPRMC,224046.000,A,1206.2582,S,07701.1932,W,1.92,81.88,280426,,,A*5E,0
1777416047276359405,$GPGGA,224047.000,1206.2580,S,07701.1928,W,1,05,1.6,141.6,M,8.3,M,,0000*66,0
1777416047388621112,$GPGSA,M,3,24,29,12,11,15,,,,,,,,2.8,1.6,2.2*39,0
1777416047549005525,$GPGSV,3,1,12,24,63,078,29,29,62,287,29,12,33,161,23,11,24,113,11*77,0
1777416047695657692,$GPGSV,3,2,12,15,19,006,20,33,19,083,,14,54,274,,09,36,252,*7C,0
1777416047837709767,$GPGSV,3,3,12,04,10,340,,20,03,324,,05,02,045,,10,01,301,*78,0
1777416048000368489,$GPRMC,224047.000,A,1206.2580,S,07701.1928,W,1.25,80.60,280426,,,A*5D,0
1777416048276372463,$GPGGA,224048.000,1206.2579,S,07701.1927,W,1,05,1.6,141.6,M,8.3,M,,0000*60,0
1777416048388644538,$GPGSA,M,3,24,29,12,11,15,,,,,,,,2.8,1.6,2.2*39,0
1777416048551324444,$GPRMC,224048.000,A,1206.2579,S,07701.1927,W,0.49,80.60,280426,,,A*50,0
1777416049275778955,$GPGGA,224049.000,1206.2578,S,07701.1929,W,1,05,1.6,141.6,M,8.3,M,,0000*6E,0
1777416049388040103,$GPGSA,M,3,24,29,12,11,15,,,,,,,,2.8,1.6,2.2*39,0
1777416049550719304,$GPRMC,224049.000,A,1206.2578,S,07701.1929,W,0.29,80.60,280426,,,A*58,0
1777416050297949765,$GPGGA,224050.000,1206.2577,S,07701.1930,W,1,05,1.6,141.7,M,8.3,M,,0000*60,0
1777416050410140066,$GPGSA,M,3,24,29,12,11,15,,,,,,,,2.8,1.6,2.2*39,1
1777416050572826761,$GPRMC,224050.000,A,1206.2577,S,07701.1930,W,0.21,80.60,280426,,,A*5F,1
1777416051297701872,$GPGGA,224051.000,1206.2578,S,07701.1931,W,1,05,1.6,141.5,M,8.3,M,,0000*6D,1
1777416051409963341,$GPGSA,M,3,24,29,12,11,15,,,,,,,,2.8,1.6,2.2*39,1
1777416051572635957,$GPRMC,224051.000,A,1206.2578,S,07701.1931,W,0.83,80.60,280426,,,A*58,1
1777416052274802530,$GPGGA,224052.000,1206.2576,S,07701.1935,W,1,05,1.6,141.5,M,8.3,M,,0000*64,1
1777416052387090043,$GPGSA,M,3,24,29,12,11,15,,,,,,,,2.8,1.6,2.2*39,1
1777416052547462794,$GPGSV,3,1,12,24,63,078,18,29,62,287,32,12,33,161,24,11,24,113,10*79,1
1777416052694104629,$GPGSV,3,2,12,15,19,006,21,33,19,083,,14,54,274,,09,36,252,*7D,1
1777416052836159735,$GPGSV,3,3,12,04,10,340,,20,03,324,,05,02,045,,10,01,301,*78,1
1777416052998854190,$GPRMC,224052.000,A,1206.2576,S,07701.1935,W,1.33,51.88,280426,,,A*51,1
1777416053296721025,$GPGGA,224053.000,1206.2576,S,07701.1942,W,1,05,1.6,141.6,M,8.3,M,,0000*66,1
1777416053408978605,$GPGSA,M,3,24,29,12,11,15,,,,,,,,2.8,1.6,2.2*39,1
1777416053571634442,$GPRMC,224053.000,A,1206.2576,S,07701.1942,W,1.74,14.07,280426,,,A*55,1
1777416054274436918,$GPGGA,224054.000,1206.2576,S,07701.1947,W,1,05,1.6,141.9,M,8.3,M,,0000*6B,1
1777416054386712058,$GPGSA,M,3,24,29,12,11,15,,,,,,,,2.8,1.6,2.2*39,1
1777416054549389524,$GPRMC,224054.000,A,1206.2576,S,07701.1947,W,0.48,14.07,280426,,,A*59,1
1777416055274259508,$GPGGA,224055.000,1206.2576,S,07701.1952,W,1,05,1.6,142.2,M,8.3,M,,0000*66,1
1777416055386534504,$GPGSA,M,3,24,29,12,11,15,,,,,,,,2.8,1.6,2.2*39,1
1777416055549204194,$GPRMC,224055.000,A,1206.2576,S,07701.1952,W,0.77,14.07,280426,,,A*50,1
1777416056274084582,$GPGGA,224056.000,1206.2576,S,07701.1956,W,1,05,1.6,142.5,M,8.3,M,,0000*66,1
1777416056386353433,$GPGSA,M,3,24,29,12,11,15,,,,,,,,2.8,1.6,2.2*39,1
1777416056549039453,$GPRMC,224056.000,A,1206.2576,S,07701.1956,W,0.58,14.07,280426,,,A*5A,1
