Unix_time,GPS_data,flagStop
1777416156252381196,$GPGGA,224236.098,1206.2569,S,07701.1897,W,0,00,,163.0,M,8.3,M,,0000*4A,0
1777416176285713715,$GPGSA,M,1,,,,,,,,,,,,,,,*12,0
1777416176286006192,$GPRMC,224236.098,V,1206.2569,S,07701.1897,W,,,280426,,,N*7A,0
1777416176286359869,$GPGGA,224237.098,1206.2570,S,07701.1899,W,0,00,,163.0,M,8.3,M,,0000*4D,0
1777416176286496395,$GPGSA,M,1,,,,,,,,,,,,,,,*12,0
1777416176286552354,$GPGSV,3,1,12,05,02,045,12,11,24,113,07,12,33,161,29,15,19,006,04*7F,0
1777416176286680973,$GPGSV,3,2,12,24,63,078,27,29,62,287,40,48,33,280,,14,54,274,*77,0
1777416176286802408,$GPGSV,3,3,12,09,36,252,,04,10,340,,20,03,324,,10,01,301,*77,0
1777416176286916344,$GPRMC,224237.098,V,1206.2570,S,07701.1899,W,,,280426,,,N*7D,0
1777416176287030465,$GPGGA,224238.093,1206.2570,S,07701.1900,W,0,00,,163.0,M,8.3,M,,0000*48,0
1777416176287164751,$GPGSA,M,1,,,,,,,,,,,,,,,*12,0
1777416176287220506,$GPRMC,224238.093,V,1206.2570,S,07701.1900,W,,,280426,,,N*78,0
1777416176287356125,$GPGGA,224239.098,1206.2596,S,07701.1910,W,1,04,1.8,162.8,M,8.3,M,,0000*60,0
1777416176287504576,$GPGSA,M,3,24,29,12,15,,,,,,,,,2.9,1.8,2.3*37,0
1777416176287591977,$GPRMC,224239.098,A,1206.2596,S,07701.1910,W,1.01,74.22,280426,,,A*50,0
1777416176287723689,$GPGGA,224240.098,1206.2609,S,07701.1924,W,1,04,1.8,162.5,M,8.3,M,,0000*61,0
1777416176287864215,$GPGSA,M,3,24,29,12,15,,,,,,,,,2.9,1.8,2.3*37,0
1777416176287951857,$GPRMC,224240.098,A,1206.2609,S,07701.1924,W,0.21,74.22,280426,,,A*5F,0
1777416176288083772,$GPGGA,224241.000,1206.2608,S,07701.1928,W,1,05,1.6,161.8,M,8.3,M,,0000*6D,0
1777416176288224502,$GPGSA,M,3,24,29,12,11,15,,,,,,,,2.7,1.6,2.2*36,0
1777416176288315754,$GPRMC,224241.000,A,1206.2608,S,07701.1928,W,1.37,62.40,280426,,,A*57,0
1777416176288447614,$GPGGA,224242.000,1206.2612,S,07701.1939,W,1,05,1.6,160.9,M,8.3,M,,0000*65,0
1777416176288587493,$GPGSA,M,3,24,29,12,11,15,,,,,,,,2.7,1.6,2.2*36,0
1777416176288678486,$GPGSV,3,1,12,24,63,078,28,29,62,287,42,12,33,161,30,11,24,113,10*78,0
1777416176288808309,$GPGSV,3,2,12,15,19,006,17,48,33,280,,14,54,274,,09,36,252,*7D,0
1777416176288927300,$GPGSV,3,3,12,04,10,340,,20,03,324,,05,02,045,,10,01,301,*78,0
1777416176289041587,$GPRMC,224242.000,A,1206.2612,S,07701.1939,W,0.44,62.40,280426,,,A*5A,0
1777416176289171762,$GPGGA,224243.000,1206.2616,S,07701.1946,W,1,05,1.6,160.8,M,8.3,M,,0000*69,0
1777416176289311270,$GPGSA,M,3,24,29,12,11,15,,,,,,,,2.7,1.6,2.2*36,0
1777416176289401985,$GPRMC,224243.000,A,1206.2616,S,07701.1946,W,0.22,62.40,280426,,,A*57,0
1777416176289532160,$GPGGA,224244.000,1206.2620,S,07701.1950,W,1,05,1.6,160.8,M,8.3,M,,0000*6C,0
1777416176289671316,$GPGSA,M,3,24,29,12,11,15,,,,,,,,2.7,1.6,2.2*36,0
1777416176289761235,$GPRMC,224244.000,A,1206.2620,S,07701.1950,W,0.23,62.40,280426,,,A*53,0
1777416176289891132,$GPGGA,224245.000,1206.2621,S,07701.1953,W,1,05,1.6,160.6,M,8.3,M,,0000*61,0
1777416176290030325,$GPGSA,M,3,24,29,12,11,15,,,,,,,,2.7,1.6,2.2*36,0
1777416176290120263,$GPRMC,224245.000,A,1206.2621,S,07701.1953,W,0.16,62.40,280426,,,A*56,0
1777416176290250197,$GPGGA,224246.000,1206.2620,S,07701.1955,W,1,05,1.6,159.5,M,8.3,M,,0000*6C,0
1777416176290389279,$GPGSA,M,3,24,29,12,11,15,,,,,,,,2.7,1.6,2.2*36,0
1777416176290479309,$GPRMC,224246.000,A,1206.2620,S,07701.1955,W,0.44,62.40,280426,,,A*55,0
1777416176290609225,$GPGGA,224247.000,1206.2620,S,07701.1958,W,1,05,1.6,158.8,M,8.3,M,,0000*6C,0
1777416176290748288,$GPGSA,M,3,24,29,12,11,15,,,,,,,,2.7,1.6,2.2*36,0
1777416176290838226,$GPGSV,3,1,12,24,63,078,28,29,62,287,43,12,33,161,30,11,24,113,10*79,0
1777416176290966586,$GPGSV,3,2,12,15,19,006,17,46,29,279,,14,54,274,,09,36,252,*7E,0
1777416176291083762,$GPGSV,3,3,12,04,10,340,,20,03,324,,05,02,045,,10,01,301,*78,0
1777416176291197309,$GPRMC,224247.000,A,1206.2620,S,07701.1958,W,0.39,62.40,280426,,,A*53,0
1777416176291335058,$GPGGA,224248.000,1206.2620,S,07701.1960,W,1,05,1.6,157.8,M,8.3,M,,0000*67,0
1777416176291475436,$GPGSA,M,3,24,29,12,11,15,,,,,,,,2.7,1.6,2.2*36,0
1777416176291565781,$GPRMC,224248.000,A,1206.2620,S,07701.1960,W,0.59,62.40,280426,,,A*51,0
1777416176291696030,$GPGGA,224249.000,1206.2621,S,07701.1962,W,1,04,1.8,157.6,M,8.3,M,,0000*64,0
1777416176291971009,$GPGSA,M,3,24,29,12,15,,,,,,,,,2.9,1.8,2.3*37,0
1777416176292058391,$GPRMC,224249.000,A,1206.2621,S,07701.1962,W,0.33,62.40,280426,,,A*5F,0
1777416176292190103,$GPGGA,224250.000,1206.2621,S,07701.1963,W,1,04,1.8,157.1,M,8.3,M,,0000*6A,0
1777416176292330555,$GPGSA,M,3,24,29,12,15,,,,,,,,,2.9,1.8,2.3*37,0
1777416176292417270,$GPRMC,224250.000,A,1206.2621,S,07701.1963,W,0.29,62.40,280426,,,A*5D,0
1777416176292548557,$GPGGA,224251.000,1206.2621,S,07701.1965,W,1,04,1.8,157.1,M,8.3,M,,0000*6D,0
1777416176292688842,$GPGSA,M,3,24,29,12,15,,,,,,,,,2.9,1.8,2.3*37,0
1777416176292775909,$GPRMC,224251.000,A,1206.2621,S,07701.1965,W,0.19,62.40,280426,,,A*59,0
1777416176292907121,$GPGGA,224252.000,1206.2622,S,07701.1966,W,1,04,1.8,156.8,M,8.3,M,,0000*66,0
1777416176293047592,$GPGSA,M,3,24,29,12,15,,,,,,,,,2.9,1.8,2.3*37,0
1777416176293134715,$GPGSV,3,1,12,24,63,078,27,29,62,287,43,12,33,161,30,15,19,006,17*7E,0
1777416176293264427,$GPGSV,3,2,12,46,29,279,,14,54,274,,09,36,252,,11,24,113,*77,0
1777416176293379807,$GPGSV,3,3,12,04,10,340,,20,03,324,,05,02,045,,10,01,301,*78,0
1777416176293495724,$GPRMC,224252.000,A,1206.2622,S,07701.1966,W,0.27,62.40,280426,,,A*57,0
1777416176293628380,$GPGGA,224253.000,1206.2625,S,07701.1974,W,1,04,1.8,155.8,M,8.3,M,,0000*60,0
1777416176293770314,$GPGSA,M,3,24,29,12,15,,,,,,,,,2.9,1.8,2.3*37,0
1777416176293858437,$GPRMC,224253.000,A,1206.2625,S,07701.1974,W,0.65,62.40,280426,,,A*54,0
1777416176293990963,$GPGGA,224254.000,1206.2627,S,07701.1979,W,1,04,1.8,154.9,M,8.3,M,,0000*68,0
1777416176294132915,$GPGSA,M,3,24,29,12,15,,,,,,,,,2.9,1.8,2.3*37,0
1777416176294221075,$GPRMC,224254.000,A,1206.2627,S,07701.1979,W,0.19,62.40,280426,,,A*57,0
1777416176294352658,$GPGGA,224255.000,1206.2628,S,07701.1983,W,1,04,1.8,154.1,M,8.3,M,,0000*6B,0
1777416176294493036,$GPGSA,M,3,24,29,12,15,,,,,,,,,2.9,1.8,2.3*37,0
1777416176294580214,$GPRMC,224255.000,A,1206.2628,S,07701.1983,W,0.36,62.40,280426,,,A*51,0
1777416176294714148,$GPGGA,224256.000,1206.2630,S,07701.1982,W,1,04,1.8,155.4,M,8.3,M,,0000*64,0
1777416176371083778,$GPGSA,M,3,24,29,12,15,,,,,,,,,2.9,1.8,2.3*37,0
1777416176533760990,$GPRMC,224256.000,A,1206.2630,S,07701.1982,W,0.00,62.40,280426,,,A*5F,0
1777416177283029073,$GPGGA,224257.000,1206.2629,S,07701.1983,W,1,04,1.8,154.8,M,8.3,M,,0000*61,0
1777416177390729888,$GPGSA,M,3,24,29,12,15,,,,,,,,,2.9,1.8,2.3*37,0
1777416177551100599,$GPGSV,3,1,12,24,63,078,26,29,62,287,40,12,33,161,30,15,19,006,17*7C,0
1777416177697784256,$GPGSV,3,2,12,11,24,113,06,46,29,279,,14,54,274,,09,36,252,*71,0
1777416177839841066,$GPGSV,3,3,12,04,10,340,,20,03,324,,05,02,045,,10,01,301,*78,0
1777416178002510822,$GPRMC,224257.000,A,1206.2629,S,07701.1983,W,0.12,62.40,280426,,,A*54,0
1777416178260806771,$GPGGA,224258.000,1206.2627,S,07701.1983,W,1,04,1.8,154.0,M,8.3,M,,0000*68,0
1777416178368539858,$GPGSA,M,3,24,29,12,15,,,,,,,,,2.9,1.8,2.3*37,0
1777416178531188603,$GPRMC,224258.000,A,1206.2627,S,07701.1983,W,0.09,62.40,280426,,,A*5F,0
1777416179284668622,$GPGGA,224259.000,1206.2622,S,07701.1979,W,1,04,1.8,154.0,M,8.3,M,,0000*69,0
1777416179392334878,$GPGSA,M,3,24,29,12,15,,,,,,,,,2.9,1.8,2.3*37,0
1777416179555025199,$GPRMC,224259.000,A,1206.2622,S,07701.1979,W,0.14,62.40,280426,,,A*52,0
1777416180261820506,$GPGGA,224300.000,1206.2620,S,07701.1973,W,1,04,1.8,153.9,M,8.3,M,,0000*62,0
1777416180369510998,$GPGSA,M,3,24,29,12,15,,,,,,,,,2.9,1.8,2.3*37,0
1777416180532193510,$GPRMC,224300.000,A,1206.2620,S,07701.1973,W,0.96,62.40,280426,,,A*5D,0
1777416181286489590,$GPGGA,224301.000,1206.2622,S,07701.1969,W,1,05,1.6,153.6,M,8.3,M,,0000*6A,0
1777416181398811057,$GPGSA,M,3,24,29,12,11,15,,,,,,,,2.7,1.6,2.2*36,0
1777416181561500591,$GPRMC,224301.000,A,1206.2622,S,07701.1969,W,1.24,92.84,280426,,,A*5A,0
1777416182262854220,$GPGGA,224302.000,1206.2621,S,07701.1969,W,1,05,1.6,153.4,M,8.3,M,,0000*68,0
1777416182375177888,$GPGSA,M,3,24,29,12,11,15,,,,,,,,2.7,1.6,2.2*36,0
1777416182535531623,$GPGSV,3,1,12,24,63,078,30,29,62,287,29,12,33,161,38,11,24,113,11*75,0
1777416182682189091,$GPGSV,3,2,12,15,19,006,19,46,29,279,,14,54,274,,09,36,252,*70,0
1777416182824257169,$GPGSV,3,3,12,04,10,340,,20,03,324,,05,02,045,,10,01,301,*78,0
1777416182986931782,$GPRMC,224302.000,A,1206.2621,S,07701.1969,W,0.89,92.84,280426,,,A*5C,0
1777416183262951410,$GPGGA,224303.000,1206.2622,S,07701.1972,W,1,05,1.6,153.8,M,8.3,M,,0000*6C,0
1777416183375218653,$GPGSA,M,3,24,29,12,11,15,,,,,,,,2.7,1.6,2.2*36,0
1777416183540207575,$GPRMC,224303.000,A,1206.2622,S,07701.1972,W,2.12,203.53,280426,,,A*64,0
1777416184284929699,$GPGGA,224304.000,1206.2620,S,07701.1968,W,1,05,1.6,154.4,M,8.3,M,,0000*69,0
1777416184397188976,$GPGSA,M,3,24,29,12,11,15,,,,,,,,2.7,1.6,2.2*36,0
1777416184562175106,$GPRMC,224304.000,A,1206.2620,S,07701.1968,W,1.88,245.39,280426,,,A*64,0
1777416185262926252,$GPGGA,224305.000,1206.2617,S,07701.1969,W,1,05,1.6,154.6,M,8.3,M,,0000*6F,0
1777416185375184840,$GPGSA,M,3,24,29,12,11,15,,,,,,,,2.7,1.6,2.2*36,0
1777416185540169492,$GPRMC,224305.000,A,1206.2617,S,07701.1969,W,0.78,245.39,280426,,,A*6E,0
1777416186263219071,$GPGGA,224306.000,1206.2614,S,07701.1968,W,1,05,1.6,155.0,M,8.3,M,,0000*69,0
1777416186375475545,$GPGSA,M,3,24,29,12,11,15,,,,,,,,2.7,1.6,2.2*36,0
1777416186540470365,$GPRMC,224306.000,A,1206.2614,S,07701.1968,W,0.67,245.39,280426,,,A*61,0
1777416187262873106,$GPGGA,224307.000,1206.2611,S,07701.1965,W,1,05,1.6,156.1,M,8.3,M,,0000*62,0
1777416187375167721,$GPGSA,M,3,24,29,12,11,15,,,,,,,,2.7,1.6,2.2*36,0
1777416187535554134,$GPGSV,3,1,12,24,63,078,42,29,62,287,34,12,33,161,26,11,24,113,16*74,0
1777416187682187997,$GPGSV,3,2,12,15,19,006,19,46,29,279,,14,54,274,,09,36,252,*70,0
1777416187824256262,$GPGSV,3,3,12,04,10,340,,20,03,324,,05,02,045,,10,01,301,*78,0
1777416187989237253,$GPRMC,224307.000,A,1206.2611,S,07701.1965,W,0.89,245.39,280426,,,A*68,0
1777416188261709275,$GPGGA,224308.000,1206.2606,S,07701.1961,W,1,05,1.6,156.3,M,8.3,M,,0000*6D,0
1777416188373998905,$GPGSA,M,3,24,29,12,11,15,,,,,,,,2.7,1.6,2.2*36,0
1777416188538965547,$GPRMC,224308.000,A,1206.2606,S,07701.1961,W,1.15,245.39,280426,,,A*61,0
1777416189261812918,$GPGGA,224309.000,1206.2601,S,07701.1958,W,1,05,1.6,155.6,M,8.3,M,,0000*67,0
1777416189374076786,$GPGSA,M,3,24,29,12,11,15,,,,,,,,2.7,1.6,2.2*36,0
1777416189539062281,$GPRMC,224309.000,A,1206.2601,S,07701.1958,W,0.42,245.39,280426,,,A*6E,0
1777416190262310025,$GPGGA,224310.000,1206.2598,S,07701.1956,W,1,05,1.6,155.1,M,8.3,M,,0000*65,0
1777416190374583777,$GPGSA,M,3,24,29,12,11,15,,,,,,,,2.7,1.6,2.2*36,0
1777416190539558755,$GPRMC,224310.000,A,1206.2598,S,07701.1956,W,0.36,245.39,280426,,,A*68,0
1777416191262601549,$GPGGA,224311.000,1206.2594,S,07701.1954,W,1,05,1.6,154.4,M,8.3,M,,0000*6E,0
1777416191374876943,$GPGSA,M,3,24,29,12,11,15,,,,,,,,2.7,1.6,2.2*36,0
1777416191539855294,$GPRMC,224311.000,A,1206.2594,S,07701.1954,W,0.24,245.39,280426,,,A*64,0
1777416192263940706,$GPGGA,224312.000,1206.2595,S,07701.1954,W,1,05,1.6,154.4,M,8.3,M,,0000*6C,0
1777416192376222428,$GPGSA,M,3,24,29,12,11,15,,,,,,,,2.7,1.6,2.2*36,0
1777416192536608644,$GPGSV,3,1,12,24,63,078,41,29,62,287,30,12,33,161,16,11,24,113,15*73,1
1777416192683289390,$GPGSV,3,2,12,15,19,006,23,46,29,279,,14,54,274,,09,36,252,*79,1
1777416192825318578,$GPGSV,3,3,12,04,10,340,,20,03,324,,05,02,045,,10,01,301,*78,1
1777416192990320446,$GPRMC,224312.000,A,1206.2595,S,07701.1954,W,0.00,245.39,280426,,,A*60,1
1777416193260279303,$GPGGA,224313.000,1206.2595,S,07701.1954,W,1,04,2.2,154.4,M,8.3,M,,0000*6B,1
1777416193367975882,$GPGSA,M,3,24,29,11,15,,,,,,,,,3.5,2.2,2.7*34,1
1777416193532963511,$GPRMC,224313.000,A,1206.2595,S,07701.1954,W,0.00,245.39,280426,,,A*61,1
1777416194263704002,$GPGGA,224314.000,1206.2592,S,07701.1954,W,1,05,1.6,153.7,M,8.3,M,,0000*69,1
1777416194375977380,$GPGSA,M,3,24,29,12,11,15,,,,,,,,2.7,1.6,2.2*36,1
1777416194540960584,$GPRMC,224314.000,A,1206.2592,S,07701.1954,W,0.26,245.39,280426,,,A*65,1
1777416195262940334,$GPGGA,224315.000,1206.2589,S,07701.1955,W,1,05,1.6,153.2,M,8.3,M,,0000*66,1
1777416195375233149,$GPGSA,M,3,24,29,12,11,15,,,,,,,,2.7,1.6,2.2*36,1
1777416195540205817,$GPRMC,224315.000,A,1206.2589,S,07701.1955,W,0.87,245.39,280426,,,A*64,1
1777416196262698832,$GPGGA,224316.000,1206.2587,S,07701.1956,W,1,05,1.6,153.0,M,8.3,M,,0000*6A,1
1777416196374886982,$GPGSA,M,3,24,29,12,11,15,,,,,,,,2.7,1.6,2.2*36,1
1777416196539870724,$GPRMC,224316.000,A,1206.2587,S,07701.1956,W,0.57,245.39,280426,,,A*67,1
