Unix_time,GPS_data,flagStop
1777416529548142111,$GPRMC,224849.000,A,1206.2579,S,07701.1929,W,0.07,147.89,280426,,,A*60,0
1777416586477262562,$GPGGA,224850.000,1206.2578,S,07701.1929,W,1,05,1.6,151.4,M,8.3,M,,0000*6D,0
1777416586478070772,$GPGSA,M,3,29,24,12,11,15,,,,,,,,2.7,1.6,2.2*36,0
1777416586478581661,$GPRMC,224850.000,A,1206.2578,S,07701.1929,W,0.08,147.89,280426,,,A*66,0
1777416586479346021,$GPGGA,224851.000,1206.2578,S,07701.1928,W,1,05,1.6,151.7,M,8.3,M,,0000*6E,0
1777416586480121381,$GPGSA,M,3,29,24,12,11,15,,,,,,,,2.7,1.6,2.2*36,0
1777416586480556031,$GPRMC,224851.000,A,1206.2578,S,07701.1928,W,0.07,147.89,280426,,,A*69,0
1777416586481290800,$GPGGA,224852.000,1206.2578,S,07701.1928,W,1,05,1.6,152.1,M,8.3,M,,0000*68,0
1777416586482062808,$GPGSA,M,3,29,24,12,11,15,,,,,,,,2.7,1.6,2.2*36,0
1777416586482561530,$GPGSV,3,1,12,29,63,280,36,24,62,072,39,12,32,158,30,11,24,116,15*7D,0
1777416586483182192,$GPGSV,3,2,12,15,17,007,20,44,42,284,41,14,54,280,,09,37,255,*70,0
1777416586483862204,$GPGSV,3,3,12,04,12,341,,20,03,327,,05,02,047,,10,00,303,*79,0
1777416586484492717,$GPRMC,224852.000,A,1206.2578,S,07701.1928,W,0.08,147.89,280426,,,A*65,0
1777416586485139285,$GPGGA,224853.000,1206.2578,S,07701.1928,W,1,05,1.6,152.4,M,8.3,M,,0000*6C,0
1777416586485912386,$GPGSA,M,3,29,24,12,11,15,,,,,,,,2.7,1.6,2.2*36,0
1777416586486408294,$GPRMC,224853.000,A,1206.2578,S,07701.1928,W,0.17,147.89,280426,,,A*6A,0
1777416586487135711,$GPGGA,224854.000,1206.2578,S,07701.1927,W,1,05,1.6,152.9,M,8.3,M,,0000*69,0
1777416586487822815,$GPGSA,M,3,29,24,12,11,15,,,,,,,,2.7,1.6,2.2*36,0
1777416586488318704,$GPRMC,224854.000,A,1206.2578,S,07701.1927,W,0.08,147.89,280426,,,A*6C,0
1777416586489042602,$GPGGA,224855.000,1206.2578,S,07701.1927,W,1,05,1.6,153.3,M,8.3,M,,0000*63,0
1777416586489714077,$GPGSA,M,3,29,24,12,11,15,,,,,,,,2.7,1.6,2.2*36,0
1777416586490194337,$GPRMC,224855.000,A,1206.2578,S,07701.1927,W,0.14,147.89,280426,,,A*60,0
1777416586490899051,$GPGGA,224856.000,1206.2578,S,07701.1927,W,1,05,1.6,153.6,M,8.3,M,,0000*65,0
1777416586491648801,$GPGSA,M,3,29,24,12,11,15,,,,,,,,2.7,1.6,2.2*36,0
1777416586492060063,$GPRMC,224856.000,A,1206.2578,S,07701.1927,W,0.12,147.89,280426,,,A*65,0
1777416586492761204,$GPGGA,224857.000,1206.2578,S,07701.1927,W,1,05,1.6,153.9,M,8.3,M,,0000*6B,0
1777416586493499991,$GPGSA,M,3,29,24,12,11,15,,,,,,,,2.7,1.6,2.2*36,0
1777416586493977232,$GPGSV,3,1,12,29,63,280,36,24,62,072,39,12,32,158,32,11,24,116,13*79,0
1777416586494602172,$GPGSV,3,2,12,15,17,007,20,44,42,284,41,14,54,280,,09,37,255,*70,0
1777416586495244426,$GPGSV,3,3,12,04,12,341,,20,03,327,,05,02,047,,10,00,303,*79,0
1777416586495857125,$GPRMC,224857.000,A,1206.2578,S,07701.1927,W,0.08,147.89,280426,,,A*6F,0
1777416586496503860,$GPGGA,224858.000,1206.2578,S,07701.1927,W,1,05,1.6,154.2,M,8.3,M,,0000*68,0
1777416586497243258,$GPGSA,M,3,29,24,12,11,15,,,,,,,,2.7,1.6,2.2*36,0
1777416586497720259,$GPRMC,224858.000,A,1206.2578,S,07701.1927,W,0.24,147.89,280426,,,A*6E,0
1777416586498417455,$GPGGA,224859.000,1206.2578,S,07701.1927,W,1,05,1.6,154.6,M,8.3,M,,0000*6D,0
1777416586499092430,$GPGSA,M,3,29,24,12,11,15,,,,,,,,2.7,1.6,2.2*36,0
1777416586499574356,$GPRMC,224859.000,A,1206.2578,S,07701.1927,W,0.11,147.89,280426,,,A*69,0
1777416586500266367,$GPGGA,224900.000,1206.2578,S,07701.1927,W,1,04,1.8,154.9,M,8.3,M,,0000*60,0
1777416586500960341,$GPGSA,M,3,29,24,12,15,,,,,,,,,2.9,1.8,2.2*36,0
1777416586501377011,$GPRMC,224900.000,A,1206.2578,S,07701.1927,W,0.11,147.89,280426,,,A*64,0
1777416586502063633,$GPGGA,224901.000,1206.2578,S,07701.1927,W,1,04,1.8,155.1,M,8.3,M,,0000*68,0
1777416586502787162,$GPGSA,M,3,29,24,12,15,,,,,,,,,2.9,1.8,2.2*36,0
1777416586503236108,$GPRMC,224901.000,A,1206.2578,S,07701.1927,W,0.09,147.89,280426,,,A*6C,0
1777416586503458415,$GPGGA,224902.000,1206.2578,S,07701.1927,W,1,04,1.8,155.3,M,8.3,M,,0000*69,0
1777416586503656444,$GPGSA,M,3,29,24,12,15,,,,,,,,,2.9,1.8,2.2*36,0
1777416586503782532,$GPGSV,3,1,12,29,63,280,36,24,62,072,40,12,32,158,32,15,17,007,21*73,0
1777416586503961766,$GPGSV,3,2,12,44,42,284,41,14,54,280,,09,37,255,,11,24,116,*77,0
1777416586504229941,$GPGSV,3,3,12,04,12,341,,20,03,327,,05,02,047,,10,00,303,*79,0
1777416586504840178,$GPRMC,224902.000,A,1206.2578,S,07701.1927,W,0.10,147.89,280426,,,A*67,0
1777416586505546725,$GPGGA,224903.000,1206.2577,S,07701.1927,W,1,04,1.8,155.5,M,8.3,M,,0000*61,0
1777416586506211404,$GPGSA,M,3,29,24,12,15,,,,,,,,,2.9,1.8,2.2*36,0
1777416586506657184,$GPRMC,224903.000,A,1206.2577,S,07701.1927,W,0.06,147.89,280426,,,A*6E,0
1777416586507379453,$GPGGA,224904.000,1206.2577,S,07701.1927,W,1,04,1.8,155.5,M,8.3,M,,0000*66,0
1777416586508139184,$GPGSA,M,3,29,24,12,15,,,,,,,,,2.9,1.8,2.2*36,0
1777416586508605944,$GPRMC,224904.000,A,1206.2577,S,07701.1927,W,0.13,147.89,280426,,,A*6D,0
1777416586509324028,$GPGGA,224905.000,1206.2577,S,07701.1927,W,1,04,1.8,155.6,M,8.3,M,,0000*64,0
1777416586510081111,$GPGSA,M,3,29,24,12,15,,,,,,,,,2.9,1.8,2.2*36,0
1777416586510555908,$GPRMC,224905.000,A,1206.2577,S,07701.1927,W,0.17,147.89,280426,,,A*68,0
1777416586511247086,$GPGGA,224906.000,1206.2577,S,07701.1927,W,1,04,1.8,155.9,M,8.3,M,,0000*68,0
1777416586511419468,$GPGSA,M,3,29,24,12,15,,,,,,,,,2.9,1.8,2.2*36,0
1777416586511506410,$GPRMC,224906.000,A,1206.2577,S,07701.1927,W,0.15,147.89,280426,,,A*69,0
1777416586511638275,$GPGGA,224907.000,1206.2577,S,07701.1927,W,1,04,1.8,156.3,M,8.3,M,,0000*60,0
1777416586511778418,$GPGSA,M,3,29,24,12,15,,,,,,,,,2.9,1.8,2.2*36,0
1777416586511865433,$GPGSV,3,1,12,29,63,280,35,24,62,072,41,12,32,158,32,15,17,007,22*72,0
1777416586511993817,$GPGSV,3,2,12,44,42,284,41,14,54,280,,09,37,255,,11,24,116,*77,0
1777416586512111554,$GPGSV,3,3,12,04,12,341,,20,03,327,,05,02,047,,10,00,303,*79,0
1777416586512225901,$GPRMC,224907.000,A,1206.2577,S,07701.1927,W,0.13,147.89,280426,,,A*6E,0
1777416586512358396,$GPGGA,224908.000,1206.2577,S,07701.1927,W,1,04,1.8,156.6,M,8.3,M,,0000*6A,0
1777416586512498280,$GPGSA,M,3,29,24,12,15,,,,,,,,,2.9,1.8,2.2*36,0
1777416586512585092,$GPRMC,224908.000,A,1206.2577,S,07701.1927,W,0.08,147.89,280426,,,A*6B,0
1777416586512717661,$GPGGA,224909.000,1206.2577,S,07701.1927,W,1,04,1.8,156.8,M,8.3,M,,0000*65,0
1777416586512859674,$GPGSA,M,3,29,24,12,15,,,,,,,,,2.9,1.8,2.2*36,0
1777416586512946967,$GPRMC,224909.000,A,1206.2577,S,07701.1927,W,0.16,147.89,280426,,,A*65,0
1777416586513080388,$GPGGA,224910.000,1206.2577,S,07701.1927,W,1,04,1.8,157.2,M,8.3,M,,0000*66,0
1777416586513221179,$GPGSA,M,3,29,24,12,15,,,,,,,,,2.9,1.8,2.2*36,0
1777416586513308490,$GPRMC,224910.000,A,1206.2577,S,07701.1927,W,0.10,147.89,280426,,,A*6B,0
1777416586513441782,$GPGGA,224911.000,1206.2577,S,07701.1927,W,1,04,1.8,157.4,M,8.3,M,,0000*61,0
1777416586513582554,$GPGSA,M,3,29,24,12,15,,,,,,,,,2.9,1.8,2.2*36,0
1777416586513669829,$GPRMC,224911.000,A,1206.2577,S,07701.1927,W,0.06,147.89,280426,,,A*6D,0
1777416586513803176,$GPGGA,224912.000,1206.2578,S,07701.1927,W,1,04,1.8,157.8,M,8.3,M,,0000*61,0
1777416586513943911,$GPGSA,M,3,29,24,12,15,,,,,,,,,2.9,1.8,2.2*36,0
1777416586514030834,$GPGSV,3,1,12,29,63,280,35,24,62,072,41,12,32,158,33,15,17,007,23*72,0
1777416586514159903,$GPGSV,3,2,12,44,42,284,41,14,54,280,,09,37,255,,11,24,116,*77,0
1777416586514278176,$GPGSV,3,3,12,04,12,341,,20,03,327,,05,02,047,,10,00,303,*79,0
1777416586514392931,$GPRMC,224912.000,A,1206.2578,S,07701.1927,W,0.14,147.89,280426,,,A*62,0
1777416586514524982,$GPGGA,224913.000,1206.2579,S,07701.1927,W,1,04,1.8,158.4,M,8.3,M,,0000*62,0
1777416586514663680,$GPGSA,M,3,29,24,12,15,,,,,,,,,2.9,1.8,2.2*36,0
1777416586514749918,$GPRMC,224913.000,A,1206.2579,S,07701.1927,W,0.11,147.89,280426,,,A*67,0
1777416586514881543,$GPGGA,224914.000,1206.2579,S,07701.1927,W,1,04,1.8,159.0,M,8.3,M,,0000*60,0
1777416586515020519,$GPGSA,M,3,29,24,12,15,,,,,,,,,2.9,1.8,2.2*36,0
1777416586515106775,$GPRMC,224914.000,A,1206.2579,S,07701.1927,W,0.12,147.89,280426,,,A*63,0
1777416586515238437,$GPGGA,224915.000,1206.2580,S,07701.1927,W,1,04,1.8,159.5,M,8.3,M,,0000*62,0
1777416586516313822,$GPGSA,M,3,29,24,12,15,,,,,,,,,2.9,1.8,2.2*36,0
1777416586516812730,$GPRMC,224915.000,A,1206.2580,S,07701.1927,W,0.07,147.89,280426,,,A*60,0
1777416586517447558,$GPGGA,224916.000,1206.2580,S,07701.1927,W,1,04,1.8,159.8,M,8.3,M,,0000*6C,0
1777416586518220584,$GPGSA,M,3,29,24,12,15,,,,,,,,,2.9,1.8,2.2*36,0
1777416586518664438,$GPRMC,224916.000,A,1206.2580,S,07701.1927,W,0.09,147.89,280426,,,A*6D,0
1777416586519342246,$GPGGA,224917.000,1206.2580,S,07701.1927,W,1,04,1.8,159.9,M,8.3,M,,0000*6C,0
1777416586520032924,$GPGSA,M,3,29,24,12,15,,,,,,,,,2.9,1.8,2.2*36,0
1777416586520457093,$GPGSV,3,1,12,29,63,280,35,24,62,072,42,12,32,158,33,15,17,007,24*76,0
1777416586521087236,$GPGSV,3,2,12,44,42,284,41,14,54,280,,09,37,255,,11,24,116,*77,0
1777416586521663844,$GPGSV,3,3,12,04,12,341,,20,03,327,,05,02,047,,10,00,303,*79,0
1777416586522224138,$GPRMC,224917.000,A,1206.2580,S,07701.1927,W,0.07,147.89,280426,,,A*62,0
1777416586522872725,$GPGGA,224918.000,1206.2580,S,07701.1927,W,1,04,1.8,160.1,M,8.3,M,,0000*61,0
1777416586523570940,$GPGSA,M,3,29,24,12,15,,,,,,,,,2.9,1.8,2.2*36,0
1777416586524006516,$GPRMC,224918.000,A,1206.2580,S,07701.1927,W,0.08,147.89,280426,,,A*62,0
1777416586524652084,$GPGGA,224919.000,1206.2581,S,07701.1928,W,1,04,1.8,160.4,M,8.3,M,,0000*6B,0
1777416586525334485,$GPGSA,M,3,29,24,12,15,,,,,,,,,2.9,1.8,2.2*36,0
1777416586525756969,$GPRMC,224919.000,A,1206.2581,S,07701.1928,W,0.08,147.89,280426,,,A*6D,0
1777416586526362428,$GPGGA,224920.000,1206.2581,S,07701.1928,W,1,04,1.8,160.8,M,8.3,M,,0000*6D,0
1777416586526854669,$GPGSA,M,3,29,24,12,15,,,,,,,,,2.9,1.8,2.2*36,0
1777416586526943387,$GPRMC,224920.000,A,1206.2581,S,07701.1928,W,0.12,147.89,280426,,,A*6C,0
1777416586527077457,$GPGGA,224921.000,1206.2581,S,07701.1928,W,1,04,1.8,160.9,M,8.3,M,,0000*6D,0
1777416586527220099,$GPGSA,M,3,29,24,12,15,,,,,,,,,2.9,1.8,2.2*36,0
1777416586527540310,$GPRMC,224921.000,A,1206.2581,S,07701.1928,W,0.17,147.89,280426,,,A*68,0
1777416586528200155,$GPGGA,224922.000,1206.2581,S,07701.1928,W,1,04,1.8,161.1,M,8.3,M,,0000*67,0
1777416586528886315,$GPGSA,M,3,29,24,12,15,,,,,,,,,2.9,1.8,2.2*36,0
1777416586529298466,$GPGSV,3,1,12,29,63,277,34,24,61,069,42,12,32,157,33,15,16,008,25*76,0
1777416586529910554,$GPGSV,3,2,12,44,42,284,40,14,54,282,,09,37,257,,11,23,117,*70,0
1777416586530470163,$GPGSV,3,3,12,04,13,341,,20,03,328,,05,02,049,,10,00,305,*7F,0
1777416586530988569,$GPRMC,224922.000,A,1206.2581,S,07701.1928,W,0.16,147.89,280426,,,A*6A,0
1777416586531631268,$GPGGA,224923.000,1206.2581,S,07701.1928,W,1,04,1.8,161.4,M,8.3,M,,0000*63,0
1777416586532296724,$GPGSA,M,3,29,24,12,15,,,,,,,,,2.9,1.8,2.2*36,0
1777416586532683043,$GPRMC,224923.000,A,1206.2581,S,07701.1928,W,0.06,147.89,280426,,,A*6A,0
1777416586532818742,$GPGGA,224924.000,1206.2581,S,07701.1928,W,1,04,1.8,161.6,M,8.3,M,,0000*66,0
1777416586532961533,$GPGSA,M,3,29,24,12,15,,,,,,,,,2.9,1.8,2.2*36,0
1777416586533050344,$GPRMC,224924.000,A,1206.2581,S,07701.1928,W,0.15,147.89,280426,,,A*6F,0
1777416586533186154,$GPGGA,224925.000,1206.2582,S,07701.1929,W,1,04,1.8,162.0,M,8.3,M,,0000*60,0
1777416586533329482,$GPGSA,M,3,29,24,12,15,,,,,,,,,2.9,1.8,2.2*36,0
1777416586533418423,$GPRMC,224925.000,A,1206.2582,S,07701.1929,W,0.19,147.89,280426,,,A*60,0
1777416586533554214,$GPGGA,224926.000,1206.2582,S,07701.1929,W,1,04,1.8,162.4,M,8.3,M,,0000*67,0
1777416586533697561,$GPGSA,M,3,29,24,12,15,,,,,,,,,2.9,1.8,2.2*36,0
1777416586533786502,$GPRMC,224926.000,A,1206.2582,S,07701.1929,W,0.05,147.89,280426,,,A*6E,0
1777416586533922108,$GPGGA,224927.000,1206.2583,S,07701.1929,W,1,04,1.8,162.8,M,8.3,M,,0000*6B,0
1777416586534065195,$GPGSA,M,3,29,24,12,15,,,,,,,,,2.9,1.8,2.2*36,0
1777416586534153914,$GPGSV,3,1,12,29,63,277,34,24,61,069,42,12,32,157,34,15,16,008,26*72,0
1777416586534285502,$GPGSV,3,2,12,11,23,117,09,44,42,284,41,14,54,282,,09,37,257,*78,0
1777416586534409867,$GPGSV,3,3,12,04,13,341,,20,03,328,,05,02,049,,10,00,305,*7F,0
1777416586534526548,$GPRMC,224927.000,A,1206.2583,S,07701.1929,W,0.11,147.89,280426,,,A*6B,0
1777416586534662191,$GPGGA,224928.000,1206.2584,S,07701.1929,W,1,05,1.6,163.2,M,8.3,M,,0000*67,0
1777416586534805130,$GPGSA,M,3,29,24,12,11,15,,,,,,,,2.7,1.6,2.2*36,0
1777416586534897608,$GPRMC,224928.000,A,1206.2584,S,07701.1929,W,0.07,147.89,280426,,,A*64,0
1777416586535032974,$GPGGA,224929.000,1206.2584,S,07701.1929,W,1,05,1.6,163.6,M,8.3,M,,0000*62,0
1777416586535203319,$GPGSA,M,3,29,24,12,11,15,,,,,,,,2.7,1.6,2.2*36,0
1777416586535331611,$GPRMC,224929.000,A,1206.2584,S,07701.1929,W,0.11,147.89,280426,,,A*62,0
1777416586535477624,$GPGGA,224930.000,1206.2584,S,07701.1930,W,1,05,1.6,163.8,M,8.3,M,,0000*6C,0
1777416586535616674,$GPGSA,M,3,29,24,12,11,15,,,,,,,,2.7,1.6,2.2*36,0
1777416586535706708,$GPRMC,224930.000,A,1206.2584,S,07701.1930,W,0.17,147.89,280426,,,A*64,0
1777416586535839499,$GPGGA,224931.000,1206.2585,S,07701.1930,W,1,05,1.6,164.2,M,8.3,M,,0000*61,0
1777416586535979605,$GPGSA,M,3,29,24,12,11,15,,,,,,,,2.7,1.6,2.2*36,0
1777416586536070324,$GPRMC,224931.000,A,1206.2585,S,07701.1930,W,0.14,147.89,280426,,,A*67,0
1777416586536203041,$GPGGA,224932.000,1206.2585,S,07701.1930,W,1,05,1.6,164.4,M,8.3,M,,0000*64,0
1777416586536349739,$GPGSA,M,3,29,24,12,11,15,,,,,,,,2.7,1.6,2.2*36,0
1777416586536440069,$GPGSV,3,1,12,29,63,277,33,24,61,069,42,12,32,157,34,11,23,117,17*7A,0
1777416586536568009,$GPGSV,3,2,12,15,16,008,26,44,42,284,41,14,54,282,,09,37,257,*78,0
1777416586536690078,$GPGSV,3,3,12,04,13,341,,20,03,328,,05,02,049,,10,00,305,*7F,0
1777416586536805000,$GPRMC,224932.000,A,1206.2585,S,07701.1930,W,0.06,147.89,280426,,,A*67,0
1777416586536938754,$GPGGA,224933.000,1206.2585,S,07701.1931,W,1,05,1.6,164.7,M,8.3,M,,0000*67,0
1777416586537077823,$GPGSA,M,3,29,24,12,11,15,,,,,,,,2.7,1.6,2.2*36,0
1777416586537167634,$GPRMC,224933.000,A,1206.2585,S,07701.1931,W,0.10,147.89,280426,,,A*60,0
1777416586537300203,$GPGGA,224934.000,1206.2586,S,07701.1931,W,1,05,1.6,165.2,M,8.3,M,,0000*67,0
1777416586537439791,$GPGSA,M,3,29,24,12,11,15,,,,,,,,2.7,1.6,2.2*36,0
1777416586537529769,$GPRMC,224934.000,A,1206.2586,S,07701.1931,W,0.05,147.89,280426,,,A*60,0
1777416586537662023,$GPGGA,224935.000,1206.2587,S,07701.1931,W,1,05,1.6,165.7,M,8.3,M,,0000*62,0
1777416586537801055,$GPGSA,M,3,29,24,12,11,15,,,,,,,,2.7,1.6,2.2*36,0
1777416586537890978,$GPRMC,224935.000,A,1206.2587,S,07701.1931,W,0.11,147.89,280426,,,A*65,0
1777416586538023213,$GPGGA,224936.000,1206.2587,S,07701.1931,W,1,05,1.6,165.9,M,8.3,M,,0000*6F,0
1777416586538162116,$GPGSA,M,3,29,24,12,11,15,,,,,,,,2.7,1.6,2.2*36,0
1777416586538251872,$GPRMC,224936.000,A,1206.2587,S,07701.1931,W,0.13,147.89,280426,,,A*64,0
1777416586538383496,$GPGGA,224937.000,1206.2587,S,07701.1932,W,1,05,1.6,166.1,M,8.3,M,,0000*66,0
1777416586538523158,$GPGSA,M,3,29,24,12,11,15,,,,,,,,2.7,1.6,2.2*36,0
1777416586538613821,$GPGSV,3,1,12,29,63,277,33,24,61,069,43,12,32,157,34,11,23,117,18*74,0
1777416586538742946,$GPGSV,3,2,12,15,16,008,26,44,42,284,40,14,54,282,,09,37,257,*79,0
1777416586538864256,$GPGSV,3,3,12,04,13,341,,20,03,328,,05,02,049,,10,00,305,*7F,0
1777416586538978770,$GPRMC,224937.000,A,1206.2587,S,07701.1932,W,0.21,147.89,280426,,,A*67,0
1777416586539111525,$GPGGA,224938.000,1206.2587,S,07701.1932,W,1,05,1.6,166.3,M,8.3,M,,0000*6B,0
1777416586539251705,$GPGSA,M,3,29,24,12,11,15,,,,,,,,2.7,1.6,2.2*36,0
1777416586539397292,$GPRMC,224938.000,A,1206.2587,S,07701.1932,W,0.14,147.89,280426,,,A*6E,0
1777416586539530157,$GPGGA,224939.000,1206.2588,S,07701.1932,W,1,05,1.6,166.6,M,8.3,M,,0000*60,0
1777416586539670226,$GPGSA,M,3,29,24,12,11,15,,,,,,,,2.7,1.6,2.2*36,0
1777416586539759982,$GPRMC,224939.000,A,1206.2588,S,07701.1932,W,0.16,147.89,280426,,,A*62,0
1777416586539893977,$GPGGA,224940.000,1206.2588,S,07701.1933,W,1,05,1.6,166.8,M,8.3,M,,0000*61,0
1777416586540035009,$GPGSA,M,3,29,24,12,11,15,,,,,,,,2.7,1.6,2.2*36,0
1777416586540126227,$GPRMC,224940.000,A,1206.2588,S,07701.1933,W,0.16,147.89,280426,,,A*6D,0
1777416586540259963,$GPGGA,224941.000,1206.2589,S,07701.1933,W,1,05,1.6,167.1,M,8.3,M,,0000*69,0
1777416586540401050,$GPGSA,M,3,29,24,12,11,15,,,,,,,,2.7,1.6,2.2*36,0
1777416586540491806,$GPRMC,224941.000,A,1206.2589,S,07701.1933,W,0.16,147.89,280426,,,A*6D,0
1777416586540625116,$GPGGA,224942.000,1206.2589,S,07701.1933,W,1,05,1.6,167.4,M,8.3,M,,0000*6F,0
1777416586540766074,$GPGSA,M,3,29,24,12,11,15,,,,,,,,2.7,1.6,2.2*36,0
1777416586540856867,$GPGSV,3,1,12,29,63,277,34,24,61,069,37,12,32,157,34,11,23,117,20*7B,0
1777416586541002880,$GPGSV,3,2,12,15,16,008,27,44,42,284,41,14,54,282,,09,37,257,*79,0
1777416586541125671,$GPGSV,3,3,12,04,13,341,,20,03,328,,05,02,049,,10,00,305,*7F,0
1777416586541241371,$GPRMC,224942.000,A,1206.2589,S,07701.1933,W,0.13,147.89,280426,,,A*6B,0
1777416586541375366,$GPGGA,224943.000,1206.2590,S,07701.1933,W,1,05,1.6,168.0,M,8.3,M,,0000*6D,0
1777416586541516601,$GPGSA,M,3,29,24,12,11,15,,,,,,,,2.7,1.6,2.2*36,0
1777416586541608153,$GPRMC,224943.000,A,1206.2590,S,07701.1933,W,0.07,147.89,280426,,,A*67,0
1777416586541742685,$GPGGA,224944.000,1206.2591,S,07701.1933,W,1,05,1.6,168.4,M,8.3,M,,0000*6F,0
1777416586541882717,$GPGSA,M,3,29,24,12,11,15,,,,,,,,2.7,1.6,2.2*36,0
1777416586541973288,$GPRMC,224944.000,A,1206.2591,S,07701.1933,W,0.10,147.89,280426,,,A*67,0
1777416586542106987,$GPGGA,224945.000,1206.2592,S,07701.1933,W,1,05,1.6,168.7,M,8.3,M,,0000*6E,0
1777416586542248352,$GPGSA,M,3,29,24,12,11,15,,,,,,,,2.7,1.6,2.2*36,0
1777416586542339663,$GPRMC,224945.000,A,1206.2592,S,07701.1933,W,0.13,147.89,280426,,,A*66,0
1777416586542473899,$GPGGA,224946.000,1206.2592,S,07701.1933,W,1,05,1.6,169.0,M,8.3,M,,0000*6B,0
1777416586542618579,$GPGSA,M,3,29,24,12,11,15,,,,,,,,2.7,1.6,2.2*36,0
1777416586576577344,$GPRMC,224946.000,A,1206.2592,S,07701.1933,W,0.07,147.89,280426,,,A*60,0
1777416587272999296,$GPGGA,224947.000,1206.2593,S,07701.1934,W,1,05,1.6,169.3,M,8.3,M,,0000*6F,0
1777416587385357620,$GPGSA,M,3,29,24,12,11,15,,,,,,,,2.7,1.6,2.2*36,0
1777416587545692348,$GPGSV,3,1,12,29,63,277,35,24,61,069,37,12,32,157,33,11,23,117,21*7C,0
1777416587696912140,$GPGSV,3,2,12,15,16,008,27,44,42,284,41,14,54,282,,09,37,257,*79,0
1777416587838998534,$GPGSV,3,3,12,04,13,341,,20,03,328,,05,02,049,,10,00,305,*7F,0
1777416588003960626,$GPRMC,224947.000,A,1206.2593,S,07701.1934,W,0.07,147.89,280426,,,A*67,0
1777416588273721436,$GPGGA,224948.000,1206.2593,S,07701.1934,W,1,05,1.6,169.5,M,8.3,M,,0000*66,0
1777416588386057197,$GPGSA,M,3,29,24,12,11,15,,,,,,,,2.7,1.6,2.2*36,0
1777416588551006407,$GPRMC,224948.000,A,1206.2593,S,07701.1934,W,0.13,147.89,280426,,,A*6D,0
1777416589268894715,$GPGGA,224949.000,1206.2594,S,07701.1934,W,1,05,1.6,169.8,M,8.3,M,,0000*6D,0
1777416589381167712,$GPGSA,M,3,29,24,12,11,15,,,,,,,,2.7,1.6,2.2*36,0
1777416589546120818,$GPRMC,224949.000,A,1206.2594,S,07701.1934,W,0.07,147.89,280426,,,A*6E,0
1777416590269253268,$GPGGA,224950.000,1206.2594,S,07701.1934,W,1,05,1.6,169.9,M,8.3,M,,0000*64,0
1777416590381570163,$GPGSA,M,3,29,24,12,11,15,,,,,,,,2.7,1.6,2.2*36,0
1777416590546525091,$GPRMC,224950.000,A,1206.2594,S,07701.1934,W,0.08,147.89,280426,,,A*69,0
1777416591272914184,$GPGGA,224951.000,1206.2594,S,07701.1934,W,1,05,1.6,170.1,M,8.3,M,,0000*65,0
1777416591385274514,$GPGSA,M,3,29,24,12,11,15,,,,,,,,2.7,1.6,2.2*36,0
1777416591550176748,$GPRMC,224951.000,A,1206.2594,S,07701.1934,W,0.16,147.89,280426,,,A*67,1
1777416592273280453,$GPGGA,224952.000,1206.2594,S,07701.1935,W,1,05,1.6,170.1,M,8.3,M,,0000*67,1
1777416592385550390,$GPGSA,M,3,29,24,12,11,15,,,,,,,,2.7,1.6,2.2*36,1
1777416592545923302,$GPGSV,3,1,12,29,63,277,35,24,61,069,37,12,32,157,33,11,23,117,22*7F,1
1777416592697191930,$GPGSV,3,2,12,15,16,008,27,44,42,284,39,14,54,282,,09,37,257,*76,1
1777416592839300590,$GPGSV,3,3,12,04,13,341,,20,03,328,,05,02,049,,10,00,305,*7F,1
1777416593004239033,$GPRMC,224952.000,A,1206.2594,S,07701.1935,W,0.15,147.89,280426,,,A*66,1
1777416593301076355,$GPGGA,224953.000,1206.2594,S,07701.1935,W,1,05,1.6,170.3,M,8.3,M,,0000*64,1
1777416593413336933,$GPGSA,M,3,29,24,12,11,15,,,,,,,,2.7,1.6,2.2*36,1
1777416593578348419,$GPRMC,224953.000,A,1206.2594,S,07701.1935,W,0.25,147.89,280426,,,A*64,1
1777416594272888665,$GPGGA,224954.000,1206.2594,S,07701.1935,W,1,05,1.6,170.3,M,8.3,M,,0000*63,1
1777416594385182734,$GPGSA,M,3,29,24,12,11,15,,,,,,,,2.7,1.6,2.2*36,1
1777416594550140322,$GPRMC,224954.000,A,1206.2594,S,07701.1935,W,0.14,147.89,280426,,,A*61,1
1777416595272363138,$GPGGA,224955.000,1206.2594,S,07701.1935,W,1,05,1.6,170.3,M,8.3,M,,0000*62,1
1777416595384673977,$GPGSA,M,3,29,24,12,11,15,,,,,,,,2.7,1.6,2.2*36,1
1777416595549632128,$GPRMC,224955.000,A,1206.2594,S,07701.1935,W,0.24,147.89,280426,,,A*63,1
1777416596268530598,$GPGGA,224956.000,1206.2594,S,07701.1935,W,1,05,1.6,170.2,M,8.3,M,,0000*60,1
1777416596380930407,$GPGSA,M,3,29,24,12,11,15,,,,,,,,2.7,1.6,2.2*36,1
1777416596545797977,$GPRMC,224956.000,A,1206.2594,S,07701.1935,W,0.14,147.89,280426,,,A*63,1
1777416597271822832,$GPGGA,224957.000,1206.2594,S,07701.1936,W,1,05,1.6,170.1,M,8.3,M,,0000*61,1
1777416597384093954,$GPGSA,M,3,29,24,12,11,15,,,,,,,,2.7,1.6,2.2*36,1
1777416597544465611,$GPGSV,3,1,12,29,63,277,36,24,61,069,38,12,32,157,34,11,23,117,21*77,1
1777416597695743337,$GPGSV,3,2,12,15,16,008,27,44,42,284,40,14,54,282,,09,37,257,*78,1
1777416597837755694,$GPGSV,3,3,12,04,13,341,,20,03,328,,05,02,049,,10,00,305,*7F,1
1777416598002783654,$GPRMC,224957.000,A,1206.2594,S,07701.1936,W,0.08,147.89,280426,,,A*6C,1
1777416598271926975,$GPGGA,224958.000,1206.2594,S,07701.1936,W,1,05,1.6,170.1,M,8.3,M,,0000*6E,1
1777416598384209960,$GPGSA,M,3,29,24,12,11,15,,,,,,,,2.7,1.6,2.2*36,1
1777416598549168635,$GPRMC,224958.000,A,1206.2594,S,07701.1936,W,0.14,147.89,280426,,,A*6E,1
1777416599272246435,$GPGGA,224959.000,1206.2593,S,07701.1937,W,1,05,1.6,170.0,M,8.3,M,,0000*68,1
1777416599384557652,$GPGSA,M,3,29,24,12,11,15,,,,,,,,2.7,1.6,2.2*36,1
1777416599549514928,$GPRMC,224959.000,A,1206.2593,S,07701.1937,W,0.13,147.89,280426,,,A*6E,1
1777416600272607848,$GPGGA,225000.000,1206.2593,S,07701.1937,W,1,05,1.6,170.0,M,8.3,M,,0000*6C,1
1777416600384861820,$GPGSA,M,3,29,24,12,11,15,,,,,,,,2.7,1.6,2.2*36,1
1777416600549858120,$GPRMC,225000.000,A,1206.2593,S,07701.1937,W,0.19,147.89,280426,,,A*60,1
1777416601271648860,$GPGGA,225001.000,1206.2593,S,07701.1937,W,1,05,1.6,169.9,M,8.3,M,,0000*6C,1
1777416601383964434,$GPGSA,M,3,29,24,12,11,15,,,,,,,,2.7,1.6,2.2*36,1
1777416601548917726,$GPRMC,225001.000,A,1206.2593,S,07701.1937,W,0.18,147.89,280426,,,A*60,1
1777416602272195326,$GPGGA,225002.000,1206.2592,S,07701.1937,W,1,05,1.6,169.9,M,8.3,M,,0000*6E,1
1777416602384584408,$GPGSA,M,3,29,24,12,11,15,,,,,,,,2.7,1.6,2.2*36,1
1777416602544905294,$GPGSV,3,1,12,29,63,277,37,24,61,069,38,12,32,157,34,11,23,117,21*76,1
1777416602696095827,$GPGSV,3,2,12,15,16,008,26,44,42,284,40,14,54,282,,09,37,257,*79,1
1777416602838173063,$GPGSV,3,3,12,04,13,341,,20,03,328,,05,02,049,,10,00,305,*7F,1
1777416603003208378,$GPRMC,225002.000,A,1206.2592,S,07701.1937,W,0.11,147.89,280426,,,A*6B,1
1777416603272928722,$GPGGA,225003.000,1206.2593,S,07701.1938,W,1,05,1.6,170.1,M,8.3,M,,0000*61,1
1777416603385226134,$GPGSA,M,3,29,24,12,11,15,,,,,,,,2.7,1.6,2.2*36,1
1777416603550198201,$GPRMC,225003.000,A,1206.2593,S,07701.1938,W,0.12,147.89,280426,,,A*67,1
1777416604272228650,$GPGGA,225004.000,1206.2592,S,07701.1938,W,1,05,1.6,169.9,M,8.3,M,,0000*67,1
1777416604384544202,$GPGSA,M,3,29,24,12,11,15,,,,,,,,2.7,1.6,2.2*36,1
1777416604549497778,$GPRMC,225004.000,A,1206.2592,S,07701.1938,W,0.11,147.89,280426,,,A*62,1
1777416605272150751,$GPGGA,225005.000,1206.2592,S,07701.1938,W,1,05,1.6,169.7,M,8.3,M,,0000*68,1
1777416605384463445,$GPGSA,M,3,29,24,12,11,15,,,,,,,,2.7,1.6,2.2*36,1
1777416605549421677,$GPRMC,225005.000,A,1206.2592,S,07701.1938,W,0.06,147.89,280426,,,A*65,1
1777416606272507664,$GPGGA,225006.000,1206.2592,S,07701.1939,W,1,05,1.6,169.6,M,8.3,M,,0000*6B,1
1777416606384754446,$GPGSA,M,3,29,24,12,11,15,,,,,,,,2.7,1.6,2.2*36,1
1777416606549770352,$GPRMC,225006.000,A,1206.2592,S,07701.1939,W,0.16,147.89,280426,,,A*66,1
1777416607272440496,$GPGGA,225007.000,1206.2592,S,07701.1939,W,1,05,1.6,169.5,M,8.3,M,,0000*69,1
1777416607384690735,$GPGSA,M,3,29,24,12,11,15,,,,,,,,2.7,1.6,2.2*36,1
1777416607545156010,$GPGSV,3,1,12,29,63,277,37,24,61,069,38,12,32,157,34,11,23,117,20*77,1
1777416607696344035,$GPGSV,3,2,12,15,16,008,26,44,42,284,40,14,54,282,,09,37,257,*79,1
1777416607838367193,$GPGSV,3,3,12,04,13,341,,20,03,328,,05,02,049,,10,00,305,*7F,1
1777416608003394532,$GPRMC,225007.000,A,1206.2592,S,07701.1939,W,0.19,147.89,280426,,,A*68,1
1777416608299204985,$GPGGA,225008.000,1206.2591,S,07701.1939,W,1,05,1.6,169.4,M,8.3,M,,0000*64,1
1777416608411248485,$GPGSA,M,3,29,24,12,11,15,,,,,,,,2.7,1.6,2.2*36,1
1777416608576268926,$GPRMC,225008.000,A,1206.2591,S,07701.1939,W,0.14,147.89,280426,,,A*69,1
1777416609271215506,$GPGGA,225009.000,1206.2591,S,07701.1939,W,1,05,1.6,169.4,M,8.3,M,,0000*65,1
1777416609383473972,$GPGSA,M,3,29,24,12,11,15,,,,,,,,2.7,1.6,2.2*36,1
1777416609548435368,$GPRMC,225009.000,A,1206.2591,S,07701.1939,W,0.13,147.89,280426,,,A*6F,1
1777416610298576925,$GPGGA,225010.000,1206.2591,S,07701.1939,W,1,05,1.6,169.3,M,8.3,M,,0000*6A,1
1777416610410896049,$GPGSA,M,3,29,24,12,11,15,,,,,,,,2.7,1.6,2.2*36,1
1777416610575853399,$GPRMC,225010.000,A,1206.2591,S,07701.1939,W,0.10,147.89,280426,,,A*64,1
1777416611271876911,$GPGGA,225011.000,1206.2591,S,07701.1940,W,1,05,1.6,169.1,M,8.3,M,,0000*67,1
1777416611384121106,$GPGSA,M,3,29,24,12,11,15,,,,,,,,2.7,1.6,2.2*36,1
1777416611549144499,$GPRMC,225011.000,A,1206.2591,S,07701.1940,W,0.20,147.89,280426,,,A*68,1
1777416612268476877,$GPGGA,225012.000,1206.2591,S,07701.1940,W,1,05,1.6,168.9,M,8.3,M,,0000*6D,1
1777416612380750711,$GPGSA,M,3,29,24,12,11,15,,,,,,,,2.7,1.6,2.2*36,1
1777416612541133592,$GPGSV,3,1,12,29,63,277,37,24,61,069,39,12,32,157,34,11,23,117,18*7D,1
1777416612692326091,$GPGSV,3,2,12,15,16,008,26,44,42,284,41,14,54,282,,09,37,257,*78,1
1777416612834403501,$GPGSV,3,3,12,04,13,341,,20,03,328,,05,02,049,,10,00,305,*7F,1
1777416612999434144,$GPRMC,225012.000,A,1206.2591,S,07701.1940,W,0.14,147.89,280426,,,A*6C,1
1777416613271085291,$GPGGA,225013.000,1206.2591,S,07701.1940,W,1,05,1.6,169.0,M,8.3,M,,0000*64,1
1777416613383340657,$GPGSA,M,3,29,24,12,11,15,,,,,,,,2.7,1.6,2.2*36,1
1777416613548294701,$GPRMC,225013.000,A,1206.2591,S,07701.1940,W,0.11,147.89,280426,,,A*68,1
1777416614298446566,$GPGGA,225014.000,1206.2591,S,07701.1940,W,1,05,1.6,168.9,M,8.3,M,,0000*6B,1
1777416614410767849,$GPGSA,M,3,29,24,12,11,15,,,,,,,,2.7,1.6,2.2*36,1
1777416614575784585,$GPRMC,225014.000,A,1206.2591,S,07701.1940,W,0.09,147.89,280426,,,A*66,1
1777416615272557946,$GPGGA,225015.000,1206.2591,S,07701.1940,W,1,05,1.6,168.9,M,8.3,M,,0000*6A,1
1777416615384872760,$GPGSA,M,3,29,24,12,11,15,,,,,,,,2.7,1.6,2.2*36,1
1777416615549830064,$GPRMC,225015.000,A,1206.2591,S,07701.1940,W,0.14,147.89,280426,,,A*6B,1
1777416616272118792,$GPGGA,225016.000,1206.2591,S,07701.1940,W,1,05,1.6,168.9,M,8.3,M,,0000*69,1
1777416616384308827,$GPGSA,M,3,29,24,12,11,15,,,,,,,,2.7,1.6,2.2*36,1
1777416616549313656,$GPRMC,225016.000,A,1206.2591,S,07701.1940,W,0.23,147.89,280426,,,A*6C,1
1777416617272414330,$GPGGA,225017.000,1206.2591,S,07701.1941,W,1,05,1.6,168.9,M,8.3,M,,0000*69,1
1777416617384639228,$GPGSA,M,3,29,24,12,11,15,,,,,,,,2.7,1.6,2.2*36,1
1777416617545042896,$GPGSV,3,1,12,29,63,277,37,24,61,069,39,12,32,157,34,11,23,117,18*7D,1
1777416617696326015,$GPGSV,3,2,12,15,16,008,25,44,42,284,40,14,54,282,,09,37,257,*7A,1
1777416617838398979,$GPGSV,3,3,12,04,13,341,,20,03,328,,05,02,049,,10,00,305,*7F,1
1777416618003368022,$GPRMC,225017.000,A,1206.2591,S,07701.1941,W,0.00,147.89,280426,,,A*6D,1
1777416618271881180,$GPGGA,225018.000,1206.2592,S,07701.1941,W,1,05,1.6,168.9,M,8.3,M,,0000*65,1
1777416618384133922,$GPGSA,M,3,29,24,12,11,15,,,,,,,,2.7,1.6,2.2*36,1
1777416618549218008,$GPRMC,225018.000,A,1206.2592,S,07701.1941,W,0.13,147.89,280426,,,A*63,1
1777416619271449415,$GPGGA,225019.000,1206.2592,S,07701.1941,W,1,05,1.6,169.0,M,8.3,M,,0000*6C,1
1777416619383684670,$GPGSA,M,3,29,24,12,11,15,,,,,,,,2.7,1.6,2.2*36,1
1777416619548648696,$GPRMC,225019.000,A,1206.2592,S,07701.1941,W,0.16,147.89,280426,,,A*67,1
1777416620268171412,$GPGGA,225020.000,1206.2592,S,07701.1941,W,1,05,1.6,169.1,M,8.3,M,,0000*67,1
1777416620380416605,$GPGSA,M,3,29,24,12,11,15,,,,,,,,2.7,1.6,2.2*36,1
1777416620545433120,$GPRMC,225020.000,A,1206.2592,S,07701.1941,W,0.18,147.89,280426,,,A*63,1
1777416621271667217,$GPGGA,225021.000,1206.2593,S,07701.1941,W,1,05,1.6,169.2,M,8.3,M,,0000*64,1
1777416621383911460,$GPGSA,M,3,29,24,12,11,15,,,,,,,,2.7,1.6,2.2*36,1
1777416621548861728,$GPRMC,225021.000,A,1206.2593,S,07701.1941,W,0.19,147.89,280426,,,A*62,1
1777416622271947615,$GPGGA,225022.000,1206.2593,S,07701.1941,W,1,05,1.6,169.2,M,8.3,M,,0000*67,1
1777416622384219943,$GPGSA,M,3,29,24,12,11,15,,,,,,,,2.7,1.6,2.2*36,1
1777416622544632345,$GPGSV,3,1,12,29,63,277,37,24,61,069,38,12,32,157,33,11,23,117,17*74,1
1777416622695841760,$GPGSV,3,2,12,15,16,008,22,44,42,284,41,14,54,282,,09,37,257,*7C,1
1777416622837932703,$GPGSV,3,3,12,04,13,341,,20,03,328,,05,02,049,,10,00,305,*7F,1
1777416623002909220,$GPRMC,225022.000,A,1206.2593,S,07701.1941,W,0.14,147.89,280426,,,A*6C,1
1777416623271422121,$GPGGA,225023.000,1206.2593,S,07701.1941,W,1,05,1.6,169.1,M,8.3,M,,0000*65,1
1777416623383715127,$GPGSA,M,3,29,24,12,11,15,,,,,,,,2.7,1.6,2.2*36,1
1777416623548689247,$GPRMC,225023.000,A,1206.2593,S,07701.1941,W,0.18,147.89,280426,,,A*61,1
1777416624298676155,$GPGGA,225024.000,1206.2593,S,07701.1941,W,1,05,1.6,169.1,M,8.3,M,,0000*62,1
1777416624410909788,$GPGSA,M,3,29,24,12,11,15,,,,,,,,2.7,1.6,2.2*36,1
1777416624575899658,$GPRMC,225024.000,A,1206.2593,S,07701.1941,W,0.21,147.89,280426,,,A*6C,1
1777416625270845419,$GPGGA,225025.000,1206.2593,S,07701.1941,W,1,05,1.6,169.1,M,8.3,M,,0000*63,1
1777416625383123452,$GPGSA,M,3,29,24,12,11,15,,,,,,,,2.7,1.6,2.2*36,1
1777416625548122406,$GPRMC,225025.000,A,1206.2593,S,07701.1941,W,0.13,147.89,280426,,,A*6C,1
1777416626267639654,$GPGGA,225026.000,1206.2594,S,07701.1942,W,1,05,1.6,169.2,M,8.3,M,,0000*67,1
1777416626379921718,$GPGSA,M,3,29,24,12,11,15,,,,,,,,2.7,1.6,2.2*36,1
1777416626545029547,$GPRMC,225026.000,A,1206.2594,S,07701.1942,W,0.08,147.89,280426,,,A*61,1
1777416627271511555,$GPGGA,225027.000,1206.2594,S,07701.1942,W,1,05,1.6,169.2,M,8.3,M,,0000*66,1
1777416627383794668,$GPGSA,M,3,29,24,12,11,15,,,,,,,,2.7,1.6,2.2*36,1
1777416627544196381,$GPGSV,3,1,12,29,63,277,37,24,61,069,38,12,32,157,32,11,23,117,16*74,1
1777416627695424478,$GPGSV,3,2,12,15,16,008,22,44,42,284,41,14,54,282,,09,37,257,*7C,1
1777416627837498052,$GPGSV,3,3,12,04,13,341,,20,03,328,,05,02,049,,10,00,305,*7F,1
1777416628002481859,$GPRMC,225027.000,A,1206.2594,S,07701.1942,W,0.21,147.89,280426,,,A*6B,1
1777416628271204293,$GPGGA,225028.000,1206.2595,S,07701.1942,W,1,05,1.6,169.4,M,8.3,M,,0000*6E,1
1777416628383483734,$GPGSA,M,3,29,24,12,11,15,,,,,,,,2.7,1.6,2.2*36,1
1777416628548490163,$GPRMC,225028.000,A,1206.2595,S,07701.1942,W,0.15,147.89,280426,,,A*62,1
1777416629271342278,$GPGGA,225029.000,1206.2595,S,07701.1942,W,1,05,1.6,169.5,M,8.3,M,,0000*6E,1
1777416629383605992,$GPGSA,M,3,29,24,12,11,15,,,,,,,,2.7,1.6,2.2*36,1
1777416629548593616,$GPRMC,225029.000,A,1206.2595,S,07701.1942,W,0.23,147.89,280426,,,A*66,1
1777416630271868716,$GPGGA,225030.000,1206.2595,S,07701.1942,W,1,05,1.6,169.6,M,8.3,M,,0000*65,1
1777416630384142646,$GPGSA,M,3,29,24,12,11,15,,,,,,,,2.7,1.6,2.2*36,1
1777416630549116355,$GPRMC,225030.000,A,1206.2595,S,07701.1942,W,0.19,147.89,280426,,,A*67,1
1777416631268034612,$GPGGA,225031.000,1206.2596,S,07701.1942,W,1,05,1.6,169.7,M,8.3,M,,0000*66,1
1777416631380317740,$GPGSA,M,3,29,24,12,11,15,,,,,,,,2.7,1.6,2.2*36,1
1777416631545277627,$GPRMC,225031.000,A,1206.2596,S,07701.1942,W,0.27,147.89,280426,,,A*68,1
1777416632267735558,$GPGGA,225032.000,1206.2596,S,07701.1942,W,1,05,1.6,169.7,M,8.3,M,,0000*65,1
1777416632380004515,$GPGSA,M,3,29,24,12,11,15,,,,,,,,2.7,1.6,2.2*36,1
1777416632540416798,$GPGSV,3,1,12,29,63,277,37,24,61,069,38,12,32,157,31,11,23,117,16*77,1
1777416632691648394,$GPGSV,3,2,12,15,16,008,21,44,42,284,41,14,54,282,,09,37,257,*7F,1
1777416632833717822,$GPGSV,3,3,12,04,13,341,,20,03,328,,05,02,049,,10,00,305,*7F,1
1777416632998716162,$GPRMC,225032.000,A,1206.2596,S,07701.1942,W,0.14,147.89,280426,,,A*6B,1
1777416633270352820,$GPGGA,225033.000,1206.2597,S,07701.1942,W,1,05,1.6,169.9,M,8.3,M,,0000*6B,1
1777416633382627141,$GPGSA,M,3,29,24,12,11,15,,,,,,,,2.7,1.6,2.2*36,1
1777416633547607844,$GPRMC,225033.000,A,1206.2597,S,07701.1942,W,0.14,147.89,280426,,,A*6B,1
1777416634271517054,$GPGGA,225034.000,1206.2598,S,07701.1942,W,1,05,1.6,170.1,M,8.3,M,,0000*63,1
1777416634383812999,$GPGSA,M,3,29,24,12,11,15,,,,,,,,2.7,1.6,2.2*36,1
1777416634548781657,$GPRMC,225034.000,A,1206.2598,S,07701.1942,W,0.06,147.89,280426,,,A*60,1
1777416635298931312,$GPGGA,225035.000,1206.2598,S,07701.1942,W,1,05,1.6,170.3,M,8.3,M,,0000*60,1
1777416635411211178,$GPGSA,M,3,29,24,12,11,15,,,,,,,,2.7,1.6,2.2*36,1
1777416635576208216,$GPRMC,225035.000,A,1206.2598,S,07701.1942,W,0.08,147.89,280426,,,A*6F,1
1777416636268418170,$GPGGA,225036.000,1206.2599,S,07701.1942,W,1,05,1.6,170.5,M,8.3,M,,0000*64,1
1777416636380712715,$GPGSA,M,3,29,24,12,11,15,,,,,,,,2.7,1.6,2.2*36,1
1777416636545701654,$GPRMC,225036.000,A,1206.2599,S,07701.1942,W,0.03,147.89,280426,,,A*66,1
1777416637270437745,$GPGGA,225037.000,1206.2600,S,07701.1942,W,1,05,1.6,170.6,M,8.3,M,,0000*65,1
1777416637382707285,$GPGSA,M,3,29,24,12,11,15,,,,,,,,2.7,1.6,2.2*36,1
1777416637543098716,$GPGSV,3,1,12,29,63,277,36,24,61,069,38,12,32,157,31,11,23,117,18*78,1
1777416637694427921,$GPGSV,3,2,12,15,16,008,21,44,42,284,40,14,54,282,,09,37,257,*7E,1
1777416637836442890,$GPGSV,3,3,12,04,13,341,,20,03,328,,05,02,049,,10,00,305,*7F,1
1777416638001471948,$GPRMC,225037.000,A,1206.2600,S,07701.1942,W,0.05,147.89,280426,,,A*62,1
1777416638293049069,$GPGGA,225038.000,1206.2601,S,07701.1943,W,1,05,1.6,170.8,M,8.3,M,,0000*64,1
1777416638405335974,$GPGSA,M,3,29,24,12,11,15,,,,,,,,2.7,1.6,2.2*36,1
1777416638570314138,$GPRMC,225038.000,A,1206.2601,S,07701.1943,W,0.16,147.89,280426,,,A*6F,1
1777416639296095877,$GPGGA,225039.000,1206.2601,S,07701.1943,W,1,04,3.4,170.8,M,8.3,M,,0000*64,1
1777416639403795648,$GPGSA,M,3,29,24,12,11,,,,,,,,,7.4,3.4,6.6*34,1
1777416639568769249,$GPRMC,225039.000,A,1206.2601,S,07701.1943,W,0.14,147.89,280426,,,A*6C,1
1777416640269131336,$GPGGA,225040.000,1206.2601,S,07701.1943,W,1,04,3.4,170.7,M,8.3,M,,0000*65,1
1777416640376849786,$GPGSA,M,3,29,24,12,11,,,,,,,,,7.5,3.4,6.6*35,1
1777416640541810713,$GPRMC,225040.000,A,1206.2601,S,07701.1943,W,0.18,147.89,280426,,,A*6E,1
1777416641269062178,$GPGGA,225041.000,1206.2601,S,07701.1943,W,1,04,3.4,170.7,M,8.3,M,,0000*64,1
1777416641376725533,$GPGSA,M,3,29,24,12,11,,,,,,,,,7.5,3.4,6.6*35,1
1777416641541723044,$GPRMC,225041.000,A,1206.2601,S,07701.1943,W,0.14,147.89,280426,,,A*63,1
1777416642269800665,$GPGGA,225042.000,1206.2601,S,07701.1943,W,1,04,3.4,170.6,M,8.3,M,,0000*66,1
1777416642377486273,$GPGSA,M,3,29,24,12,11,,,,,,,,,7.5,3.4,6.6*35,1
1777416642537945053,$GPGSV,3,1,12,29,63,277,36,24,61,069,39,12,32,157,31,11,23,117,19*78,1
1777416642689108174,$GPGSV,3,2,12,15,16,008,06,44,42,284,40,14,54,282,,09,37,257,*7B,1
1777416642831185830,$GPGSV,3,3,12,04,13,341,,20,03,328,,05,02,049,,10,00,305,*7F,1
1777416642996190852,$GPRMC,225042.000,A,1206.2601,S,07701.1943,W,0.16,147.89,280426,,,A*62,1
1777416643269922797,$GPGGA,225043.000,1206.2601,S,07701.1943,W,1,04,3.4,170.5,M,8.3,M,,0000*64,1
1777416643377611438,$GPGSA,M,3,29,24,12,11,,,,,,,,,7.5,3.4,6.6*35,1
1777416643542583842,$GPRMC,225043.000,A,1206.2601,S,07701.1943,W,0.14,147.89,280426,,,A*61,1
1777416644266505733,$GPGGA,225044.000,1206.2601,S,07701.1943,W,1,04,3.4,170.5,M,8.3,M,,0000*63,1
1777416644374193998,$GPGSA,M,3,29,24,12,11,,,,,,,,,7.5,3.4,6.6*35,1
1777416644539170358,$GPRMC,225044.000,A,1206.2601,S,07701.1943,W,0.18,147.89,280426,,,A*6A,1
1777416645269332537,$GPGGA,225045.000,1206.2601,S,07701.1943,W,1,04,3.4,170.4,M,8.3,M,,0000*63,1
1777416645377005409,$GPGSA,M,3,29,24,12,11,,,,,,,,,7.5,3.4,6.6*35,1
1777416645541998798,$GPRMC,225045.000,A,1206.2601,S,07701.1943,W,0.15,147.89,280426,,,A*66,1
1777416646271524229,$GPGGA,225046.000,1206.2602,S,07701.1943,W,1,05,1.6,170.5,M,8.3,M,,0000*63,1
1777416646383797742,$GPGSA,M,3,29,24,12,11,15,,,,,,,,2.7,1.6,2.1*35,1
1777416646548770124,$GPRMC,225046.000,A,1206.2602,S,07701.1943,W,0.09,147.89,280426,,,A*6B,1
1777416647298727226,$GPGGA,225047.000,1206.2602,S,07701.1943,W,1,05,1.6,170.5,M,8.3,M,,0000*62,1
1777416647411008642,$GPGSA,M,3,29,24,12,11,15,,,,,,,,2.7,1.6,2.1*35,1
1777416647571405222,$GPGSV,3,1,12,29,63,277,36,24,61,069,39,12,32,157,31,11,23,117,19*78,1
1777416647722628344,$GPGSV,3,2,12,15,16,008,10,44,42,284,41,14,54,282,,09,37,257,*7D,1
1777416647864719671,$GPGSV,3,3,12,04,13,341,,20,03,328,,05,02,049,,10,00,305,*7F,1
1777416648029704915,$GPRMC,225047.000,A,1206.2602,S,07701.1943,W,0.10,147.89,280426,,,A*62,1
1777416648271576066,$GPGGA,225048.000,1206.2603,S,07701.1943,W,1,05,1.6,170.5,M,8.3,M,,0000*6C,1
1777416648383838162,$GPGSA,M,3,29,24,12,11,15,,,,,,,,2.7,1.6,2.1*35,1
1777416648548835974,$GPRMC,225048.000,A,1206.2603,S,07701.1943,W,0.11,147.89,280426,,,A*6D,1
1777416649271053720,$GPGGA,225049.000,1206.2603,S,07701.1944,W,1,05,1.6,170.5,M,8.3,M,,0000*6A,1
1777416649383333959,$GPGSA,M,3,29,24,12,11,15,,,,,,,,2.7,1.6,2.1*35,1
1777416649548315245,$GPRMC,225049.000,A,1206.2603,S,07701.1944,W,0.11,147.89,280426,,,A*6B,1
1777416650271164545,$GPGGA,225050.000,1206.2603,S,07701.1944,W,1,05,1.6,170.5,M,8.3,M,,0000*62,1
1777416650383454075,$GPGSA,M,3,29,24,12,11,15,,,,,,,,2.7,1.6,2.1*35,1
1777416650548443577,$GPRMC,225050.000,A,1206.2603,S,07701.1944,W,0.09,147.89,280426,,,A*6A,1
1777416651271082447,$GPGGA,225051.000,1206.2604,S,07701.1944,W,1,05,1.6,170.5,M,8.3,M,,0000*64,1
1777416651383388990,$GPGSA,M,3,29,24,12,11,15,,,,,,,,2.7,1.6,2.1*35,1
1777416651548358671,$GPRMC,225051.000,A,1206.2604,S,07701.1944,W,0.12,147.89,280426,,,A*66,1
1777416652270160230,$GPGGA,225052.000,1206.2604,S,07701.1944,W,1,05,1.6,170.5,M,8.3,M,,0000*67,1
1777416652382454492,$GPGSA,M,3,29,24,12,11,15,,,,,,,,2.7,1.6,2.1*35,1
1777416652542840205,$GPGSV,3,1,12,29,63,277,36,24,61,069,39,12,32,157,31,11,23,117,19*78,1
1777416652694085257,$GPGSV,3,2,12,15,16,008,12,44,42,284,42,14,54,282,,09,37,257,*7C,1
1777416652836154740,$GPGSV,3,3,12,04,13,341,,20,03,328,,05,02,049,,10,00,305,*7F,1
1777416653001142116,$GPRMC,225052.000,A,1206.2604,S,07701.1944,W,0.07,147.89,280426,,,A*61,1
1777416653270100696,$GPGGA,225053.000,1206.2604,S,07701.1944,W,1,05,1.6,170.4,M,8.3,M,,0000*67,1
1777416653382369064,$GPGSA,M,3,29,24,12,11,15,,,,,,,,2.7,1.6,2.1*35,1
1777416653547345712,$GPRMC,225053.000,A,1206.2604,S,07701.1944,W,0.06,147.89,280426,,,A*61,1
1777416654268967515,$GPGGA,225054.000,1206.2604,S,07701.1944,W,1,05,1.6,170.4,M,8.3,M,,0000*60,1
1777416654381231509,$GPGSA,M,3,29,24,12,11,15,,,,,,,,2.7,1.6,2.1*35,1
1777416654546255685,$GPRMC,225054.000,A,1206.2604,S,07701.1944,W,0.08,147.89,280426,,,A*68,1
1777416655271998845,$GPGGA,225055.000,1206.2604,S,07701.1944,W,1,05,1.6,170.2,M,8.3,M,,0000*67,1
1777416655384340238,$GPGSA,M,3,29,24,12,11,15,,,,,,,,2.7,1.6,2.1*35,1
1777416655549258171,$GPRMC,225055.000,A,1206.2604,S,07701.1944,W,0.14,147.89,280426,,,A*64,1
1777416656271081147,$GPGGA,225056.000,1206.2604,S,07701.1944,W,1,05,1.6,170.1,M,8.3,M,,0000*67,1
1777416656383354261,$GPGSA,M,3,29,24,12,11,15,,,,,,,,2.7,1.6,2.1*35,1
1777416656548335555,$GPRMC,225056.000,A,1206.2604,S,07701.1944,W,0.12,147.89,280426,,,A*61,1
1777416657271423913,$GPGGA,225057.000,1206.2604,S,07701.1944,W,1,05,1.6,169.9,M,8.3,M,,0000*66,1
1777416657383675357,$GPGSA,M,3,29,24,12,11,15,,,,,,,,2.7,1.6,2.1*35,1
1777416657544081222,$GPGSV,3,1,12,29,63,277,36,24,61,069,39,12,32,157,32,11,23,117,20*71,1
1777416657699906146,$GPGSV,3,2,12,15,16,008,13,25,00,000,37,44,42,284,42,14,54,282,*73,1
1777416657841971990,$GPGSV,3,3,12,09,37,257,,04,13,341,,20,03,328,,05,02,049,*75,1
1777416658006957036,$GPRMC,225057.000,A,1206.2604,S,07701.1944,W,0.13,147.89,280426,,,A*61,1
1777416658271311047,$GPGGA,225058.000,1206.2603,S,07701.1944,W,1,05,1.6,169.6,M,8.3,M,,0000*61,1
1777416658383649260,$GPGSA,M,3,29,24,12,11,15,,,,,,,,2.7,1.6,2.1*35,1
1777416658548573339,$GPRMC,225058.000,A,1206.2603,S,07701.1944,W,0.09,147.89,280426,,,A*62,1
1777416659297898092,$GPGGA,225059.000,1206.2603,S,07701.1944,W,1,05,1.6,169.2,M,8.3,M,,0000*64,1
1777416659410168378,$GPGSA,M,3,29,24,12,11,15,,,,,,,,2.7,1.6,2.1*35,1
1777416659575160651,$GPRMC,225059.000,A,1206.2603,S,07701.1944,W,0.17,147.89,280426,,,A*6C,1
1777416660268434266,$GPGGA,225100.000,1206.2602,S,07701.1944,W,1,05,1.6,168.8,M,8.3,M,,0000*63,1
1777416660380708084,$GPGSA,M,3,29,24,12,11,15,,,,,,,,2.7,1.6,2.1*35,1
1777416660545689463,$GPRMC,225100.000,A,1206.2602,S,07701.1944,W,0.16,147.89,280426,,,A*61,1
1777416661297983108,$GPGGA,225101.000,1206.2601,S,07701.1945,W,1,05,1.6,168.4,M,8.3,M,,0000*6C,1
1777416661410213961,$GPGSA,M,3,29,24,12,11,15,,,,,,,,2.7,1.6,2.1*35,1
1777416661575198685,$GPRMC,225101.000,A,1206.2601,S,07701.1945,W,0.17,147.89,280426,,,A*63,1
1777416662272217016,$GPGGA,225102.000,1206.2601,S,07701.1945,W,1,05,1.6,168.1,M,8.3,M,,0000*6A,1
1777416662384500066,$GPGSA,M,3,29,24,12,11,15,,,,,,,,2.7,1.6,2.1*35,1
1777416662544894196,$GPGSV,3,1,12,29,63,277,37,24,61,069,39,12,32,157,31,11,23,117,20*73,1
1777416662700728848,$GPGSV,3,2,12,15,16,008,14,25,00,000,37,44,42,284,41,14,54,282,*77,1
1777416662842788182,$GPGSV,3,3,12,09,37,257,,04,13,341,,20,03,328,,05,02,049,*75,1
1777416663007786454,$GPRMC,225102.000,A,1206.2601,S,07701.1945,W,0.16,147.89,280426,,,A*61,1
1777416663272188634,$GPGGA,225103.000,1206.2600,S,07701.1945,W,1,05,1.6,167.8,M,8.3,M,,0000*6C,1
1777416663384411756,$GPGSA,M,3,29,24,12,11,15,,,,,,,,2.7,1.6,2.1*35,1
1777416663549385375,$GPRMC,225103.000,A,1206.2600,S,07701.1945,W,0.16,147.89,280426,,,A*61,1
1777416664269540637,$GPGGA,225104.000,1206.2600,S,07701.1945,W,1,04,3.5,167.7,M,8.3,M,,0000*64,1
1777416664377302477,$GPGSA,M,3,29,24,12,11,,,,,,,,,7.5,3.5,6.7*35,1
1777416664542209685,$GPRMC,225104.000,A,1206.2600,S,07701.1945,W,0.16,147.89,280426,,,A*66,1
1777416665298210856,$GPGGA,225105.000,1206.2600,S,07701.1945,W,1,05,1.6,167.4,M,8.3,M,,0000*66,1
1777416665410471542,$GPGSA,M,3,29,24,12,11,15,,,,,,,,2.7,1.6,2.1*35,1
1777416665575477740,$GPRMC,225105.000,A,1206.2600,S,07701.1945,W,0.08,147.89,280426,,,A*68,1
1777416666271657222,$GPGGA,225106.000,1206.2599,S,07701.1945,W,1,05,1.6,167.0,M,8.3,M,,0000*62,1
1777416666383933477,$GPGSA,M,3,29,24,12,11,15,,,,,,,,2.7,1.6,2.1*35,1
1777416666548912355,$GPRMC,225106.000,A,1206.2599,S,07701.1945,W,0.13,147.89,280426,,,A*62,1
1777416667271627651,$GPGGA,225107.000,1206.2599,S,07701.1945,W,1,05,1.6,166.7,M,8.3,M,,0000*65,1
1777416667383864367,$GPGSA,M,3,29,24,12,11,15,,,,,,,,2.7,1.6,2.1*35,1
1777416667544262688,$GPGSV,3,1,12,29,63,277,37,24,61,069,39,12,32,157,31,11,23,117,19*79,1
1777416667704664417,$GPGSV,3,2,12,15,16,008,11,05,02,049,05,25,00,000,37,44,42,284,41*71,1
1777416667846774889,$GPGSV,3,3,12,14,54,282,,09,37,257,,04,13,341,,20,03,328,*73,1
1777416668011705707,$GPRMC,225107.000,A,1206.2599,S,07701.1945,W,0.11,147.89,280426,,,A*61,1
1777416668271477418,$GPGGA,225108.000,1206.2598,S,07701.1945,W,1,05,1.6,166.3,M,8.3,M,,0000*6F,1
1777416668383759128,$GPGSA,M,3,29,24,12,11,15,,,,,,,,2.7,1.6,2.1*35,1
1777416668548745882,$GPRMC,225108.000,A,1206.2598,S,07701.1945,W,0.18,147.89,280426,,,A*66,1
1777416669270360893,$GPGGA,225109.000,1206.2597,S,07701.1945,W,1,05,1.6,165.9,M,8.3,M,,0000*68,1
1777416669382641136,$GPGSA,M,3,29,24,12,11,15,,,,,,,,2.7,1.6,2.1*35,1
1777416669547614236,$GPRMC,225109.000,A,1206.2597,S,07701.1945,W,0.21,147.89,280426,,,A*62,1
1777416670270473205,$GPGGA,225110.000,1206.2596,S,07701.1945,W,1,05,1.6,165.5,M,8.3,M,,0000*6D,1
1777416670382737871,$GPGSA,M,3,29,24,12,11,15,,,,,,,,2.7,1.6,2.1*35,1
1777416670547748537,$GPRMC,225110.000,A,1206.2596,S,07701.1945,W,0.27,147.89,280426,,,A*6D,1
1777416671268299281,$GPGGA,225111.000,1206.2596,S,07701.1945,W,1,04,3.5,165.4,M,8.3,M,,0000*6D,1
1777416671376044760,$GPGSA,M,3,29,24,12,11,,,,,,,,,7.6,3.5,6.7*36,1
1777416671540982387,$GPRMC,225111.000,A,1206.2596,S,07701.1945,W,0.18,147.89,280426,,,A*60,1
1777416672268651807,$GPGGA,225112.000,1206.2596,S,07701.1945,W,1,04,3.5,165.4,M,8.3,M,,0000*6E,1
1777416672376312990,$GPGSA,M,3,29,24,12,11,,,,,,,,,7.6,3.5,6.7*36,1
1777416672536720652,$GPGSV,3,1,12,29,63,277,38,24,61,069,39,12,32,157,30,11,23,117,18*76,1
1777416672692563931,$GPGSV,3,2,12,15,16,008,04,25,00,000,37,44,42,284,41,14,54,282,*76,1
1777416672834618065,$GPGSV,3,3,12,09,37,257,,04,13,341,,20,03,328,,05,02,049,*75,1
1777416672999595444,$GPRMC,225112.000,A,1206.2596,S,07701.1945,W,0.19,147.89,280426,,,A*62,1
1777416673268549187,$GPGGA,225113.000,1206.2596,S,07701.1945,W,1,04,3.5,165.4,M,8.3,M,,0000*6F,1
1777416673376259068,$GPGSA,M,3,29,24,12,11,,,,,,,,,7.6,3.5,6.7*36,1
1777416673541282179,$GPRMC,225113.000,A,1206.2596,S,07701.1945,W,0.00,147.89,280426,,,A*6B,1
1777416674290369280,$GPGGA,225114.000,1206.2597,S,07701.1945,W,1,04,3.5,165.4,M,8.3,M,,0000*69,1
1777416674398019159,$GPGSA,M,3,29,24,12,11,,,,,,,,,7.6,3.5,6.7*36,1
1777416674563014766,$GPRMC,225114.000,A,1206.2597,S,07701.1945,W,0.14,147.89,280426,,,A*68,1
1777416675270864327,$GPGGA,225115.000,1206.2596,S,07701.1945,W,1,05,1.6,165.0,M,8.3,M,,0000*6D,0
1777416675383128436,$GPGSA,M,3,29,24,12,11,15,,,,,,,,2.7,1.6,2.1*35,0
1777416675548131055,$GPRMC,225115.000,A,1206.2596,S,07701.1945,W,0.20,147.89,280426,,,A*6F,0
1777416676270780693,$GPGGA,225116.000,1206.2596,S,07701.1945,W,1,05,1.6,164.7,M,8.3,M,,0000*68,0
1777416676383059834,$GPGSA,M,3,29,24,12,11,15,,,,,,,,2.7,1.6,2.1*35,0
1777416676548045207,$GPRMC,225116.000,A,1206.2596,S,07701.1945,W,0.23,147.89,280426,,,A*6F,0
1777416677270691339,$GPGGA,225117.000,1206.2595,S,07701.1945,W,1,05,1.6,164.4,M,8.3,M,,0000*69,0
1777416677382952551,$GPGSA,M,3,29,24,12,11,15,,,,,,,,2.7,1.6,2.1*35,0
1777416677543372388,$GPGSV,3,1,12,29,63,277,39,24,61,069,39,12,32,157,30,11,23,117,17*78,0
1777416677699210826,$GPGSV,3,2,12,15,16,008,11,25,00,000,36,44,42,284,41,14,54,282,*73,0
1777416677841266194,$GPGSV,3,3,12,09,37,257,,04,13,341,,20,03,328,,05,02,049,*75,0
1777416678006251506,$GPRMC,225117.000,A,1206.2595,S,07701.1945,W,0.14,147.89,280426,,,A*69,0
1777416678271207667,$GPGGA,225118.000,1206.2595,S,07701.1945,W,1,05,1.6,164.1,M,8.3,M,,0000*63,0
1777416678383513354,$GPGSA,M,3,29,24,12,11,15,,,,,,,,2.7,1.6,2.1*35,0
1777416678548487828,$GPRMC,225118.000,A,1206.2595,S,07701.1945,W,0.10,147.89,280426,,,A*62,0
1777416679267193965,$GPGGA,225119.000,1206.2594,S,07701.1945,W,1,05,1.6,163.8,M,8.3,M,,0000*6D,0
1777416679379461872,$GPGSA,M,3,29,24,12,11,15,,,,,,,,2.7,1.6,2.1*35,0
1777416679544441470,$GPRMC,225119.000,A,1206.2594,S,07701.1945,W,0.11,147.89,280426,,,A*63,0
1777416680271672705,$GPGGA,225120.000,1206.2594,S,07701.1945,W,1,05,1.6,163.5,M,8.3,M,,0000*6A,0
1777416680384009643,$GPGSA,M,3,29,24,12,11,15,,,,,,,,2.7,1.6,2.1*35,0
1777416680548942718,$GPRMC,225120.000,A,1206.2594,S,07701.1945,W,0.12,147.89,280426,,,A*6A,0
1777416681269304441,$GPGGA,225121.000,1206.2593,S,07701.1945,W,1,05,1.6,163.2,M,8.3,M,,0000*6B,0
1777416681381570915,$GPGSA,M,3,29,24,12,11,15,,,,,,,,2.7,1.6,2.1*35,0
1777416681546562186,$GPRMC,225121.000,A,1206.2593,S,07701.1945,W,0.10,147.89,280426,,,A*6E,0
1777416682269223621,$GPGGA,225122.000,1206.2593,S,07701.1945,W,1,05,1.6,162.9,M,8.3,M,,0000*62,0
1777416682381476314,$GPGSA,M,3,29,24,12,11,15,,,,,,,,2.7,1.6,2.1*35,0
1777416682541885162,$GPGSV,3,1,12,29,63,277,39,24,61,069,39,12,32,157,30,11,23,117,15*7A,0
1777416682697720184,$GPGSV,3,2,12,15,16,008,12,25,00,000,35,44,42,284,41,14,54,282,*73,0
1777416682839782083,$GPGSV,3,3,12,09,37,257,,04,13,341,,20,03,328,,05,02,049,*75,0
1777416683004786108,$GPRMC,225122.000,A,1206.2593,S,07701.1945,W,0.16,147.89,280426,,,A*6B,0
1777416683270173169,$GPGGA,225123.000,1206.2593,S,07701.1945,W,1,05,1.6,162.5,M,8.3,M,,0000*6F,0
1777416683382440672,$GPGSA,M,3,29,24,12,11,15,,,,,,,,2.7,1.6,2.1*35,0
1777416683547428192,$GPRMC,225123.000,A,1206.2593,S,07701.1945,W,0.20,147.89,280426,,,A*6F,0
1777416684271334879,$GPGGA,225124.000,1206.2593,S,07701.1945,W,1,05,1.6,162.6,M,8.3,M,,0000*6B,0
1777416684383591305,$GPGSA,M,3,29,24,12,11,15,,,,,,,,2.7,1.6,2.1*35,0
1777416684548585726,$GPRMC,225124.000,A,1206.2593,S,07701.1945,W,0.00,147.89,280426,,,A*6A,0
1777416685293334842,$GPGGA,225125.000,1206.2590,S,07701.1946,W,1,05,1.6,162.5,M,8.3,M,,0000*69,0
1777416685405589635,$GPGSA,M,3,29,24,12,11,15,,,,,,,,2.7,1.6,2.1*35,0
1777416685570582996,$GPRMC,225125.000,A,1206.2590,S,07701.1946,W,1.68,351.86,280426,,,A*6E,0
1777416686266357324,$GPGGA,225126.000,1206.2585,S,07701.1947,W,1,05,1.6,162.5,M,8.3,M,,0000*6F,0
1777416686378638446,$GPGSA,M,3,29,24,12,11,15,,,,,,,,2.7,1.6,2.1*35,0
1777416686543658467,$GPRMC,225126.000,A,1206.2585,S,07701.1947,W,1.49,347.20,280426,,,A*60,0
1777416687267113380,$GPGGA,225127.000,1206.2582,S,07701.1948,W,1,05,1.6,162.3,M,8.3,M,,0000*60,0
1777416687379381906,$GPGSA,M,3,29,24,12,11,15,,,,,,,,2.7,1.6,2.1*35,0
1777416687539783062,$GPGSV,3,1,12,29,63,277,39,24,61,069,36,12,32,157,26,11,23,117,18*7F,0
1777416687695613855,$GPGSV,3,2,12,15,16,008,19,25,00,000,35,44,42,284,36,14,54,282,*78,0
1777416687837682213,$GPGSV,3,3,12,09,37,257,,04,13,341,,20,03,328,,05,02,049,*75,0
1777416688002656656,$GPRMC,225127.000,A,1206.2582,S,07701.1948,W,0.93,347.20,280426,,,A*6F,0
1777416688265349289,$GPGGA,225128.000,1206.2580,S,07701.1949,W,1,05,1.6,162.3,M,8.3,M,,0000*6C,0
1777416688377627996,$GPGSA,M,3,29,24,12,11,15,,,,,,,,2.7,1.6,2.1*35,0
1777416688542602490,$GPRMC,225128.000,A,1206.2580,S,07701.1949,W,0.82,347.20,280426,,,A*63,0
1777416689294642720,$GPGGA,225129.000,1206.2577,S,07701.1950,W,1,05,1.6,162.2,M,8.3,M,,0000*6C,0
1777416689406961348,$GPGSA,M,3,29,24,12,11,15,,,,,,,,2.7,1.6,2.1*35,0
1777416689571889375,$GPRMC,225129.000,A,1206.2577,S,07701.1950,W,0.82,347.20,280426,,,A*62,0
1777416690293518260,$GPGGA,225130.000,1206.2575,S,07701.1952,W,1,05,1.6,161.9,M,8.3,M,,0000*6C,0
1777416690405769221,$GPGSA,M,3,29,24,12,11,15,,,,,,,,2.7,1.6,2.1*35,0
1777416690570766536,$GPRMC,225130.000,A,1206.2575,S,07701.1952,W,1.32,344.76,280426,,,A*60,0
1777416691265914800,$GPGGA,225131.000,1206.2572,S,07701.1955,W,1,05,1.6,161.6,M,8.3,M,,0000*62,0
1777416691378183664,$GPGSA,M,3,29,24,12,11,15,,,,,,,,2.7,1.6,2.1*35,0
1777416691543188919,$GPRMC,225131.000,A,1206.2572,S,07701.1955,W,2.05,342.81,280426,,,A*68,0
1777416692265410605,$GPGGA,225132.000,1206.2566,S,07701.1955,W,1,05,1.6,161.2,M,8.3,M,,0000*60,0
1777416692377679002,$GPGSA,M,3,29,24,12,11,15,,,,,,,,2.7,1.6,2.1*35,0
1777416692538082059,$GPGSV,3,1,12,29,63,277,29,24,61,069,27,12,32,157,37,11,23,117,17*71,0
1777416692689335337,$GPGSV,3,2,12,15,16,008,18,25,00,000,30,44,42,284,,14,54,282,*79,0
1777416692831390839,$GPGSV,3,3,12,09,37,257,,04,13,341,,20,03,328,,05,02,049,*75,0
1777416692996391312,$GPRMC,225132.000,A,1206.2566,S,07701.1955,W,2.59,348.65,280426,,,A*67,0
1777416693265746510,$GPGGA,225133.000,1206.2560,S,07701.1956,W,1,05,1.6,160.9,M,8.3,M,,0000*6E,0
1777416693378006034,$GPGSA,M,3,29,24,12,11,15,,,,,,,,2.7,1.6,2.1*35,0
1777416693543029648,$GPRMC,225133.000,A,1206.2560,S,07701.1956,W,2.81,350.71,280426,,,A*6A,0
1777416694265861727,$GPGGA,225134.000,1206.2552,S,07701.1955,W,1,05,1.6,160.6,M,8.3,M,,0000*64,0
1777416694378132673,$GPGSA,M,3,29,24,12,11,15,,,,,,,,2.7,1.6,2.1*35,0
1777416694543107747,$GPRMC,225134.000,A,1206.2552,S,07701.1955,W,3.11,355.03,280426,,,A*67,0
1777416695265598782,$GPGGA,225135.000,1206.2547,S,07701.1956,W,1,05,1.6,160.6,M,8.3,M,,0000*62,0
1777416695377847448,$GPGSA,M,3,29,24,12,11,15,,,,,,,,2.7,1.6,2.1*35,0
1777416695542814480,$GPRMC,225135.000,A,1206.2547,S,07701.1956,W,2.22,351.90,280426,,,A*6E,0
1777416696265475986,$GPGGA,225136.000,1206.2541,S,07701.1958,W,1,05,1.6,160.5,M,8.3,M,,0000*6A,0
1777416696377741592,$GPGSA,M,3,29,24,12,11,15,,,,,,,,2.7,1.6,2.1*35,0
1777416696542735712,$GPRMC,225136.000,A,1206.2541,S,07701.1958,W,2.12,345.99,280426,,,A*6A,0
1777416697265388233,$GPGGA,225137.000,1206.2536,S,07701.1961,W,1,05,1.6,160.4,M,8.3,M,,0000*60,0
1777416697377670780,$GPGSA,M,3,29,24,12,11,15,,,,,,,,2.7,1.6,2.1*35,0
1777416697538070646,$GPGSV,3,1,12,29,63,277,30,24,61,069,27,12,32,157,38,11,23,117,17*76,0
1777416697689314161,$GPGSV,3,2,12,15,16,008,18,25,00,000,23,44,42,284,,14,54,282,*7B,0
1777416697831375216,$GPGSV,3,3,12,09,37,257,,04,13,341,,20,03,328,,05,02,049,*75,0
1777416697996375386,$GPRMC,225137.000,A,1206.2536,S,07701.1961,W,2.69,343.19,280426,,,A*63,0
1777416698290703812,$GPGGA,225138.000,1206.2532,S,07701.1966,W,1,05,1.6,160.2,M,8.3,M,,0000*6A,0
1777416698402976819,$GPGSA,M,3,29,24,12,11,15,,,,,,,,2.7,1.6,2.1*35,0
1777416698567983076,$GPRMC,225138.000,A,1206.2532,S,07701.1966,W,2.51,340.25,280426,,,A*68,0
1777416699266461438,$GPGGA,225139.000,1206.2529,S,07701.1972,W,1,05,1.6,160.1,M,8.3,M,,0000*67,0
1777416699378728609,$GPGSA,M,3,29,24,12,11,15,,,,,,,,2.7,1.6,2.1*35,0
1777416699543718399,$GPRMC,225139.000,A,1206.2529,S,07701.1972,W,2.16,336.48,280426,,,A*6F,0
1777416700266584867,$GPGGA,225140.000,1206.2528,S,07701.1976,W,1,05,1.6,160.0,M,8.3,M,,0000*6D,0
1777416700378870663,$GPGSA,M,3,29,24,12,11,15,,,,,,,,2.7,1.6,2.1*35,0
1777416700543844597,$GPRMC,225140.000,A,1206.2528,S,07701.1976,W,1.44,331.26,280426,,,A*6F,0
1777416701266495386,$GPGGA,225141.000,1206.2527,S,07701.1978,W,1,05,1.6,160.0,M,8.3,M,,0000*6D,0
1777416701378761439,$GPGSA,M,3,29,24,12,11,15,,,,,,,,2.7,1.6,2.1*35,0
1777416701543749831,$GPRMC,225141.000,A,1206.2527,S,07701.1978,W,0.79,331.26,280426,,,A*60,0
1777416702266606573,$GPGGA,225142.000,1206.2527,S,07701.1981,W,1,05,1.6,159.6,M,8.3,M,,0000*64,0
1777416702378889863,$GPGSA,M,3,29,24,12,11,15,,,,,,,,2.7,1.6,2.1*35,0
1777416702539362610,$GPGSV,3,1,12,29,63,277,29,24,61,069,23,12,32,157,38,11,23,117,18*75,0
1777416702695128613,$GPGSV,3,2,12,15,16,008,19,25,00,000,22,44,42,284,34,14,54,282,*7C,0
1777416702837176519,$GPGSV,3,3,12,09,37,257,,04,13,341,,20,03,328,,05,02,049,*75,0
1777416703002143389,$GPRMC,225142.000,A,1206.2527,S,07701.1981,W,1.78,337.23,280426,,,A*66,0
1777416703266317118,$GPGGA,225143.000,1206.2523,S,07701.1983,W,1,05,1.6,159.3,M,8.3,M,,0000*66,0
1777416703378575165,$GPGSA,M,3,29,24,12,11,15,,,,,,,,2.7,1.6,2.1*35,0
1777416703543586954,$GPRMC,225143.000,A,1206.2523,S,07701.1983,W,1.99,337.83,280426,,,A*64,0
1777416704266444896,$GPGGA,225144.000,1206.2517,S,07701.1987,W,1,05,1.6,159.2,M,8.3,M,,0000*63,0
1777416704378699218,$GPGSA,M,3,29,24,12,11,15,,,,,,,,2.7,1.6,2.1*35,0
1777416704543694410,$GPRMC,225144.000,A,1206.2517,S,07701.1987,W,2.24,341.82,280426,,,A*65,0
1777416705266155293,$GPGGA,225145.000,1206.2512,S,07701.1988,W,1,05,1.6,159.3,M,8.3,M,,0000*69,0
1777416705378410630,$GPGSA,M,3,29,24,12,11,15,,,,,,,,2.7,1.6,2.1*35,0
1777416705543407670,$GPRMC,225145.000,A,1206.2512,S,07701.1988,W,0.77,341.82,280426,,,A*6A,0
1777416706265432070,$GPGGA,225146.000,1206.2508,S,07701.1986,W,1,05,1.6,159.4,M,8.3,M,,0000*68,0
1777416706377767215,$GPGSA,M,3,29,24,12,11,15,,,,,,,,2.7,1.6,2.1*35,0
1777416706542687532,$GPRMC,225146.000,A,1206.2508,S,07701.1986,W,0.18,341.82,280426,,,A*65,0
1777416707265139579,$GPGGA,225147.000,1206.2504,S,07701.1984,W,1,05,1.6,159.2,M,8.3,M,,0000*61,0
1777416707377407076,$GPGSA,M,3,29,24,12,11,15,,,,,,,,2.7,1.6,2.1*35,0
1777416707537799230,$GPGSV,3,1,12,29,63,277,42,24,61,069,38,12,32,157,38,11,23,117,26*7F,0
1777416707689052777,$GPGSV,3,2,12,15,16,008,20,44,42,284,40,14,54,282,,09,37,257,*7F,0
1777416707831112440,$GPGSV,3,3,12,04,13,341,,20,03,328,,05,02,049,,10,00,305,*7F,0
1777416707996109155,$GPRMC,225147.000,A,1206.2504,S,07701.1984,W,0.16,341.82,280426,,,A*64,0
1777416708265667840,$GPGGA,225148.000,1206.2499,S,07701.1985,W,1,05,1.6,159.3,M,8.3,M,,0000*6B,1
1777416708377967888,$GPGSA,M,3,29,24,12,11,15,,,,,,,,2.7,1.6,2.1*35,1
1777416708542995561,$GPRMC,225148.000,A,1206.2499,S,07701.1985,W,0.15,341.82,280426,,,A*6C,1
1777416709292661956,$GPGGA,225149.000,1206.2496,S,07701.1985,W,1,05,1.6,159.3,M,8.3,M,,0000*65,1
1777416709404951353,$GPGSA,M,3,29,24,12,11,15,,,,,,,,2.7,1.6,2.1*35,1
1777416709569913284,$GPRMC,225149.000,A,1206.2496,S,07701.1985,W,0.11,341.82,280426,,,A*66,1
1777416710264667926,$GPGGA,225150.000,1206.2493,S,07701.1985,W,1,05,1.6,159.1,M,8.3,M,,0000*6A,1
1777416710376943876,$GPGSA,M,3,29,24,12,11,15,,,,,,,,2.7,1.6,2.1*35,1
1777416710541913858,$GPRMC,225150.000,A,1206.2493,S,07701.1985,W,0.13,341.82,280426,,,A*69,1
1777416711292492506,$GPGGA,225151.000,1206.2493,S,07701.1985,W,1,05,1.6,159.0,M,8.3,M,,0000*6A,1
1777416711404778398,$GPGSA,M,3,29,24,12,11,15,,,,,,,,2.7,1.6,2.1*35,1
1777416711569736042,$GPRMC,225151.000,A,1206.2493,S,07701.1985,W,0.00,341.82,280426,,,A*6A,1
1777416712264069721,$GPGGA,225152.000,1206.2490,S,07701.1983,W,1,05,1.6,159.0,M,8.3,M,,0000*6C,1
1777416712376398978,$GPGSA,M,3,29,24,12,11,15,,,,,,,,2.7,1.6,2.1*35,1
1777416712536739169,$GPGSV,3,1,12,29,63,277,35,24,61,069,44,12,32,157,41,11,23,117,25*79,1
1777416712687984844,$GPGSV,3,2,12,15,16,008,27,44,42,284,37,14,54,282,,09,37,257,*78,1
1777416712830056043,$GPGSV,3,3,12,04,13,341,,20,03,328,,05,02,049,,10,00,305,*7F,1
1777416712995044367,$GPRMC,225152.000,A,1206.2490,S,07701.1983,W,0.19,341.82,280426,,,A*64,1
1777416713264175053,$GPGGA,225153.000,1206.2488,S,07701.1983,W,1,05,1.6,158.9,M,8.3,M,,0000*6C,1
