Unix_time,GPS_data,flagStop
1777415896298898941,$GPGGA,223816.000,1206.2558,S,07701.1918,W,1,05,1.6,143.0,M,8.3,M,,0000*6F,0
1777415925182557035,$GPGSA,M,3,24,29,12,11,15,,,,,,,,2.8,1.6,2.3*38,0
1777415925183046577,$GPRMC,223816.000,A,1206.2558,S,07701.1918,W,0.85,332.63,280426,,,A*62,0
1777415925183692727,$GPGGA,223817.000,1206.2554,S,07701.1915,W,1,05,1.6,142.9,M,8.3,M,,0000*67,0
1777415925184426429,$GPGSA,M,3,24,29,12,11,15,,,,,,,,2.8,1.6,2.3*38,0
1777415925184892936,$GPGSV,3,1,12,24,64,081,25,29,61,290,28,12,33,162,26,11,25,112,15*7C,0
1777415925185558696,$GPGSV,3,2,12,15,20,005,13,48,33,280,,14,54,272,,09,36,250,*74,0
1777415925186165013,$GPGSV,3,3,12,04,09,339,,20,03,323,,05,02,044,,10,01,300,*79,0
1777415925186752238,$GPRMC,223817.000,A,1206.2554,S,07701.1915,W,0.36,332.63,280426,,,A*6A,0
1777415925187440719,$GPGGA,223818.000,1206.2554,S,07701.1916,W,1,05,1.6,142.5,M,8.3,M,,0000*67,0
1777415925188158663,$GPGSA,M,3,24,29,12,11,15,,,,,,,,2.8,1.6,2.3*38,0
1777415925188621151,$GPRMC,223818.000,A,1206.2554,S,07701.1916,W,1.02,332.63,280426,,,A*60,0
1777415925189300299,$GPGGA,223819.000,1206.2553,S,07701.1916,W,1,05,1.6,142.3,M,8.3,M,,0000*67,0
1777415925190015743,$GPGSA,M,3,24,29,12,11,15,,,,,,,,2.8,1.6,2.3*38,0
1777415925190436954,$GPRMC,223819.000,A,1206.2553,S,07701.1916,W,0.73,332.63,280426,,,A*61,0
1777415925191112955,$GPGGA,223820.000,1206.2553,S,07701.1917,W,1,05,1.6,141.9,M,8.3,M,,0000*65,0
1777415925191427558,$GPGSA,M,3,24,29,12,11,15,,,,,,,,2.8,1.6,2.3*38,0
1777415925191551943,$GPRMC,223820.000,A,1206.2553,S,07701.1917,W,0.34,332.63,280426,,,A*69,0
1777415925191726013,$GPGGA,223821.000,1206.2553,S,07701.1917,W,1,05,1.6,141.5,M,8.3,M,,0000*68,0
1777415925191915804,$GPGSA,M,3,24,29,12,11,15,,,,,,,,2.8,1.6,2.3*38,0
1777415925192033504,$GPRMC,223821.000,A,1206.2553,S,07701.1917,W,0.99,332.63,280426,,,A*6F,0
1777415925192202000,$GPGGA,223822.000,1206.2553,S,07701.1916,W,1,05,1.6,141.1,M,8.3,M,,0000*6E,0
1777415925192380995,$GPGSA,M,3,24,29,12,11,15,,,,,,,,2.8,1.6,2.3*38,0
1777415925192498048,$GPGSV,3,1,12,24,64,081,24,29,61,290,39,12,33,162,31,11,25,112,10*7E,0
1777415925192664025,$GPGSV,3,2,12,15,20,005,11,48,33,280,,14,54,272,,09,36,250,*76,0
1777415925192815891,$GPGSV,3,3,12,04,09,339,,20,03,323,,05,02,044,,10,01,300,*79,0
1777415925192963424,$GPRMC,223822.000,A,1206.2553,S,07701.1916,W,1.16,332.63,280426,,,A*6B,0
1777415925193131568,$GPGGA,223823.000,1206.2553,S,07701.1913,W,1,05,1.6,140.9,M,8.3,M,,0000*63,0
1777415925193308711,$GPGSA,M,3,24,29,12,11,15,,,,,,,,2.8,1.6,2.3*38,0
1777415925193426004,$GPRMC,223823.000,A,1206.2553,S,07701.1913,W,0.15,332.63,280426,,,A*6D,0
1777415925193593481,$GPGGA,223824.000,1206.2554,S,07701.1913,W,1,05,1.6,140.8,M,8.3,M,,0000*62,0
1777415925193770643,$GPGSA,M,3,24,29,12,11,15,,,,,,,,2.8,1.6,2.3*38,0
1777415925193889918,$GPRMC,223824.000,A,1206.2554,S,07701.1913,W,0.09,332.63,280426,,,A*60,0
1777415925194057080,$GPGGA,223825.000,1206.2556,S,07701.1916,W,1,05,1.6,140.4,M,8.3,M,,0000*68,0
1777415925194234872,$GPGSA,M,3,24,29,12,11,15,,,,,,,,2.8,1.6,2.3*38,0
1777415925194349554,$GPRMC,223825.000,A,1206.2556,S,07701.1916,W,0.09,332.63,280426,,,A*66,0
1777415925194521364,$GPGGA,223826.000,1206.2557,S,07701.1915,W,1,05,1.6,140.2,M,8.3,M,,0000*6F,0
1777415925194700933,$GPGSA,M,3,24,29,12,11,15,,,,,,,,2.8,1.6,2.3*38,0
1777415925194814634,$GPRMC,223826.000,A,1206.2557,S,07701.1915,W,0.27,332.63,280426,,,A*6B,0
1777415925194983037,$GPGGA,223827.000,1206.2558,S,07701.1916,W,1,05,1.6,139.8,M,8.3,M,,0000*66,0
1777415925195160254,$GPGSA,M,3,24,29,12,11,15,,,,,,,,2.8,1.6,2.3*38,0
1777415925195325194,$GPGSV,3,1,12,24,64,081,24,29,61,290,41,12,33,162,31,11,25,112,10*71,0
1777415925195992047,$GPGSV,3,2,12,15,20,005,13,48,33,280,,14,54,272,,09,36,250,*74,0
1777415925196570772,$GPGSV,3,3,12,04,09,339,,20,03,323,,05,02,044,,10,01,300,*79,0
1777415925196685380,$GPRMC,223827.000,A,1206.2558,S,07701.1916,W,0.14,332.63,280426,,,A*66,0
1777415925196817377,$GPGGA,223828.000,1206.2558,S,07701.1917,W,1,05,1.6,139.5,M,8.3,M,,0000*65,0
1777415925196957225,$GPGSA,M,3,24,29,12,11,15,,,,,,,,2.8,1.6,2.3*38,0
1777415925197047908,$GPRMC,223828.000,A,1206.2558,S,07701.1917,W,0.40,332.63,280426,,,A*69,0
1777415925197353770,$GPGGA,223829.000,1206.2556,S,07701.1912,W,1,05,1.6,139.6,M,8.3,M,,0000*6C,0
1777415925197494748,$GPGSA,M,3,24,29,12,11,15,,,,,,,,2.8,1.6,2.3*38,0
1777415925197585690,$GPRMC,223829.000,A,1206.2556,S,07701.1912,W,0.74,332.63,280426,,,A*64,0
1777415925197719038,$GPGGA,223830.000,1206.2555,S,07701.1910,W,1,05,1.6,139.5,M,8.3,M,,0000*66,0
1777415925197860071,$GPGSA,M,3,24,29,12,11,15,,,,,,,,2.8,1.6,2.3*38,0
1777415925197951291,$GPRMC,223830.000,A,1206.2555,S,07701.1910,W,0.65,332.63,280426,,,A*6D,0
1777415925198085361,$GPGGA,223831.000,1206.2555,S,07701.1909,W,1,05,1.6,139.5,M,8.3,M,,0000*6F,0
1777415925198227932,$GPGSA,M,3,24,29,12,11,15,,,,,,,,2.8,1.6,2.3*38,0
1777415925198319837,$GPRMC,223831.000,A,1206.2555,S,07701.1909,W,0.41,332.63,280426,,,A*62,0
1777415925198454240,$GPGGA,223832.000,1206.2555,S,07701.1907,W,1,05,1.6,139.7,M,8.3,M,,0000*60,0
1777415925198596366,$GPGSA,M,3,24,29,12,11,15,,,,,,,,2.8,1.6,2.3*38,0
1777415925198688216,$GPGSV,3,1,12,24,64,081,23,29,61,290,42,12,33,162,31,11,25,112,14*71,0
1777415925198819212,$GPGSV,3,2,12,15,20,005,14,48,33,280,,14,54,272,,09,36,250,*73,0
1777415925198939024,$GPGSV,3,3,12,04,09,339,,20,03,323,,05,02,044,,10,01,300,*79,0
1777415925199054669,$GPRMC,223832.000,A,1206.2555,S,07701.1907,W,0.43,332.63,280426,,,A*6D,0
1777415925199187962,$GPGGA,223833.000,1206.2553,S,07701.1904,W,1,05,1.6,139.9,M,8.3,M,,0000*6A,0
1777415925199342958,$GPGSA,M,3,24,29,12,11,15,,,,,,,,2.8,1.6,2.3*38,0
1777415925199433733,$GPRMC,223833.000,A,1206.2553,S,07701.1904,W,0.66,332.63,280426,,,A*6E,0
1777415925199566655,$GPGGA,223834.000,1206.2552,S,07701.1902,W,1,05,1.6,140.1,M,8.3,M,,0000*6C,0
1777415925199706985,$GPGSA,M,3,24,29,12,11,15,,,,,,,,2.8,1.6,2.3*38,0
1777415925199797816,$GPRMC,223834.000,A,1206.2552,S,07701.1902,W,0.43,332.63,280426,,,A*69,0
1777415925199930738,$GPGGA,223835.000,1206.2552,S,07701.1902,W,1,05,1.6,140.0,M,8.3,M,,0000*6C,0
1777415925200071957,$GPGSA,M,3,24,29,12,11,15,,,,,,,,2.8,1.6,2.3*38,0
1777415925200163491,$GPRMC,223835.000,A,1206.2552,S,07701.1902,W,0.43,332.63,280426,,,A*68,0
1777415925200297543,$GPGGA,223836.000,1206.2552,S,07701.1902,W,1,05,1.6,139.9,M,8.3,M,,0000*68,0
1777415925200439021,$GPGSA,M,3,24,29,12,11,15,,,,,,,,2.8,1.6,2.3*38,0
1777415925200530648,$GPRMC,223836.000,A,1206.2552,S,07701.1902,W,0.73,332.63,280426,,,A*68,0
1777415925200664811,$GPGGA,223837.000,1206.2550,S,07701.1898,W,1,05,1.6,140.2,M,8.3,M,,0000*6C,0
1777415925200806418,$GPGSA,M,3,24,29,12,11,15,,,,,,,,2.8,1.6,2.3*38,0
1777415925200898083,$GPGSV,3,1,12,24,64,081,23,29,61,290,42,12,33,162,30,11,25,112,16*72,0
1777415925201028042,$GPGSV,3,2,12,15,20,005,14,48,33,280,,14,54,272,,09,36,250,*73,0
1777415925201146835,$GPGSV,3,3,12,04,09,339,,20,03,323,,05,02,044,,10,01,300,*79,0
1777415925201261999,$GPRMC,223837.000,A,1206.2550,S,07701.1898,W,0.31,332.63,280426,,,A*6F,0
1777415925201395588,$GPGGA,223838.000,1206.2551,S,07701.1899,W,1,05,1.6,140.2,M,8.3,M,,0000*63,0
1777415925201535621,$GPGSA,M,3,24,29,12,11,15,,,,,,,,2.8,1.6,2.3*38,0
1777415925201627063,$GPRMC,223838.000,A,1206.2551,S,07701.1899,W,0.27,332.63,280426,,,A*67,0
1777415925201761023,$GPGGA,223839.000,1206.2552,S,07701.1899,W,1,05,1.6,140.5,M,8.3,M,,0000*66,0
1777415925201901630,$GPGSA,M,3,24,29,12,11,15,,,,,,,,2.8,1.6,2.3*38,0
1777415925201992424,$GPRMC,223839.000,A,1206.2552,S,07701.1899,W,0.44,332.63,280426,,,A*60,0
1777415925202125124,$GPGGA,223840.000,1206.2551,S,07701.1899,W,1,05,1.6,140.5,M,8.3,M,,0000*6B,0
1777415925202265065,$GPGSA,M,3,24,29,12,11,15,,,,,,,,2.8,1.6,2.3*38,0
1777415925202355525,$GPRMC,223840.000,A,1206.2551,S,07701.1899,W,0.32,332.63,280426,,,A*6C,0
1777415925202488207,$GPGGA,223841.000,1206.2551,S,07701.1899,W,1,05,1.6,140.5,M,8.3,M,,0000*6A,0
1777415925202628240,$GPGSA,M,3,24,29,12,11,15,,,,,,,,2.8,1.6,2.3*38,0
1777415925202718756,$GPRMC,223841.000,A,1206.2551,S,07701.1899,W,0.29,332.63,280426,,,A*67,0
1777415925202851364,$GPGGA,223842.000,1206.2552,S,07701.1899,W,1,05,1.6,140.5,M,8.3,M,,0000*6A,0
1777415925202991397,$GPGSA,M,3,24,29,12,11,15,,,,,,,,2.8,1.6,2.3*38,0
1777415925203100431,$GPGSV,3,1,12,24,64,081,16,29,61,290,31,12,33,162,30,11,25,112,16*70,0
1777415925203229706,$GPGSV,3,2,12,15,20,005,16,48,33,280,,14,54,272,,09,36,250,*71,0
1777415925203355832,$GPGSV,3,3,12,04,09,339,,20,03,323,,05,02,044,,10,01,300,*79,0
1777415925203470921,$GPRMC,223842.000,A,1206.2552,S,07701.1899,W,0.10,332.63,280426,,,A*6D,0
1777415925203603325,$GPGGA,223843.000,1206.2553,S,07701.1900,W,1,05,1.6,140.5,M,8.3,M,,0000*6B,0
1777415925203743229,$GPGSA,M,3,24,29,12,11,15,,,,,,,,2.8,1.6,2.3*38,0
1777415925203833282,$GPRMC,223843.000,A,1206.2553,S,07701.1900,W,0.64,332.63,280426,,,A*6F,0
1777415925203966019,$GPGGA,223844.000,1206.2555,S,07701.1903,W,1,05,1.6,140.7,M,8.3,M,,0000*6B,0
1777415925204106812,$GPGSA,M,3,24,29,12,11,15,,,,,,,,2.8,1.6,2.3*38,0
1777415925204200217,$GPRMC,223844.000,A,1206.2555,S,07701.1903,W,0.95,332.63,280426,,,A*63,0
1777415925320764700,$GPGGA,223845.000,1206.2558,S,07701.1907,W,1,05,1.6,140.9,M,8.3,M,,0000*6D,0
1777415925433040835,$GPGSA,M,3,24,29,12,11,15,,,,,,,,2.8,1.6,2.3*38,0
1777415925597999620,$GPRMC,223845.000,A,1206.2558,S,07701.1907,W,1.26,277.40,280426,,,A*63,0
1777415926318397586,$GPGGA,223846.000,1206.2561,S,07701.1910,W,1,04,1.8,141.0,M,8.3,M,,0000*65,0
1777415926426097786,$GPGSA,M,3,24,29,12,15,,,,,,,,,3.0,1.8,2.3*3F,0
1777415926591053273,$GPRMC,223846.000,A,1206.2561,S,07701.1910,W,1.32,259.67,280426,,,A*60,0
1777415927296640886,$GPGGA,223847.000,1206.2564,S,07701.1914,W,1,04,1.8,141.2,M,8.3,M,,0000*67,0
1777415927404342715,$GPGSA,M,3,24,29,12,15,,,,,,,,,3.0,1.8,2.3*3F,0
1777415927564729174,$GPGSV,3,1,12,24,64,081,20,29,61,290,29,12,33,162,29,15,20,005,18*7C,0
1777415927711368315,$GPGSV,3,2,12,11,25,112,04,33,19,083,,14,54,272,,09,36,250,*71,0
1777415927853464707,$GPGSV,3,3,12,04,09,339,,20,03,323,,05,02,044,,10,01,300,*79,0
1777415928018477301,$GPRMC,223847.000,A,1206.2564,S,07701.1914,W,1.29,252.90,280426,,,A*69,0
1777415928296327733,$GPGGA,223848.000,1206.2566,S,07701.1918,W,1,04,1.8,141.2,M,8.3,M,,0000*66,0
1777415928404077985,$GPGSA,M,3,24,29,12,15,,,,,,,,,3.0,1.8,2.3*3F,0
1777415928569028691,$GPRMC,223848.000,A,1206.2566,S,07701.1918,W,0.57,252.90,280426,,,A*60,0
1777415929319011825,$GPGGA,223849.000,1206.2569,S,07701.1921,W,1,04,1.8,141.2,M,8.3,M,,0000*62,0
1777415929426706633,$GPGSA,M,3,24,29,12,15,,,,,,,,,3.0,1.8,2.3*3F,0
1777415929591671281,$GPRMC,223849.000,A,1206.2569,S,07701.1921,W,0.98,252.90,280426,,,A*67,0
1777415930298511708,$GPGGA,223850.000,1206.2571,S,07701.1924,W,1,05,1.6,141.2,M,8.3,M,,0000*69,0
1777415930410755060,$GPGSA,M,3,24,29,12,11,15,,,,,,,,2.8,1.6,2.3*38,0
1777415930575781279,$GPRMC,223850.000,A,1206.2571,S,07701.1924,W,0.77,252.90,280426,,,A*62,0
1777415931298415981,$GPGGA,223851.000,1206.2573,S,07701.1927,W,1,05,1.6,141.1,M,8.3,M,,0000*6A,0
1777415931410736089,$GPGSA,M,3,24,29,12,11,15,,,,,,,,2.8,1.6,2.3*38,0
1777415931575713733,$GPRMC,223851.000,A,1206.2573,S,07701.1927,W,0.64,252.90,280426,,,A*60,0
1777415932299049890,$GPGGA,223852.000,1206.2575,S,07701.1931,W,1,05,1.6,140.9,M,8.3,M,,0000*61,0
1777415932411300888,$GPGSA,M,3,24,29,12,11,15,,,,,,,,2.8,1.6,2.3*38,0
1777415932571735374,$GPGSV,3,1,12,24,64,081,30,29,61,290,28,12,33,162,24,11,25,112,10*7F,0
1777415932718386192,$GPGSV,3,2,12,15,20,005,19,33,19,083,,14,54,272,,09,36,250,*7B,0
1777415932860409931,$GPGSV,3,3,12,04,09,339,,20,03,323,,05,02,044,,10,01,300,*79,0
1777415933025447498,$GPRMC,223852.000,A,1206.2575,S,07701.1931,W,2.10,250.17,280426,,,A*6E,0
1777415933297920707,$GPGGA,223853.000,1206.2580,S,07701.1936,W,1,05,1.6,140.5,M,8.3,M,,0000*61,0
1777415933410177944,$GPGSA,M,3,24,29,12,11,15,,,,,,,,2.8,1.6,2.3*38,0
1777415933575206325,$GPRMC,223853.000,A,1206.2580,S,07701.1936,W,0.59,250.17,280426,,,A*6D,0
1777415934297872559,$GPGGA,223854.000,1206.2583,S,07701.1939,W,1,05,1.6,139.8,M,8.3,M,,0000*69,0
1777415934410113388,$GPGSA,M,3,24,29,12,11,15,,,,,,,,2.8,1.6,2.3*38,0
1777415934575131305,$GPRMC,223854.000,A,1206.2583,S,07701.1939,W,1.03,250.17,280426,,,A*68,0
1777415935297532132,$GPGGA,223855.000,1206.2587,S,07701.1942,W,1,05,1.6,139.9,M,8.3,M,,0000*61,0
1777415935409844236,$GPGSA,M,3,24,29,12,11,15,,,,,,,,2.8,1.6,2.3*38,0
1777415935574806523,$GPRMC,223855.000,A,1206.2587,S,07701.1942,W,1.14,250.17,280426,,,A*67,0
1777415936297693145,$GPGGA,223856.000,1206.2589,S,07701.1946,W,1,05,1.6,140.2,M,8.3,M,,0000*6D,0
1777415936409947916,$GPGSA,M,3,24,29,12,11,15,,,,,,,,2.8,1.6,2.3*38,0
1777415936574930256,$GPRMC,223856.000,A,1206.2589,S,07701.1946,W,0.96,250.17,280426,,,A*65,0
1777415937296773214,$GPGGA,223857.000,1206.2591,S,07701.1954,W,1,05,1.6,139.9,M,8.3,M,,0000*63,0
1777415937409030669,$GPGSA,M,3,24,29,12,11,15,,,,,,,,2.8,1.6,2.3*38,0
1777415937569450723,$GPGSV,3,1,12,24,64,081,45,29,61,290,42,12,33,162,31,11,25,112,11*74,0
1777415937716098053,$GPGSV,3,2,12,15,20,005,21,33,19,083,,14,54,272,,09,36,250,*70,0
1777415937858171209,$GPGSV,3,3,12,04,09,339,,20,03,323,,05,02,044,,10,01,300,*79,0
1777415938023159084,$GPRMC,223857.000,A,1206.2591,S,07701.1954,W,1.06,250.17,280426,,,A*66,0
1777415938297720373,$GPGGA,223858.000,1206.2591,S,07701.1958,W,1,05,1.6,139.6,M,8.3,M,,0000*6F,0
1777415938410015363,$GPGSA,M,3,24,29,12,11,15,,,,,,,,2.8,1.6,2.3*38,0
1777415938574990348,$GPRMC,223858.000,A,1206.2591,S,07701.1958,W,0.91,250.17,280426,,,A*6A,0
1777415939298062334,$GPGGA,223859.000,1206.2591,S,07701.1958,W,1,05,1.6,139.7,M,8.3,M,,0000*6F,0
1777415939410343879,$GPGSA,M,3,24,29,12,11,15,,,,,,,,2.8,1.6,2.3*38,0
1777415939575345733,$GPRMC,223859.000,A,1206.2591,S,07701.1958,W,0.00,250.17,280426,,,A*63,0
1777415940297162876,$GPGGA,223900.000,1206.2591,S,07701.1961,W,1,05,1.6,139.7,M,8.3,M,,0000*68,0
1777415940409445661,$GPGSA,M,3,24,29,12,11,15,,,,,,,,2.8,1.6,2.3*38,0
1777415940574426939,$GPRMC,223900.000,A,1206.2591,S,07701.1961,W,0.52,250.17,280426,,,A*63,0
1777415941297521819,$GPGGA,223901.000,1206.2590,S,07701.1961,W,1,05,1.6,139.9,M,8.3,M,,0000*66,1
1777415941409787474,$GPGSA,M,3,24,29,12,11,15,,,,,,,,2.8,1.6,2.3*38,1
1777415941574780954,$GPRMC,223901.000,A,1206.2590,S,07701.1961,W,0.24,250.17,280426,,,A*62,1
1777415942297430989,$GPGGA,223902.000,1206.2590,S,07701.1963,W,1,05,1.6,140.0,M,8.3,M,,0000*60,1
1777415942409721401,$GPGSA,M,3,24,29,12,11,15,,,,,,,,2.8,1.6,2.3*38,1
1777415942570108189,$GPGSV,3,1,12,24,64,081,46,29,61,290,30,12,33,162,32,11,25,112,17*77,1
1777415942721357851,$GPGSV,3,2,12,15,20,005,16,05,02,044,14,33,19,083,,14,54,272,*7D,1
1777415942863425890,$GPGSV,3,3,12,09,36,250,,04,09,339,,20,03,323,,10,01,300,*75,1
1777415943028415165,$GPRMC,223902.000,A,1206.2590,S,07701.1963,W,0.14,250.17,280426,,,A*60,1
1777415943296751443,$GPGGA,223903.000,1206.2590,S,07701.1964,W,1,05,1.6,140.3,M,8.3,M,,0000*65,1
1777415943409023965,$GPGSA,M,3,24,29,12,11,15,,,,,,,,2.8,1.6,2.3*38,1
1777415943573996777,$GPRMC,223903.000,A,1206.2590,S,07701.1964,W,0.17,250.17,280426,,,A*65,1
1777415944298543526,$GPGGA,223904.000,1206.2589,S,07701.1965,W,1,05,1.6,140.7,M,8.3,M,,0000*6F,1
1777415944410826029,$GPGSA,M,3,24,29,12,11,15,,,,,,,,2.8,1.6,2.3*38,1
1777415944575799598,$GPRMC,223904.000,A,1206.2589,S,07701.1965,W,0.53,250.17,280426,,,A*6B,1
1777415945296391355,$GPGGA,223905.000,1206.2590,S,07701.1969,W,1,05,1.6,140.6,M,8.3,M,,0000*6B,1
1777415945408651987,$GPGSA,M,3,24,29,12,11,15,,,,,,,,2.8,1.6,2.3*38,1
1777415945573654925,$GPRMC,223905.000,A,1206.2590,S,07701.1969,W,0.35,250.17,280426,,,A*6E,1
1777415946297358184,$GPGGA,223906.000,1206.2590,S,07701.1969,W,1,05,1.6,140.6,M,8.3,M,,0000*68,1
1777415946409628130,$GPGSA,M,3,24,29,12,11,15,,,,,,,,2.8,1.6,2.3*38,1
1777415946574607438,$GPRMC,223906.000,A,1206.2590,S,07701.1969,W,0.00,250.17,280426,,,A*6B,1
1777415947296864916,$GPGGA,223907.000,1206.2589,S,07701.1969,W,1,05,1.6,140.6,M,8.3,M,,0000*61,1
1777415947409131694,$GPGSA,M,3,24,29,12,11,15,,,,,,,,2.8,1.6,2.3*38,1
1777415947569539957,$GPGSV,3,1,12,24,64,081,45,29,61,290,34,12,33,162,29,11,25,112,14*79,1
1777415947716206014,$GPGSV,3,2,12,15,20,005,24,33,19,083,,14,54,272,,09,36,250,*75,1
1777415947858291176,$GPGSV,3,3,12,04,09,339,,20,03,323,,05,02,044,,10,01,300,*79,1
1777415948023300296,$GPRMC,223907.000,A,1206.2589,S,07701.1969,W,0.00,250.17,280426,,,A*62,1
1777415948296998696,$GPGGA,223908.000,1206.2589,S,07701.1969,W,1,05,1.6,140.6,M,8.3,M,,0000*6E,1
1777415948409277789,$GPGSA,M,3,24,29,12,11,15,,,,,,,,2.8,1.6,2.3*38,1
1777415948574257834,$GPRMC,223908.000,A,1206.2589,S,07701.1969,W,0.00,250.17,280426,,,A*6D,1
1777415949318387916,$GPGGA,223909.000,1206.2589,S,07701.1970,W,1,05,1.6,140.4,M,8.3,M,,0000*65,1
1777415949430649286,$GPGSA,M,3,24,29,12,11,15,,,,,,,,2.8,1.6,2.3*38,1
1777415949595645867,$GPRMC,223909.000,A,1206.2589,S,07701.1970,W,0.18,250.17,280426,,,A*6D,1
1777415950319140905,$GPGGA,223910.000,1206.2588,S,07701.1971,W,1,05,1.6,140.4,M,8.3,M,,0000*6D,1
1777415950431410718,$GPGSA,M,3,24,29,12,11,15,,,,,,,,2.8,1.6,2.3*38,1
1777415950596404576,$GPRMC,223910.000,A,1206.2588,S,07701.1971,W,0.12,250.17,280426,,,A*6F,1
1777415951319280311,$GPGGA,223911.000,1206.2587,S,07701.1973,W,1,05,1.6,140.3,M,8.3,M,,0000*66,1
1777415951431555215,$GPGSA,M,3,24,29,12,11,15,,,,,,,,2.8,1.6,2.3*38,1
1777415951596565423,$GPRMC,223911.000,A,1206.2587,S,07701.1973,W,0.10,250.17,280426,,,A*61,1
1777415952297318859,$GPGGA,223912.000,1206.2586,S,07701.1974,W,1,05,1.6,140.2,M,8.3,M,,0000*62,1
1777415952409597726,$GPGSA,M,3,24,29,12,11,15,,,,,,,,2.8,1.6,2.3*38,1
1777415952570010149,$GPGSV,3,1,12,24,64,081,44,29,61,290,33,12,33,162,29,11,25,112,11*7A,1
1777415952716660035,$GPGSV,3,2,12,15,20,005,24,33,19,083,,14,54,272,,09,36,250,*75,1
1777415952858731465,$GPGSV,3,3,12,04,09,339,,20,03,323,,05,02,044,,10,01,300,*79,1
1777415953023727711,$GPRMC,223912.000,A,1206.2586,S,07701.1974,W,0.18,250.17,280426,,,A*6C,1
1777415953296509349,$GPGGA,223913.000,1206.2585,S,07701.1975,W,1,05,1.6,140.5,M,8.3,M,,0000*66,1
1777415953408761597,$GPGSA,M,3,24,29,12,11,15,,,,,,,,2.8,1.6,2.3*38,1
1777415953573674739,$GPRMC,223913.000,A,1206.2585,S,07701.1975,W,0.10,250.17,280426,,,A*67,1
1777415954296297240,$GPGGA,223914.000,1206.2584,S,07701.1976,W,1,05,1.6,140.4,M,8.3,M,,0000*62,1
1777415954408524138,$GPGSA,M,3,24,29,12,11,15,,,,,,,,2.8,1.6,2.3*38,1
1777415954573448256,$GPRMC,223914.000,A,1206.2584,S,07701.1976,W,0.10,250.17,280426,,,A*62,1
1777415955295866131,$GPGGA,223915.000,1206.2583,S,07701.1977,W,1,05,1.6,140.4,M,8.3,M,,0000*65,1
1777415955408116707,$GPGSA,M,3,24,29,12,11,15,,,,,,,,2.8,1.6,2.3*38,1
1777415955573029168,$GPRMC,223915.000,A,1206.2583,S,07701.1977,W,0.06,250.17,280426,,,A*62,1
1777415956295656943,$GPGGA,223916.000,1206.2583,S,07701.1979,W,1,05,1.6,139.8,M,8.3,M,,0000*6A,1
1777415956407868231,$GPGSA,M,3,24,29,12,11,15,,,,,,,,2.8,1.6,2.3*38,1
1777415956572827350,$GPRMC,223916.000,A,1206.2583,S,07701.1979,W,0.17,250.17,280426,,,A*6F,1
1777415957295014140,$GPGGA,223917.000,1206.2583,S,07701.1979,W,1,05,1.6,139.7,M,8.3,M,,0000*64,1
1777415957407288093,$GPGSA,M,3,24,29,12,11,15,,,,,,,,2.8,1.6,2.3*38,1
1777415957567603691,$GPGSV,3,1,12,24,64,081,44,29,61,290,33,12,33,162,25,11,25,112,09*7F,1
1777415957714198378,$GPGSV,3,2,12,15,20,005,23,51,52,289,,14,54,272,,09,36,250,*71,1
1777415957856236293,$GPGSV,3,3,12,04,09,339,,20,03,323,,05,02,044,,10,01,300,*79,1
1777415958021164858,$GPRMC,223917.000,A,1206.2583,S,07701.1979,W,0.00,250.17,280426,,,A*68,1
1777415958294791062,$GPGGA,223918.000,1206.2583,S,07701.1979,W,1,05,1.6,139.7,M,8.3,M,,0000*6B,1
1777415958407097109,$GPGSA,M,3,24,29,12,11,15,,,,,,,,2.8,1.6,2.3*38,1
1777415958572022668,$GPRMC,223918.000,A,1206.2583,S,07701.1979,W,0.00,250.17,280426,,,A*67,1
1777415959294405691,$GPGGA,223919.000,1206.2583,S,07701.1979,W,1,05,1.6,139.7,M,8.3,M,,0000*6A,0
1777415959406677126,$GPGSA,M,3,24,29,12,11,15,,,,,,,,2.8,1.6,2.3*38,0
1777415959571571318,$GPRMC,223919.000,A,1206.2583,S,07701.1979,W,0.00,250.17,280426,,,A*66,0
1777415960294403438,$GPGGA,223920.000,1206.2583,S,07701.1979,W,1,05,1.6,139.7,M,8.3,M,,0000*60,0
1777415960406663763,$GPGSA,M,3,24,29,12,11,15,,,,,,,,2.8,1.6,2.3*38,0
1777415960571592459,$GPRMC,223920.000,A,1206.2583,S,07701.1979,W,0.00,250.17,280426,,,A*6C,0
1777415961292969257,$GPGGA,223921.000,1206.2581,S,07701.1978,W,1,05,1.6,139.4,M,8.3,M,,0000*61,0
1777415961405197934,$GPGSA,M,3,24,29,12,11,15,,,,,,,,2.8,1.6,2.3*38,0
1777415961570129873,$GPRMC,223921.000,A,1206.2581,S,07701.1978,W,0.19,250.17,280426,,,A*66,0
1777415962293241663,$GPGGA,223922.000,1206.2578,S,07701.1977,W,1,05,1.6,139.4,M,8.3,M,,0000*6B,0
1777415962405454660,$GPGSA,M,3,24,29,12,11,15,,,,,,,,2.8,1.6,2.3*38,0
1777415962565784656,$GPGSV,3,1,12,24,64,081,43,29,61,290,38,12,33,162,33,11,25,112,20*7F,0
1777415962712402979,$GPGSV,3,2,12,15,20,005,18,51,52,289,,14,54,272,,09,36,250,*79,0
1777415962854427104,$GPGSV,3,3,12,04,09,339,,20,03,323,,05,02,044,,10,01,300,*79,0
1777415963019342327,$GPRMC,223922.000,A,1206.2578,S,07701.1977,W,0.83,250.17,280426,,,A*6F,0
1777415963294034331,$GPGGA,223923.000,1206.2575,S,07701.1974,W,1,05,1.6,139.6,M,8.3,M,,0000*66,0
1777415963406290415,$GPGSA,M,3,24,29,12,11,15,,,,,,,,2.8,1.6,2.3*38,0
1777415963571231993,$GPRMC,223923.000,A,1206.2575,S,07701.1974,W,0.81,250.17,280426,,,A*62,0
1777415964293051402,$GPGGA,223924.000,1206.2573,S,07701.1967,W,1,05,1.6,139.5,M,8.3,M,,0000*66,0
1777415964405273630,$GPGSA,M,3,24,29,12,11,15,,,,,,,,2.8,1.6,2.3*38,0
1777415964567922992,$GPRMC,223924.000,A,1206.2573,S,07701.1967,W,1.99,38.71,280426,,,A*55,0
1777415965292055294,$GPGGA,223925.000,1206.2568,S,07701.1961,W,1,05,1.6,139.8,M,8.3,M,,0000*66,0
1777415965404269057,$GPGSA,M,3,24,29,12,11,15,,,,,,,,2.8,1.6,2.3*38,0
1777415965566909057,$GPRMC,223925.000,A,1206.2568,S,07701.1961,W,2.08,48.36,280426,,,A*57,0
1777415966291655214,$GPGGA,223926.000,1206.2565,S,07701.1957,W,1,05,1.6,139.7,M,8.3,M,,0000*62,0
1777415966403893863,$GPGSA,M,3,24,29,12,11,15,,,,,,,,2.8,1.6,2.3*38,0
1777415966566566050,$GPRMC,223926.000,A,1206.2565,S,07701.1957,W,1.95,46.96,280426,,,A*5F,0
1777415967315290981,$GPGGA,223927.000,1206.2561,S,07701.1951,W,1,05,1.6,139.6,M,8.3,M,,0000*60,0
1777415967427466834,$GPGSA,M,3,24,29,12,11,15,,,,,,,,2.8,1.6,2.3*38,0
1777415967587812783,$GPGSV,3,1,12,24,64,081,34,29,61,290,32,12,33,162,27,11,25,112,14*77,0
1777415967734442251,$GPGSV,3,2,12,15,20,005,19,51,52,289,,14,54,272,,09,36,250,*78,0
1777415967876454801,$GPGSV,3,3,12,04,09,339,,20,03,323,,05,02,044,,10,01,300,*79,0
1777415968039159379,$GPRMC,223927.000,A,1206.2561,S,07701.1951,W,2.78,48.41,280426,,,A*58,0
1777415968292988557,$GPGGA,223928.000,1206.2557,S,07701.1945,W,1,05,1.6,139.6,M,8.3,M,,0000*6F,0
1777415968405220624,$GPGSA,M,3,24,29,12,11,15,,,,,,,,2.8,1.6,2.3*38,0
1777415968567879254,$GPRMC,223928.000,A,1206.2557,S,07701.1945,W,1.98,49.70,280426,,,A*59,0
1777415969292202968,$GPGGA,223929.000,1206.2554,S,07701.1938,W,1,05,1.6,139.3,M,8.3,M,,0000*62,0
1777415969404440128,$GPGSA,M,3,24,29,12,11,15,,,,,,,,2.8,1.6,2.3*38,0
1777415969567089206,$GPRMC,223929.000,A,1206.2554,S,07701.1938,W,1.94,50.52,280426,,,A*55,0
1777415970292273097,$GPGGA,223930.000,1206.2551,S,07701.1932,W,1,05,1.6,139.1,M,8.3,M,,0000*67,0
1777415970404503163,$GPGSA,M,3,24,29,12,11,15,,,,,,,,2.8,1.6,2.3*38,0
1777415970567151990,$GPRMC,223930.000,A,1206.2551,S,07701.1932,W,1.71,51.47,280426,,,A*5C,0
1777415971291680085,$GPGGA,223931.000,1206.2548,S,07701.1927,W,1,05,1.6,139.0,M,8.3,M,,0000*6B,1
1777415971403938001,$GPGSA,M,3,24,29,12,11,15,,,,,,,,2.8,1.6,2.3*38,1
1777415971566576552,$GPRMC,223931.000,A,1206.2548,S,07701.1927,W,1.98,51.29,280426,,,A*5E,1
1777415972288198581,$GPGGA,223932.000,1206.2547,S,07701.1924,W,1,04,1.8,139.1,M,8.3,M,,0000*6A,1
1777415972395864889,$GPGSA,M,3,24,29,12,15,,,,,,,,,3.0,1.8,2.3*3F,1
1777415972556218352,$GPGSV,3,1,12,24,64,081,24,29,61,290,33,12,33,162,28,15,20,005,19*73,1
1777415972702836607,$GPGSV,3,2,12,11,25,112,08,51,52,289,,14,54,272,,09,36,250,*7E,1
1777415972845931925,$GPGSV,3,3,12,04,09,339,,20,03,323,,05,02,044,,10,01,300,*79,1
1777415973007521906,$GPRMC,223932.000,A,1206.2547,S,07701.1924,W,1.05,51.29,280426,,,A*55,1
1777415973287647841,$GPGGA,223933.000,1206.2547,S,07701.1924,W,1,04,1.8,139.3,M,8.3,M,,0000*69,1
1777415973395308183,$GPGSA,M,3,24,29,12,15,,,,,,,,,3.0,1.8,2.3*3F,1
1777415973557956642,$GPRMC,223933.000,A,1206.2547,S,07701.1924,W,0.20,51.29,280426,,,A*52,1
1777415974309780750,$GPGGA,223934.000,1206.2549,S,07701.1924,W,1,04,1.8,139.6,M,8.3,M,,0000*65,1
1777415974417455004,$GPGSA,M,3,24,29,12,15,,,,,,,,,3.0,1.8,2.3*3F,1
1777415974580101784,$GPRMC,223934.000,A,1206.2549,S,07701.1924,W,0.99,51.29,280426,,,A*59,1
1777415975310067743,$GPGGA,223935.000,1206.2551,S,07701.1927,W,1,04,1.8,139.7,M,8.3,M,,0000*6F,1
1777415975417731797,$GPGSA,M,3,24,29,12,15,,,,,,,,,3.0,1.8,2.3*3F,1
1777415975578094862,$GPRMC,223935.000,A,1206.2551,S,07701.1927,W,1.43,6.56,280426,,,A*6E,1
1777415976287449995,$GPGGA,223936.000,1206.2550,S,07701.1925,W,1,04,1.8,139.9,M,8.3,M,,0000*61,1
1777415976395098975,$GPGSA,M,3,24,29,12,15,,,,,,,,,3.0,1.8,2.3*3F,1
1777415976555461908,$GPRMC,223936.000,A,1206.2550,S,07701.1925,W,0.39,6.56,280426,,,A*62,1
