Unix_time,GPS_data,flagStop
1777416057274537676,$GPGGA,224057.000,1206.2576,S,07701.1960,W,1,05,1.6,142.4,M,8.3,M,,0000*63,0
1777416075841909201,$GPGSA,M,3,24,29,12,11,15,,,,,,,,2.8,1.6,2.2*39,0
1777416075842000024,$GPGSV,3,1,12,24,63,078,21,29,62,287,38,12,33,161,23,11,24,113,10*7E,0
1777416075842129268,$GPGSV,3,2,12,15,19,006,22,33,19,083,,14,54,274,,09,36,252,*7E,0
1777416075842247273,$GPGSV,3,3,12,04,10,340,,20,03,324,,05,02,045,,10,01,301,*78,0
1777416075842361500,$GPRMC,224057.000,A,1206.2576,S,07701.1960,W,0.56,14.07,280426,,,A*50,0
1777416075842492171,$GPGGA,224058.000,1206.2573,S,07701.1962,W,1,05,1.6,142.5,M,8.3,M,,0000*6A,0
1777416075842632006,$GPGSA,M,3,24,29,12,11,15,,,,,,,,2.8,1.6,2.2*39,0
1777416075842722366,$GPRMC,224058.000,A,1206.2573,S,07701.1962,W,0.75,14.07,280426,,,A*59,0
1777416075842852925,$GPGGA,224059.000,1206.2573,S,07701.1967,W,1,05,1.6,142.7,M,8.3,M,,0000*6C,0
1777416075842992650,$GPGSA,M,3,24,29,12,11,15,,,,,,,,2.8,1.6,2.2*39,0
1777416075843083066,$GPRMC,224059.000,A,1206.2573,S,07701.1967,W,1.15,14.07,280426,,,A*5A,0
1777416075843213699,$GPGGA,224100.000,1206.2576,S,07701.1972,W,1,05,1.6,142.7,M,8.3,M,,0000*60,0
1777416075843373625,$GPGSA,M,3,24,29,12,11,15,,,,,,,,2.8,1.6,2.2*39,0
1777416075843469429,$GPRMC,224100.000,A,1206.2576,S,07701.1972,W,1.35,343.27,280426,,,A*67,0
1777416075843602302,$GPGGA,224101.000,1206.2573,S,07701.1975,W,1,05,1.6,142.9,M,8.3,M,,0000*6D,0
1777416075843740786,$GPGSA,M,3,24,29,12,11,15,,,,,,,,2.8,1.6,2.2*39,0
1777416075843831072,$GPRMC,224101.000,A,1206.2573,S,07701.1975,W,0.73,343.27,280426,,,A*67,0
1777416075843963927,$GPGGA,224102.000,1206.2571,S,07701.1977,W,1,05,1.6,143.1,M,8.3,M,,0000*67,0
1777416075844104133,$GPGSA,M,3,24,29,12,11,15,,,,,,,,2.8,1.6,2.2*39,0
1777416075844194660,$GPGSV,3,1,12,24,63,078,21,29,62,287,38,12,33,161,23,11,24,113,10*7E,0
1777416075844323756,$GPGSV,3,2,12,15,19,006,22,51,52,289,,14,54,274,,09,36,252,*7D,0
1777416075844442298,$GPGSV,3,3,12,04,10,340,,20,03,324,,05,02,045,,10,01,301,*78,0
1777416075844556692,$GPRMC,224102.000,A,1206.2571,S,07701.1977,W,0.34,343.27,280426,,,A*67,0
1777416075844689936,$GPGGA,224103.000,1206.2571,S,07701.1976,W,1,04,1.8,143.5,M,8.3,M,,0000*6C,0
1777416075844830272,$GPGSA,M,3,24,29,12,15,,,,,,,,,2.9,1.8,2.3*37,0
1777416075844917318,$GPRMC,224103.000,A,1206.2571,S,07701.1976,W,0.48,343.27,280426,,,A*6C,0
1777416075845050154,$GPGGA,224104.000,1206.2573,S,07701.1979,W,1,04,1.8,143.6,M,8.3,M,,0000*65,0
1777416075845190694,$GPGSA,M,3,24,29,12,15,,,,,,,,,2.9,1.8,2.3*37,0
1777416075845277758,$GPRMC,224104.000,A,1206.2573,S,07701.1979,W,0.90,343.27,280426,,,A*63,0
1777416075845410742,$GPGGA,224105.000,1206.2576,S,07701.1979,W,1,04,1.8,143.7,M,8.3,M,,0000*60,0
1777416075845550078,$GPGSA,M,3,24,29,12,15,,,,,,,,,2.9,1.8,2.3*37,0
1777416075845636976,$GPRMC,224105.000,A,1206.2576,S,07701.1979,W,0.54,343.27,280426,,,A*6F,0
1777416075845769979,$GPGGA,224106.000,1206.2574,S,07701.1980,W,1,04,1.8,143.6,M,8.3,M,,0000*66,0
1777416075845909815,$GPGSA,M,3,24,29,12,15,,,,,,,,,2.9,1.8,2.3*37,0
1777416075845996675,$GPRMC,224106.000,A,1206.2574,S,07701.1980,W,0.67,343.27,280426,,,A*68,0
1777416075846129641,$GPGGA,224107.000,1206.2574,S,07701.1980,W,1,04,1.8,143.6,M,8.3,M,,0000*67,0
1777416075846269625,$GPGSA,M,3,24,29,12,15,,,,,,,,,2.9,1.8,2.3*37,0
1777416075846356560,$GPGSV,3,1,12,24,63,078,22,29,62,287,38,12,33,161,23,15,19,006,23*72,0
1777416075846486174,$GPGSV,3,2,12,11,24,113,05,51,52,289,,14,54,274,,09,36,252,*77,0
1777416075846605216,$GPGSV,3,3,12,04,10,340,,20,03,324,,05,02,045,,10,01,301,*78,0
1777416075846720555,$GPRMC,224107.000,A,1206.2574,S,07701.1980,W,0.44,343.27,280426,,,A*68,0
1777416075846854502,$GPGGA,224108.000,1206.2574,S,07701.1981,W,1,04,1.8,143.6,M,8.3,M,,0000*69,0
1777416075846996134,$GPGSA,M,3,24,29,12,15,,,,,,,,,2.9,1.8,2.3*37,0
1777416075847083828,$GPRMC,224108.000,A,1206.2574,S,07701.1981,W,0.45,343.27,280426,,,A*67,0
1777416075847216998,$GPGGA,224109.000,1206.2573,S,07701.1982,W,1,04,1.8,143.7,M,8.3,M,,0000*6D,0
1777416075847394403,$GPGSA,M,3,24,29,12,15,,,,,,,,,2.9,1.8,2.3*37,0
1777416075847482023,$GPRMC,224109.000,A,1206.2573,S,07701.1982,W,0.46,343.27,280426,,,A*61,0
1777416075847751566,$GPGGA,224110.000,1206.2574,S,07701.1985,W,1,05,1.6,143.8,M,8.3,M,,0000*65,0
1777416075847894512,$GPGSA,M,3,24,29,12,11,15,,,,,,,,2.7,1.6,2.2*36,0
1777416075847985150,$GPRMC,224110.000,A,1206.2574,S,07701.1985,W,0.45,343.27,280426,,,A*6A,0
1777416075848118875,$GPGGA,224111.000,1206.2574,S,07701.1989,W,1,05,1.6,143.9,M,8.3,M,,0000*69,0
1777416075848259600,$GPGSA,M,3,24,29,12,11,15,,,,,,,,2.7,1.6,2.2*36,0
1777416075848350590,$GPRMC,224111.000,A,1206.2574,S,07701.1989,W,0.64,343.27,280426,,,A*64,0
1777416075848484556,$GPGGA,224112.000,1206.2573,S,07701.1987,W,1,04,1.8,143.9,M,8.3,M,,0000*6C,0
1777416075848626206,$GPGSA,M,3,24,29,12,15,,,,,,,,,2.9,1.8,2.3*37,0
1777416075848714140,$GPGSV,3,1,12,24,63,078,23,29,62,287,39,12,33,161,23,15,19,006,22*73,0
1777416075848844514,$GPGSV,3,2,12,11,24,113,08,51,52,289,,14,54,274,,09,36,252,*7A,0
1777416075848963926,$GPGSV,3,3,12,04,10,340,,20,03,324,,05,02,045,,10,01,301,*78,0
1777416075849079728,$GPRMC,224112.000,A,1206.2573,S,07701.1987,W,0.15,343.27,280426,,,A*68,0
1777416075849214083,$GPGGA,224113.000,1206.2572,S,07701.1982,W,1,04,1.8,144.1,M,8.3,M,,0000*66,0
1777416075849355955,$GPGSA,M,3,24,29,12,15,,,,,,,,,2.9,1.8,2.3*37,0
1777416075849444168,$GPRMC,224113.000,A,1206.2572,S,07701.1982,W,0.25,343.27,280426,,,A*6E,0
1777416075849578763,$GPGGA,224114.000,1206.2573,S,07701.1980,W,1,04,1.8,144.3,M,8.3,M,,0000*60,0
1777416075849720062,$GPGSA,M,3,24,29,12,15,,,,,,,,,2.9,1.8,2.3*37,0
1777416075849808403,$GPRMC,224114.000,A,1206.2573,S,07701.1980,W,0.65,343.27,280426,,,A*6E,0
1777416075849942240,$GPGGA,224115.000,1206.2571,S,07701.1980,W,1,04,1.8,144.5,M,8.3,M,,0000*65,0
1777416075850086983,$GPGSA,M,3,24,29,12,15,,,,,,,,,2.9,1.8,2.3*37,0
1777416075850176306,$GPRMC,224115.000,A,1206.2571,S,07701.1980,W,0.45,343.27,280426,,,A*6F,0
1777416076293170157,$GPGGA,224116.000,1206.2569,S,07701.1978,W,1,04,1.8,144.7,M,8.3,M,,0000*6A,0
1777416076400867539,$GPGSA,M,3,24,29,12,15,,,,,,,,,2.9,1.8,2.3*37,0
1777416076565819749,$GPRMC,224116.000,A,1206.2569,S,07701.1978,W,0.21,343.27,280426,,,A*60,0
1777416077293204507,$GPGGA,224117.000,1206.2567,S,07701.1976,W,1,04,1.8,144.4,M,8.3,M,,0000*68,0
1777416077400893893,$GPGSA,M,3,24,29,12,15,,,,,,,,,2.9,1.8,2.3*37,0
1777416077561277854,$GPGSV,3,1,12,24,63,078,17,29,62,287,30,12,33,161,23,15,19,006,22*7D,0
1777416077707925632,$GPGSV,3,2,12,11,24,113,04,51,52,289,,14,54,274,,09,36,252,*76,0
1777416077850018687,$GPGSV,3,3,12,04,10,340,,20,03,324,,05,02,045,,10,01,301,*78,0
1777416078014961916,$GPRMC,224117.000,A,1206.2567,S,07701.1976,W,0.52,343.27,280426,,,A*65,0
1777416078271994848,$GPGGA,224118.000,1206.2566,S,07701.1976,W,1,05,1.6,144.1,M,8.3,M,,0000*6C,0
1777416078384291144,$GPGSA,M,3,24,29,12,11,15,,,,,,,,2.7,1.6,2.2*36,0
1777416078549245907,$GPRMC,224118.000,A,1206.2566,S,07701.1976,W,0.26,343.27,280426,,,A*68,0
1777416079294596978,$GPGGA,224119.000,1206.2565,S,07701.1972,W,1,05,1.6,144.2,M,8.3,M,,0000*69,0
1777416079406826194,$GPGSA,M,3,24,29,12,11,15,,,,,,,,2.7,1.6,2.2*36,0
1777416079571788646,$GPRMC,224119.000,A,1206.2565,S,07701.1972,W,0.63,343.27,280426,,,A*6F,0
1777416080272512596,$GPGGA,224120.000,1206.2566,S,07701.1968,W,1,05,1.6,144.4,M,8.3,M,,0000*6D,0
1777416080384796865,$GPGSA,M,3,24,29,12,11,15,,,,,,,,2.7,1.6,2.2*36,0
1777416080549754580,$GPRMC,224120.000,A,1206.2566,S,07701.1968,W,1.34,294.48,280426,,,A*6C,0
1777416081272359541,$GPGGA,224121.000,1206.2572,S,07701.1968,W,1,05,1.6,144.2,M,8.3,M,,0000*6F,0
1777416081384668199,$GPGSA,M,3,24,29,12,11,15,,,,,,,,2.7,1.6,2.2*36,0
1777416081549676929,$GPRMC,224121.000,A,1206.2572,S,07701.1968,W,1.35,276.25,280426,,,A*6E,0
1777416082292824986,$GPGGA,224122.000,1206.2579,S,07701.1971,W,1,05,1.6,144.4,M,8.3,M,,0000*69,0
1777416082405096000,$GPGSA,M,3,24,29,12,11,15,,,,,,,,2.7,1.6,2.2*36,0
1777416082565513976,$GPGSV,3,1,12,24,63,078,34,29,62,287,33,12,33,161,35,11,24,113,11*77,0
1777416082712174188,$GPGSV,3,2,12,15,19,006,23,51,52,289,,14,54,274,,09,36,252,*7C,0
1777416082854254571,$GPGSV,3,3,12,04,10,340,,20,03,324,,05,02,045,,10,01,301,*78,0
1777416083019192225,$GPRMC,224122.000,A,1206.2579,S,07701.1971,W,2.14,255.80,280426,,,A*60,0
1777416083270414133,$GPGGA,224123.000,1206.2583,S,07701.1961,W,1,05,1.6,145.1,M,8.3,M,,0000*68,0
1777416083382687074,$GPGSA,M,3,24,29,12,11,15,,,,,,,,2.7,1.6,2.2*36,0
1777416083547671934,$GPRMC,224123.000,A,1206.2583,S,07701.1961,W,2.30,251.42,280426,,,A*69,0
1777416084270880921,$GPGGA,224124.000,1206.2583,S,07701.1960,W,1,05,1.6,145.6,M,8.3,M,,0000*69,0
1777416084383155008,$GPGSA,M,3,24,29,12,11,15,,,,,,,,2.7,1.6,2.2*36,0
1777416084548139661,$GPRMC,224124.000,A,1206.2583,S,07701.1960,W,0.72,251.42,280426,,,A*6B,0
1777416085270954068,$GPGGA,224125.000,1206.2582,S,07701.1959,W,1,05,1.6,146.0,M,8.3,M,,0000*66,0
1777416085383222025,$GPGSA,M,3,24,29,12,11,15,,,,,,,,2.7,1.6,2.2*36,0
1777416085548190155,$GPRMC,224125.000,A,1206.2582,S,07701.1959,W,0.91,251.42,280426,,,A*6C,0
1777416086271197244,$GPGGA,224126.000,1206.2579,S,07701.1955,W,1,05,1.6,146.6,M,8.3,M,,0000*6B,0
1777416086383485084,$GPGSA,M,3,24,29,12,11,15,,,,,,,,2.7,1.6,2.2*36,1
1777416086548446505,$GPRMC,224126.000,A,1206.2579,S,07701.1955,W,0.14,251.42,280426,,,A*6A,1
1777416087272087295,$GPGGA,224127.000,1206.2579,S,07701.1955,W,1,05,1.6,146.5,M,8.3,M,,0000*69,1
1777416087384363040,$GPGSA,M,3,24,29,12,11,15,,,,,,,,2.7,1.6,2.2*36,1
1777416087544741256,$GPGSV,3,1,12,24,63,078,45,29,62,287,32,12,33,161,23,11,24,113,12*74,1
1777416087691389625,$GPGSV,3,2,12,15,19,006,22,51,52,289,,14,54,274,,09,36,252,*7D,1
1777416087833476370,$GPGSV,3,3,12,04,10,340,,20,03,324,,05,02,045,,10,01,301,*78,1
1777416087998443077,$GPRMC,224127.000,A,1206.2579,S,07701.1955,W,0.00,251.42,280426,,,A*6E,1
1777416088269651723,$GPGGA,224128.000,1206.2576,S,07701.1954,W,1,04,1.8,146.9,M,8.3,M,,0000*6B,1
1777416088377348801,$GPGSA,M,3,24,29,12,15,,,,,,,,,2.9,1.8,2.3*37,1
1777416088542303888,$GPRMC,224128.000,A,1206.2576,S,07701.1954,W,0.38,251.42,280426,,,A*64,1
1777416089269082321,$GPGGA,224129.000,1206.2576,S,07701.1948,W,1,04,1.8,147.1,M,8.3,M,,0000*6E,1
1777416089376773279,$GPGSA,M,3,24,29,12,15,,,,,,,,,2.9,1.8,2.3*37,1
1777416089541734779,$GPRMC,224129.000,A,1206.2576,S,07701.1948,W,0.20,251.42,280426,,,A*61,1
1777416090269974475,$GPGGA,224130.000,1206.2576,S,07701.1948,W,1,04,1.8,147.1,M,8.3,M,,0000*66,1
1777416090377646314,$GPGSA,M,3,24,29,12,15,,,,,,,,,2.9,1.8,2.3*37,1
1777416090542643205,$GPRMC,224130.000,A,1206.2576,S,07701.1948,W,0.00,251.42,280426,,,A*6B,1
1777416091270229529,$GPGGA,224131.000,1206.2574,S,07701.1944,W,1,05,1.6,147.7,M,8.3,M,,0000*60,1
1777416091382514708,$GPGSA,M,3,24,29,12,11,15,,,,,,,,2.7,1.6,2.2*36,1
1777416091547496882,$GPRMC,224131.000,A,1206.2574,S,07701.1944,W,0.15,251.42,280426,,,A*60,1
1777416092270156454,$GPGGA,224132.000,1206.2572,S,07701.1941,W,1,05,1.6,148.3,M,8.3,M,,0000*6B,1
1777416092382355577,$GPGSA,M,3,24,29,12,11,15,,,,,,,,2.7,1.6,2.2*36,1
1777416092542743952,$GPGSV,3,1,12,24,63,078,42,29,62,287,38,12,33,161,34,11,24,113,13*7E,1
1777416092689391274,$GPGSV,3,2,12,15,19,006,23,51,52,289,,14,54,274,,09,36,252,*7C,1
1777416092831451220,$GPGSV,3,3,12,04,10,340,,20,03,324,,05,02,045,,10,01,301,*78,1
1777416092996442210,$GPRMC,224132.000,A,1206.2572,S,07701.1941,W,0.16,251.42,280426,,,A*63,1
1777416093270198422,$GPGGA,224133.000,1206.2571,S,07701.1939,W,1,05,1.6,148.7,M,8.3,M,,0000*62,1
1777416093382406440,$GPGSA,M,3,24,29,12,11,15,,,,,,,,2.7,1.6,2.2*36,1
1777416093547391728,$GPRMC,224133.000,A,1206.2571,S,07701.1939,W,0.16,251.42,280426,,,A*6E,1
1777416094269538395,$GPGGA,224134.000,1206.2569,S,07701.1936,W,1,05,1.6,149.1,M,8.3,M,,0000*64,1
1777416094381819672,$GPGSA,M,3,24,29,12,11,15,,,,,,,,2.7,1.6,2.2*36,1
1777416094546769074,$GPRMC,224134.000,A,1206.2569,S,07701.1936,W,0.23,251.42,280426,,,A*69,1
1777416095270005825,$GPGGA,224135.000,1206.2567,S,07701.1934,W,1,05,1.6,149.4,M,8.3,M,,0000*6C,1
1777416095382270683,$GPGSA,M,3,24,29,12,11,15,,,,,,,,2.7,1.6,2.2*36,1
1777416095547258449,$GPRMC,224135.000,A,1206.2567,S,07701.1934,W,0.20,251.42,280426,,,A*67,1
1777416096271313528,$GPGGA,224136.000,1206.2567,S,07701.1933,W,1,05,1.6,149.9,M,8.3,M,,0000*65,1
1777416096383600148,$GPGSA,M,3,24,29,12,11,15,,,,,,,,2.7,1.6,2.2*36,1
1777416096548577318,$GPRMC,224136.000,A,1206.2567,S,07701.1933,W,0.09,251.42,280426,,,A*68,1
1777416097269924186,$GPGGA,224137.000,1206.2566,S,07701.1931,W,1,05,1.6,150.4,M,8.3,M,,0000*62,1
1777416097382210107,$GPGSA,M,3,24,29,12,11,15,,,,,,,,2.7,1.6,2.2*36,1
1777416097542596996,$GPGSV,3,1,12,24,63,078,42,29,62,287,38,12,33,161,34,11,24,113,18*75,1
1777416097693804276,$GPGSV,3,2,12,15,19,006,24,05,02,045,13,51,52,289,,14,54,274,*76,1
1777416097835869833,$GPGSV,3,3,12,09,36,252,,04,10,340,,20,03,324,,10,01,301,*77,1
1777416098000862071,$GPRMC,224137.000,A,1206.2566,S,07701.1931,W,0.17,251.42,280426,,,A*65,1
1777416098269393140,$GPGGA,224138.000,1206.2565,S,07701.1930,W,1,05,1.6,150.8,M,8.3,M,,0000*63,1
1777416098381636568,$GPGSA,M,3,24,29,12,11,15,,,,,,,,2.7,1.6,2.2*36,1
1777416098546601062,$GPRMC,224138.000,A,1206.2565,S,07701.1930,W,0.25,251.42,280426,,,A*69,1
1777416099269494237,$GPGGA,224139.000,1206.2564,S,07701.1929,W,1,05,1.6,151.1,M,8.3,M,,0000*63,1
1777416099381725502,$GPGSA,M,3,24,29,12,11,15,,,,,,,,2.7,1.6,2.2*36,1
1777416099546694506,$GPRMC,224139.000,A,1206.2564,S,07701.1929,W,0.11,251.42,280426,,,A*66,1
1777416100292227758,$GPGGA,224140.000,1206.2564,S,07701.1928,W,1,05,1.6,151.4,M,8.3,M,,0000*69,1
1777416100404546738,$GPGSA,M,3,24,29,12,11,15,,,,,,,,2.7,1.6,2.2*36,1
1777416100569548803,$GPRMC,224140.000,A,1206.2564,S,07701.1928,W,0.23,251.42,280426,,,A*68,1
1777416101291673443,$GPGGA,224141.000,1206.2563,S,07701.1927,W,1,05,1.6,151.9,M,8.3,M,,0000*6D,1
1777416101403933706,$GPGSA,M,3,24,29,12,11,15,,,,,,,,2.7,1.6,2.2*36,1
1777416101568901691,$GPRMC,224141.000,A,1206.2563,S,07701.1927,W,0.17,251.42,280426,,,A*66,1
1777416102269859724,$GPGGA,224142.000,1206.2563,S,07701.1926,W,1,05,1.6,152.4,M,8.3,M,,0000*61,1
1777416102382135263,$GPGSA,M,3,24,29,12,11,15,,,,,,,,2.7,1.6,2.2*36,1
1777416102542504078,$GPGSV,3,1,12,24,63,078,42,29,62,287,39,12,33,161,33,11,24,113,19*72,1
1777416102693741701,$GPGSV,3,2,12,15,19,006,24,05,02,045,09,51,52,289,,14,54,274,*7D,1
1777416102835819875,$GPGSV,3,3,12,09,36,252,,04,10,340,,20,03,324,,10,01,301,*77,1
1777416103000777368,$GPRMC,224142.000,A,1206.2563,S,07701.1926,W,0.24,251.42,280426,,,A*64,1
1777416103291990771,$GPGGA,224143.000,1206.2563,S,07701.1925,W,1,05,1.6,153.1,M,8.3,M,,0000*67,1
1777416103404269179,$GPGSA,M,3,24,29,12,11,15,,,,,,,,2.7,1.6,2.2*36,1
1777416103569245508,$GPRMC,224143.000,A,1206.2563,S,07701.1925,W,0.06,251.42,280426,,,A*66,1
1777416104270215107,$GPGGA,224144.000,1206.2563,S,07701.1924,W,1,05,1.6,153.3,M,8.3,M,,0000*63,1
1777416104382461701,$GPGSA,M,3,24,29,12,11,15,,,,,,,,2.7,1.6,2.2*36,1
1777416104547438997,$GPRMC,224144.000,A,1206.2563,S,07701.1924,W,0.18,251.42,280426,,,A*6F,1
1777416105268814710,$GPGGA,224145.000,1206.2563,S,07701.1923,W,1,05,1.6,153.8,M,8.3,M,,0000*6E,1
1777416105381064004,$GPGSA,M,3,24,29,12,11,15,,,,,,,,2.7,1.6,2.2*36,1
1777416105546036526,$GPRMC,224145.000,A,1206.2563,S,07701.1923,W,0.15,251.42,280426,,,A*64,1
1777416106269714926,$GPGGA,224146.000,1206.2563,S,07701.1923,W,1,05,1.6,154.2,M,8.3,M,,0000*60,1
1777416106381966717,$GPGSA,M,3,24,29,12,11,15,,,,,,,,2.7,1.6,2.2*36,1
1777416106546930927,$GPRMC,224146.000,A,1206.2563,S,07701.1923,W,0.05,251.42,280426,,,A*66,1
1777416107269543188,$GPGGA,224147.000,1206.2562,S,07701.1922,W,1,05,1.6,154.4,M,8.3,M,,0000*67,1
1777416107381888261,$GPGSA,M,3,24,29,12,11,15,,,,,,,,2.7,1.6,2.2*36,1
1777416107542211845,$GPGSV,3,1,12,24,63,078,42,29,62,287,39,12,33,161,33,11,24,113,19*72,1
1777416107688901148,$GPGSV,3,2,12,15,19,006,24,51,52,289,,14,54,274,,09,36,252,*7B,1
1777416107830918439,$GPGSV,3,3,12,04,10,340,,20,03,324,,05,02,045,,10,01,301,*78,1
1777416107995918479,$GPRMC,224147.000,A,1206.2562,S,07701.1922,W,0.15,251.42,280426,,,A*66,1
1777416108268789308,$GPGGA,224148.000,1206.2562,S,07701.1921,W,1,05,1.6,154.6,M,8.3,M,,0000*69,1
1777416108381064123,$GPGSA,M,3,24,29,12,11,15,,,,,,,,2.7,1.6,2.2*36,1
1777416108546028130,$GPRMC,224148.000,A,1206.2562,S,07701.1921,W,0.17,251.42,280426,,,A*68,1
1777416109268650999,$GPGGA,224149.000,1206.2562,S,07701.1921,W,1,05,1.6,155.2,M,8.3,M,,0000*6D,1
1777416109380913846,$GPGSA,M,3,24,29,12,11,15,,,,,,,,2.7,1.6,2.2*36,1
1777416109545887350,$GPRMC,224149.000,A,1206.2562,S,07701.1921,W,0.07,251.42,280426,,,A*68,1
1777416110268284666,$GPGGA,224150.000,1206.2563,S,07701.1920,W,1,05,1.6,155.5,M,8.3,M,,0000*62,1
1777416110380563782,$GPGSA,M,3,24,29,12,11,15,,,,,,,,2.7,1.6,2.2*36,1
1777416110545546838,$GPRMC,224150.000,A,1206.2563,S,07701.1920,W,0.10,251.42,280426,,,A*66,1
1777416111268765163,$GPGGA,224151.000,1206.2563,S,07701.1920,W,1,05,1.6,156.0,M,8.3,M,,0000*65,1
1777416111381101248,$GPGSA,M,3,24,29,12,11,15,,,,,,,,2.7,1.6,2.2*36,1
1777416111546017436,$GPRMC,224151.000,A,1206.2563,S,07701.1920,W,0.10,251.42,280426,,,A*67,1
1777416112268842273,$GPGGA,224152.000,1206.2564,S,07701.1920,W,1,05,1.6,156.6,M,8.3,M,,0000*67,1
1777416112381158110,$GPGSA,M,3,24,29,12,11,15,,,,,,,,2.7,1.6,2.2*36,1
1777416112541517352,$GPGSV,3,1,12,24,63,078,42,29,62,287,39,12,33,161,33,11,24,113,18*73,1
1777416112688174142,$GPGSV,3,2,12,15,19,006,25,51,52,289,,14,54,274,,09,36,252,*7A,1
1777416112830218071,$GPGSV,3,3,12,04,10,340,,20,03,324,,05,02,045,,10,01,301,*78,1
1777416112995243373,$GPRMC,224152.000,A,1206.2564,S,07701.1920,W,0.11,251.42,280426,,,A*62,1
1777416113268508173,$GPGGA,224153.000,1206.2564,S,07701.1919,W,1,05,1.6,157.0,M,8.3,M,,0000*6B,1
1777416113380769487,$GPGSA,M,3,24,29,12,11,15,,,,,,,,2.7,1.6,2.2*36,1
1777416113545733604,$GPRMC,224153.000,A,1206.2564,S,07701.1919,W,0.07,251.42,280426,,,A*6E,1
1777416114268994424,$GPGGA,224154.000,1206.2565,S,07701.1919,W,1,05,1.6,157.5,M,8.3,M,,0000*68,1
1777416114381268505,$GPGSA,M,3,24,29,12,11,15,,,,,,,,2.7,1.6,2.2*36,1
1777416114546271889,$GPRMC,224154.000,A,1206.2565,S,07701.1919,W,0.12,251.42,280426,,,A*6C,1
1777416115268848620,$GPGGA,224155.000,1206.2565,S,07701.1918,W,1,05,1.6,157.9,M,8.3,M,,0000*64,1
1777416115381109340,$GPGSA,M,3,24,29,12,11,15,,,,,,,,2.7,1.6,2.2*36,1
1777416115546082015,$GPRMC,224155.000,A,1206.2565,S,07701.1918,W,0.17,251.42,280426,,,A*69,1
1777416116269376800,$GPGGA,224156.000,1206.2565,S,07701.1918,W,1,05,1.6,158.3,M,8.3,M,,0000*62,1
1777416116381606104,$GPGSA,M,3,24,29,12,11,15,,,,,,,,2.7,1.6,2.2*36,1
1777416116546581714,$GPRMC,224156.000,A,1206.2565,S,07701.1918,W,0.07,251.42,280426,,,A*6B,1
1777416117267963644,$GPGGA,224157.000,1206.2566,S,07701.1918,W,1,05,1.6,159.0,M,8.3,M,,0000*62,1
1777416117380215618,$GPGSA,M,3,24,29,12,11,15,,,,,,,,2.7,1.6,2.2*36,1
1777416117540601419,$GPGSV,3,1,12,24,63,078,42,29,62,287,39,12,33,161,32,11,24,113,19*73,1
1777416117687250244,$GPGSV,3,2,12,15,19,006,25,51,52,289,,14,54,274,,09,36,252,*7A,1
1777416117829318268,$GPGSV,3,3,12,04,10,340,,20,03,324,,05,02,045,,10,01,301,*78,1
1777416117994290980,$GPRMC,224157.000,A,1206.2566,S,07701.1918,W,0.08,251.42,280426,,,A*66,1
1777416118290714636,$GPGGA,224158.000,1206.2567,S,07701.1918,W,1,05,1.6,159.3,M,8.3,M,,0000*6F,1
1777416118402983578,$GPGSA,M,3,24,29,12,11,15,,,,,,,,2.7,1.6,2.2*36,1
1777416118567964036,$GPRMC,224158.000,A,1206.2567,S,07701.1918,W,0.10,251.42,280426,,,A*61,1
1777416119268553591,$GPGGA,224159.000,1206.2567,S,07701.1918,W,1,05,1.6,159.8,M,8.3,M,,0000*65,1
1777416119380779931,$GPGSA,M,3,24,29,12,11,15,,,,,,,,2.7,1.6,2.2*36,1
1777416119545738954,$GPRMC,224159.000,A,1206.2567,S,07701.1918,W,0.02,251.42,280426,,,A*63,1
1777416120268778904,$GPGGA,224200.000,1206.2568,S,07701.1918,W,1,05,1.6,160.3,M,8.3,M,,0000*64,1
1777416120381052170,$GPGSA,M,3,24,29,12,11,15,,,,,,,,2.7,1.6,2.2*36,1
1777416120546015715,$GPRMC,224200.000,A,1206.2568,S,07701.1918,W,0.06,251.42,280426,,,A*67,1
1777416121267192823,$GPGGA,224201.000,1206.2569,S,07701.1918,W,1,05,1.6,160.9,M,8.3,M,,0000*6E,1
1777416121379454612,$GPGSA,M,3,24,29,12,11,15,,,,,,,,2.7,1.6,2.2*36,1
1777416121544425069,$GPRMC,224201.000,A,1206.2569,S,07701.1918,W,0.16,251.42,280426,,,A*66,1
1777416122267039140,$GPGGA,224202.000,1206.2570,S,07701.1917,W,1,05,1.6,161.4,M,8.3,M,,0000*66,1
1777416122379335744,$GPGSA,M,3,24,29,12,11,15,,,,,,,,2.7,1.6,2.2*36,1
1777416122539730488,$GPGSV,3,1,12,24,63,078,42,29,62,287,39,12,33,161,31,11,24,113,19*70,1
1777416122686350994,$GPGSV,3,2,12,15,19,006,25,44,42,284,,14,54,274,,09,36,252,*72,1
1777416122828433224,$GPGSV,3,3,12,04,10,340,,20,03,324,,05,02,045,,10,01,301,*78,1
1777416122993390038,$GPRMC,224202.000,A,1206.2570,S,07701.1917,W,0.14,251.42,280426,,,A*60,1
1777416123268990995,$GPGGA,224203.000,1206.2570,S,07701.1917,W,1,05,1.6,162.0,M,8.3,M,,0000*60,1
1777416123381269751,$GPGSA,M,3,24,29,12,11,15,,,,,,,,2.7,1.6,2.2*36,1
1777416123546229937,$GPRMC,224203.000,A,1206.2570,S,07701.1917,W,0.05,251.42,280426,,,A*61,1
1777416124268246739,$GPGGA,224204.000,1206.2571,S,07701.1917,W,1,05,1.6,162.3,M,8.3,M,,0000*65,1
1777416124380509314,$GPGSA,M,3,24,29,12,11,15,,,,,,,,2.7,1.6,2.2*36,1
1777416124545476205,$GPRMC,224204.000,A,1206.2571,S,07701.1917,W,0.07,251.42,280426,,,A*65,1
1777416125268105957,$GPGGA,224205.000,1206.2572,S,07701.1918,W,1,05,1.6,162.8,M,8.3,M,,0000*63,1
1777416125380391679,$GPGSA,M,3,24,29,12,11,15,,,,,,,,2.7,1.6,2.2*36,1
1777416125545347479,$GPRMC,224205.000,A,1206.2572,S,07701.1918,W,0.04,251.42,280426,,,A*6B,1
1777416126292122019,$GPGGA,224206.000,1206.2572,S,07701.1918,W,1,05,1.6,163.1,M,8.3,M,,0000*68,1
1777416126404400020,$GPGSA,M,3,24,29,12,11,15,,,,,,,,2.7,1.6,2.2*36,1
1777416126569362356,$GPRMC,224206.000,A,1206.2572,S,07701.1918,W,0.14,251.42,280426,,,A*69,1
1777416127268442988,$GPGGA,224207.000,1206.2572,S,07701.1917,W,1,05,1.6,163.4,M,8.3,M,,0000*63,1
1777416127380713990,$GPGSA,M,3,24,29,12,11,15,,,,,,,,2.7,1.6,2.2*36,1
1777416127541108341,$GPGSV,3,1,12,24,63,078,41,29,62,287,38,12,33,161,31,11,24,113,19*72,1
1777416127692333893,$GPGSV,3,2,12,15,19,006,25,44,42,284,35,14,54,274,,09,36,252,*74,1
1777416127834410588,$GPGSV,3,3,12,04,10,340,,20,03,324,,05,02,045,,10,01,301,*78,1
1777416127999399755,$GPRMC,224207.000,A,1206.2572,S,07701.1917,W,0.20,251.42,280426,,,A*60,1
1777416128291223208,$GPGGA,224208.000,1206.2573,S,07701.1917,W,1,05,1.6,163.9,M,8.3,M,,0000*60,1
1777416128403497135,$GPGSA,M,3,24,29,12,11,15,,,,,,,,2.7,1.6,2.2*36,1
1777416128568482319,$GPRMC,224208.000,A,1206.2573,S,07701.1917,W,0.11,251.42,280426,,,A*6C,1
1777416129268607129,$GPGGA,224209.000,1206.2574,S,07701.1917,W,1,05,1.6,164.4,M,8.3,M,,0000*6C,1
1777416129380863353,$GPGSA,M,3,24,29,12,11,15,,,,,,,,2.7,1.6,2.2*36,1
1777416129545839405,$GPRMC,224209.000,A,1206.2574,S,07701.1917,W,0.14,251.42,280426,,,A*6F,1
1777416130291388785,$GPGGA,224210.000,1206.2574,S,07701.1917,W,1,05,1.6,164.3,M,8.3,M,,0000*63,1
1777416130403658469,$GPGSA,M,3,24,29,12,11,15,,,,,,,,2.7,1.6,2.2*36,1
1777416130568632314,$GPRMC,224210.000,A,1206.2574,S,07701.1917,W,0.00,251.42,280426,,,A*62,1
1777416131268959828,$GPGGA,224211.000,1206.2574,S,07701.1917,W,1,05,1.6,164.3,M,8.3,M,,0000*62,1
1777416131381261803,$GPGSA,M,3,24,29,12,11,15,,,,,,,,2.7,1.6,2.2*36,1
1777416131546272140,$GPRMC,224211.000,A,1206.2574,S,07701.1917,W,0.00,251.42,280426,,,A*63,1
1777416132269665412,$GPGGA,224212.000,1206.2574,S,07701.1917,W,1,05,1.6,164.3,M,8.3,M,,0000*61,1
1777416132381940720,$GPGSA,M,3,24,29,12,11,15,,,,,,,,2.7,1.6,2.2*36,1
1777416132542322121,$GPGSV,3,1,12,24,63,078,41,29,62,287,38,12,33,161,22,11,24,113,21*7B,1
1777416132693563781,$GPGSV,3,2,12,15,19,006,25,44,42,284,32,14,54,274,,09,36,252,*73,1
1777416132835610907,$GPGSV,3,3,12,04,10,340,,20,03,324,,05,02,045,,10,01,301,*78,1
1777416133000606537,$GPRMC,224212.000,A,1206.2574,S,07701.1917,W,0.00,251.42,280426,,,A*60,1
1777416133290774144,$GPGGA,224213.000,1206.2574,S,07701.1917,W,1,05,1.6,164.3,M,8.3,M,,0000*60,1
1777416133403048153,$GPGSA,M,3,24,29,12,11,15,,,,,,,,2.7,1.6,2.2*36,1
1777416133568020945,$GPRMC,224213.000,A,1206.2574,S,07701.1917,W,0.00,251.42,280426,,,A*61,1
1777416134272120531,$GPGGA,224214.000,1206.2574,S,07701.1917,W,1,05,1.6,164.3,M,8.3,M,,0000*67,1
1777416134384435699,$GPGSA,M,3,24,29,12,11,15,,,,,,,,2.7,1.6,2.2*36,1
1777416134549346250,$GPRMC,224214.000,A,1206.2574,S,07701.1917,W,0.00,251.42,280426,,,A*66,1
1777416135266336186,$GPGGA,224215.000,1206.2574,S,07701.1917,W,1,05,1.6,164.3,M,8.3,M,,0000*66,1
1777416135378622797,$GPGSA,M,3,24,29,12,11,15,,,,,,,,2.7,1.6,2.2*36,1
1777416135543586502,$GPRMC,224215.000,A,1206.2574,S,07701.1917,W,0.00,251.42,280426,,,A*67,1
1777416136266209180,$GPGGA,224216.000,1206.2574,S,07701.1917,W,1,05,1.6,164.3,M,8.3,M,,0000*65,1
1777416136378475047,$GPGSA,M,3,24,29,12,11,15,,,,,,,,2.7,1.6,2.2*36,1
1777416136543450909,$GPRMC,224216.000,A,1206.2574,S,07701.1917,W,0.00,251.42,280426,,,A*64,1
1777416137266084756,$GPGGA,224217.000,1206.2574,S,07701.1917,W,1,05,1.6,164.3,M,8.3,M,,0000*64,1
1777416137378340211,$GPGSA,M,3,24,29,12,11,15,,,,,,,,2.7,1.6,2.2*36,1
1777416137538747492,$GPGSV,3,1,12,24,63,078,41,29,62,287,38,12,33,161,23,11,24,113,22*79,1
1777416137685392191,$GPGSV,3,2,12,15,19,006,26,48,33,280,,14,54,274,,09,36,252,*7F,1
1777416137827451320,$GPGSV,3,3,12,04,10,340,,20,03,324,,05,02,045,,10,01,301,*78,1
1777416137992434765,$GPRMC,224217.000,A,1206.2574,S,07701.1917,W,0.00,251.42,280426,,,A*65,1
1777416138266349802,$GPGGA,224218.000,1206.2574,S,07701.1917,W,1,05,1.6,164.3,M,8.3,M,,0000*6B,1
1777416138378695891,$GPGSA,M,3,24,29,12,11,15,,,,,,,,2.7,1.6,2.2*36,1
1777416138543605649,$GPRMC,224218.000,A,1206.2574,S,07701.1917,W,0.00,251.42,280426,,,A*6A,1
1777416139266006600,$GPGGA,224219.000,1206.2574,S,07701.1917,W,1,05,1.6,164.3,M,8.3,M,,0000*6A,1
1777416139378281856,$GPGSA,M,3,24,29,12,11,15,,,,,,,,2.7,1.6,2.2*36,1
1777416139543291724,$GPRMC,224219.000,A,1206.2574,S,07701.1917,W,0.00,251.42,280426,,,A*6B,1
1777416140266512619,$GPGGA,224220.000,1206.2574,S,07701.1917,W,1,05,1.6,164.3,M,8.3,M,,0000*60,1
1777416140378823828,$GPGSA,M,3,24,29,12,11,15,,,,,,,,2.7,1.6,2.2*36,1
1777416140543835555,$GPRMC,224220.000,A,1206.2574,S,07701.1917,W,0.00,251.42,280426,,,A*61,1
1777416141265975994,$GPGGA,224221.000,1206.2574,S,07701.1917,W,1,05,1.6,164.3,M,8.3,M,,0000*61,1
1777416141378238330,$GPGSA,M,3,24,29,12,11,15,,,,,,,,2.7,1.6,2.2*36,1
1777416141543212048,$GPRMC,224221.000,A,1206.2574,S,07701.1917,W,0.00,251.42,280426,,,A*60,1
1777416142265830377,$GPGGA,224222.000,1206.2574,S,07701.1917,W,1,05,1.6,164.3,M,8.3,M,,0000*62,0
1777416142378102556,$GPGSA,M,3,24,29,12,11,15,,,,,,,,2.7,1.6,2.2*36,0
1777416142538494573,$GPGSV,3,1,12,24,63,078,40,29,62,287,38,12,33,161,24,11,24,113,22*7F,0
1777416142685137137,$GPGSV,3,2,12,15,19,006,26,48,33,280,,14,54,274,,09,36,252,*7F,0
1777416142827219288,$GPGSV,3,3,12,04,10,340,,20,03,324,,05,02,045,,10,01,301,*78,0
1777416142992198864,$GPRMC,224222.000,A,1206.2574,S,07701.1917,W,0.00,251.42,280426,,,A*63,0
1777416143266113743,$GPGGA,224223.000,1206.2574,S,07701.1917,W,1,05,1.6,164.3,M,8.3,M,,0000*63,0
1777416143378391173,$GPGSA,M,3,24,29,12,11,15,,,,,,,,2.7,1.6,2.2*36,0
1777416143543380142,$GPRMC,224223.000,A,1206.2574,S,07701.1917,W,0.00,251.42,280426,,,A*62,0
1777416144266407106,$GPGGA,224224.000,1206.2573,S,07701.1916,W,1,05,1.6,164.1,M,8.3,M,,0000*60,0
1777416144378702692,$GPGSA,M,3,24,29,12,11,15,,,,,,,,2.7,1.6,2.2*36,0
1777416144543663594,$GPRMC,224224.000,A,1206.2573,S,07701.1916,W,0.95,251.42,280426,,,A*6F,0
1777416145265660994,$GPGGA,224225.000,1206.2573,S,07701.1912,W,1,05,1.6,164.0,M,8.3,M,,0000*64,0
1777416145377931536,$GPGSA,M,3,24,29,12,11,15,,,,,,,,2.7,1.6,2.2*36,0
1777416145542906237,$GPRMC,224225.000,A,1206.2573,S,07701.1912,W,2.40,104.11,280426,,,A*65,0
1777416146266779271,$GPGGA,224226.000,1206.2572,S,07701.1905,W,1,05,1.6,163.9,M,8.3,M,,0000*6E,0
1777416146379040082,$GPGSA,M,3,24,29,12,11,15,,,,,,,,2.7,1.6,2.2*36,0
1777416146541730847,$GPRMC,224226.000,A,1206.2572,S,07701.1905,W,3.25,86.69,280426,,,A*57,0
1777416147267469715,$GPGGA,224227.000,1206.2571,S,07701.1896,W,1,05,1.6,163.8,M,8.3,M,,0000*66,0
1777416147379765773,$GPGSA,M,3,24,29,12,11,15,,,,,,,,2.7,1.6,2.2*36,0
1777416147540162786,$GPGSV,3,1,12,24,63,078,26,29,62,287,35,12,33,161,32,11,24,113,16*72,0
1777416147691374728,$GPGSV,3,2,12,15,19,006,19,48,33,280,30,14,54,274,,09,36,252,*70,0
1777416147833447501,$GPGSV,3,3,12,04,10,340,,20,03,324,,05,02,045,,10,01,301,*78,0
1777416147996125418,$GPRMC,224227.000,A,1206.2571,S,07701.1896,W,3.05,82.13,280426,,,A*55,0
1777416148267759582,$GPGGA,224228.000,1206.2568,S,07701.1890,W,1,05,1.6,163.5,M,8.3,M,,0000*6A,0
1777416148380039798,$GPGSA,M,3,24,29,12,11,15,,,,,,,,2.7,1.6,2.2*36,0
1777416148542732215,$GPRMC,224228.000,A,1206.2568,S,07701.1890,W,2.76,76.87,280426,,,A*57,0
1777416149267434070,$GPGGA,224229.000,1206.2565,S,07701.1887,W,1,05,1.6,163.4,M,8.3,M,,0000*61,0
1777416149379694517,$GPGSA,M,3,24,29,12,11,15,,,,,,,,2.7,1.6,2.2*36,0
1777416149542415637,$GPRMC,224229.000,A,1206.2565,S,07701.1887,W,1.68,74.22,280426,,,A*5C,0
1777416150267319997,$GPGGA,224230.000,1206.2564,S,07701.1888,W,1,05,1.6,163.2,M,8.3,M,,0000*61,0
1777416150379591413,$GPGSA,M,3,24,29,12,11,15,,,,,,,,2.7,1.6,2.2*36,0
1777416150542258815,$GPRMC,224230.000,A,1206.2564,S,07701.1888,W,0.55,74.22,280426,,,A*55,0
1777416151286327289,$GPGGA,224231.000,1206.2566,S,07701.1890,W,1,04,2.8,163.2,M,8.3,M,,0000*67,1
1777416151394019606,$GPGSA,M,3,24,29,12,11,,,,,,,,,6.0,2.8,5.3*3A,1
1777416151556716172,$GPRMC,224231.000,A,1206.2566,S,07701.1890,W,0.54,74.22,280426,,,A*5E,1
1777416152275384077,$GPGGA,224232.000,1206.2566,S,07701.1892,W,0,00,,163.2,M,8.3,M,,0000*47,1
1777416152344116549,$GPGSA,M,1,,,,,,,,,,,,,,,*12,1
1777416152504514820,$GPGSV,3,1,12,11,24,113,05,12,33,161,27,15,19,006,04,24,63,078,27*7F,1
1777416152651148810,$GPGSV,3,2,12,29,62,287,30,48,33,280,,14,54,274,,09,36,252,*70,1
1777416152793238339,$GPGSV,3,3,12,04,10,340,,20,03,324,,05,02,045,,10,01,301,*78,1
1777416152935292611,$GPRMC,224232.000,V,1206.2566,S,07701.1892,W,,,280426,,,N*75,1
1777416153251923493,$GPGGA,224233.000,1206.2567,S,07701.1893,W,0,00,,163.1,M,8.3,M,,0000*45,1
1777416153320655758,$GPGSA,M,1,,,,,,,,,,,,,,,*12,1
1777416153462715690,$GPRMC,224233.000,V,1206.2567,S,07701.1893,W,,,280426,,,N*74,1
1777416154273752972,$GPGGA,224234.093,1206.2568,S,07701.1894,W,0,00,,163.1,M,8.3,M,,0000*40,1
1777416154342406351,$GPGSA,M,1,,,,,,,,,,,,,,,*12,1
1777416154484461721,$GPRMC,224234.093,V,1206.2568,S,07701.1894,W,,,280426,,,N*71,1
1777416155251868629,$GPGGA,224235.093,1206.2568,S,07701.1896,W,0,00,,163.1,M,8.3,M,,0000*43,1
1777416155320605904,$GPGSA,M,1,,,,,,,,,,,,,,,*12,1
1777416155462683674,$GPRMC,224235.093,V,1206.2568,S,07701.1896,W,,,280426,,,N*72,1
