Unix_time,GPS_data,flagStop
1777416332295216672,$GPGGA,224532.000,1206.2581,S,07701.1970,W,1,05,1.6,149.2,M,8.3,M,,0000*61,0
1777416350597386530,$GPGSA,M,3,24,29,12,11,15,,,,,,,,2.7,1.6,2.2*36,0
1777416350597862406,$GPGSV,3,1,12,24,63,075,46,29,62,284,38,12,32,159,28,11,24,114,18*7F,0
1777416350598565450,$GPGSV,3,2,12,15,18,006,19,50,00,000,,14,54,277,,09,37,253,*72,0
1777416350599199476,$GPGSV,3,3,12,04,11,340,,20,03,325,,05,02,046,,10,01,302,*78,0
1777416350599803445,$GPRMC,224532.000,A,1206.2581,S,07701.1970,W,0.10,162.36,280426,,,A*6F,0
1777416350600489267,$GPGGA,224533.000,1206.2580,S,07701.1970,W,1,05,1.6,149.9,M,8.3,M,,0000*6A,0
1777416350600926160,$GPGSA,M,3,24,29,12,11,15,,,,,,,,2.7,1.6,2.2*36,0
1777416350601017569,$GPRMC,224533.000,A,1206.2580,S,07701.1970,W,0.27,162.36,280426,,,A*6B,0
1777416350601151330,$GPGGA,224534.000,1206.2578,S,07701.1970,W,1,05,1.6,150.5,M,8.3,M,,0000*6E,0
1777416350601291498,$GPGSA,M,3,24,29,12,11,15,,,,,,,,2.7,1.6,2.2*36,0
1777416350601382165,$GPRMC,224534.000,A,1206.2578,S,07701.1970,W,0.20,162.36,280426,,,A*6C,0
1777416350601515315,$GPGGA,224535.000,1206.2577,S,07701.1970,W,1,05,1.6,151.2,M,8.3,M,,0000*66,0
1777416350601655964,$GPGSA,M,3,24,29,12,11,15,,,,,,,,2.7,1.6,2.2*36,0
1777416350601747651,$GPRMC,224535.000,A,1206.2577,S,07701.1970,W,0.34,162.36,280426,,,A*67,0
1777416350601880245,$GPGGA,224536.000,1206.2577,S,07701.1971,W,1,05,1.6,151.1,M,8.3,M,,0000*67,0
1777416350602021024,$GPGSA,M,3,24,29,12,11,15,,,,,,,,2.7,1.6,2.2*36,0
1777416350602111340,$GPRMC,224536.000,A,1206.2577,S,07701.1971,W,0.00,162.36,280426,,,A*62,0
1777416350602244360,$GPGGA,224537.000,1206.2576,S,07701.1971,W,1,05,1.6,151.6,M,8.3,M,,0000*60,0
1777416350602384935,$GPGSA,M,3,24,29,12,11,15,,,,,,,,2.7,1.6,2.2*36,0
1777416350602475769,$GPGSV,3,1,12,24,63,075,40,29,62,284,35,12,32,159,28,11,24,114,18*74,0
1777416350602605178,$GPGSV,3,2,12,15,18,006,19,50,00,000,,14,54,277,,09,37,253,*72,0
1777416350602723679,$GPGSV,3,3,12,04,11,340,,20,03,325,,05,02,046,,10,01,302,*78,0
1777416350602838273,$GPRMC,224537.000,A,1206.2576,S,07701.1971,W,0.24,162.36,280426,,,A*64,0
1777416350602971201,$GPGGA,224538.000,1206.2576,S,07701.1971,W,1,05,1.6,151.7,M,8.3,M,,0000*6E,0
1777416350603111850,$GPGSA,M,3,24,29,12,11,15,,,,,,,,2.7,1.6,2.2*36,0
1777416350603202481,$GPRMC,224538.000,A,1206.2576,S,07701.1971,W,0.56,162.36,280426,,,A*6E,0
1777416350603343056,$GPGGA,224539.000,1206.2576,S,07701.1968,W,1,05,1.6,151.8,M,8.3,M,,0000*68,0
1777416350603482836,$GPGSA,M,3,24,29,12,11,15,,,,,,,,2.7,1.6,2.2*36,0
1777416350603573337,$GPRMC,224539.000,A,1206.2576,S,07701.1968,W,0.26,162.36,280426,,,A*60,0
1777416350603705338,$GPGGA,224540.000,1206.2576,S,07701.1969,W,1,05,1.6,151.9,M,8.3,M,,0000*66,0
1777416350603844617,$GPGSA,M,3,24,29,12,11,15,,,,,,,,2.7,1.6,2.2*36,0
1777416350603935174,$GPRMC,224540.000,A,1206.2576,S,07701.1969,W,0.00,162.36,280426,,,A*6B,0
1777416350604067027,$GPGGA,224541.000,1206.2576,S,07701.1969,W,1,05,1.6,151.9,M,8.3,M,,0000*67,0
1777416350604206306,$GPGSA,M,3,24,29,12,11,15,,,,,,,,2.7,1.6,2.2*36,0
1777416350604296307,$GPRMC,224541.000,A,1206.2576,S,07701.1969,W,0.00,162.36,280426,,,A*6A,0
1777416350604428142,$GPGGA,224542.000,1206.2576,S,07701.1968,W,1,05,1.6,151.9,M,8.3,M,,0000*65,0
1777416350604567292,$GPGSA,M,3,24,29,12,11,15,,,,,,,,2.7,1.6,2.2*36,0
1777416350604657681,$GPGSV,3,1,12,24,63,075,40,29,62,284,38,12,32,159,18,11,24,114,19*7B,0
1777416350604785886,$GPGSV,3,2,12,15,18,006,18,50,00,000,,14,54,277,,09,37,253,*73,0
1777416350604903165,$GPGSV,3,3,12,04,11,340,,20,03,325,,05,02,046,,10,01,302,*78,0
1777416350605016778,$GPRMC,224542.000,A,1206.2576,S,07701.1968,W,0.00,162.36,280426,,,A*68,0
1777416350605149205,$GPGGA,224543.000,1206.2576,S,07701.1968,W,1,05,1.6,151.9,M,8.3,M,,0000*64,0
1777416350605288892,$GPGSA,M,3,24,29,12,11,15,,,,,,,,2.7,1.6,2.2*36,0
1777416350605378985,$GPRMC,224543.000,A,1206.2576,S,07701.1968,W,0.00,162.36,280426,,,A*69,0
1777416350605510987,$GPGGA,224544.000,1206.2576,S,07701.1968,W,1,05,1.6,151.9,M,8.3,M,,0000*63,0
1777416350605650192,$GPGSA,M,3,24,29,12,11,15,,,,,,,,2.7,1.6,2.2*36,0
1777416350605740934,$GPRMC,224544.000,A,1206.2576,S,07701.1968,W,0.00,162.36,280426,,,A*6E,0
1777416350605954510,$GPGGA,224545.000,1206.2576,S,07701.1968,W,1,05,1.6,151.9,M,8.3,M,,0000*62,0
1777416350606095030,$GPGSA,M,3,24,29,12,11,15,,,,,,,,2.7,1.6,2.2*36,0
1777416350606185179,$GPRMC,224545.000,A,1206.2576,S,07701.1968,W,0.00,162.36,280426,,,A*6F,0
1777416350606317810,$GPGGA,224546.000,1206.2576,S,07701.1968,W,1,05,1.6,151.9,M,8.3,M,,0000*61,0
1777416350606457978,$GPGSA,M,3,24,29,12,11,15,,,,,,,,2.7,1.6,2.2*36,0
1777416350606548424,$GPRMC,224546.000,A,1206.2576,S,07701.1968,W,0.00,162.36,280426,,,A*6C,0
1777416350606681110,$GPGGA,224547.000,1206.2576,S,07701.1968,W,1,05,1.6,151.9,M,8.3,M,,0000*60,0
1777416350606821019,$GPGSA,M,3,24,29,12,11,15,,,,,,,,2.7,1.6,2.2*36,0
1777416350606911650,$GPGSV,3,1,12,24,63,075,41,29,62,284,38,12,32,159,30,11,24,114,20*7A,0
1777416350607041429,$GPGSV,3,2,12,15,18,006,18,51,52,289,,14,54,277,,09,37,253,*76,0
1777416350607159393,$GPGSV,3,3,12,04,11,340,,20,03,325,,05,02,046,,10,01,302,*78,0
1777416350607282950,$GPRMC,224547.000,A,1206.2576,S,07701.1968,W,0.00,162.36,280426,,,A*6D,0
1777416350607417655,$GPGGA,224548.000,1206.2576,S,07701.1968,W,1,05,1.6,151.9,M,8.3,M,,0000*6F,0
1777416350607558545,$GPGSA,M,3,24,29,12,11,15,,,,,,,,2.7,1.6,2.2*36,0
1777416350607649380,$GPRMC,224548.000,A,1206.2576,S,07701.1968,W,0.00,162.36,280426,,,A*62,0
1777416350607782251,$GPGGA,224549.000,1206.2580,S,07701.1967,W,1,05,1.6,151.9,M,8.3,M,,0000*68,0
1777416350607922531,$GPGSA,M,3,24,29,12,11,15,,,,,,,,2.7,1.6,2.2*36,0
1777416350608013272,$GPRMC,224549.000,A,1206.2580,S,07701.1967,W,0.16,162.36,280426,,,A*62,0
1777416350608146144,$GPGGA,224550.000,1206.2581,S,07701.1966,W,1,05,1.6,152.0,M,8.3,M,,0000*6A,0
1777416350608287183,$GPGSA,M,3,24,29,12,11,15,,,,,,,,2.7,1.6,2.2*36,0
1777416350608380517,$GPRMC,224550.000,A,1206.2581,S,07701.1966,W,0.23,162.36,280426,,,A*6C,0
1777416351271646525,$GPGGA,224551.000,1206.2583,S,07701.1965,W,1,05,1.6,152.1,M,8.3,M,,0000*6B,0
1777416351383930496,$GPGSA,M,3,24,29,12,11,15,,,,,,,,2.7,1.6,2.2*36,0
1777416351548931093,$GPRMC,224551.000,A,1206.2583,S,07701.1965,W,0.13,162.36,280426,,,A*6F,0
1777416352297446362,$GPGGA,224552.000,1206.2585,S,07701.1966,W,1,05,1.6,152.4,M,8.3,M,,0000*68,0
1777416352409734468,$GPGSA,M,3,24,29,12,11,15,,,,,,,,2.7,1.6,2.2*36,0
1777416352570135559,$GPGSV,3,1,12,24,63,075,42,29,62,284,30,12,32,159,30,11,24,114,20*71,0
1777416352716797332,$GPGSV,3,2,12,15,18,006,18,51,52,289,,14,54,277,,09,37,253,*76,0
1777416352858984914,$GPGSV,3,3,12,04,11,340,,20,03,325,,05,02,046,,10,01,302,*78,0
1777416353023889817,$GPRMC,224552.000,A,1206.2585,S,07701.1966,W,0.45,162.36,280426,,,A*6A,0
1777416353296570451,$GPGGA,224553.000,1206.2587,S,07701.1967,W,1,05,1.6,152.4,M,8.3,M,,0000*6A,0
1777416353408860657,$GPGSA,M,3,24,29,12,11,15,,,,,,,,2.7,1.6,2.2*36,0
1777416353573861979,$GPRMC,224553.000,A,1206.2587,S,07701.1967,W,0.89,162.36,280426,,,A*68,0
1777416354270915645,$GPGGA,224554.000,1206.2587,S,07701.1968,W,1,05,1.6,152.5,M,8.3,M,,0000*63,0
1777416354383228210,$GPGSA,M,3,24,29,12,11,15,,,,,,,,2.7,1.6,2.2*36,0
1777416354548254535,$GPRMC,224554.000,A,1206.2587,S,07701.1968,W,0.68,162.36,280426,,,A*6F,0
1777416355271493907,$GPGGA,224555.000,1206.2583,S,07701.1970,W,1,05,1.6,152.5,M,8.3,M,,0000*6F,0
1777416355383786515,$GPGSA,M,3,24,29,12,11,15,,,,,,,,2.7,1.6,2.2*36,0
1777416355548780769,$GPRMC,224555.000,A,1206.2583,S,07701.1970,W,1.69,262.65,280426,,,A*66,0
1777416356271279047,$GPGGA,224556.000,1206.2580,S,07701.1971,W,1,05,1.6,152.4,M,8.3,M,,0000*6F,0
1777416356383534662,$GPGSA,M,3,24,29,12,11,15,,,,,,,,2.7,1.6,2.2*36,0
1777416356548563679,$GPRMC,224556.000,A,1206.2580,S,07701.1971,W,1.85,294.24,280426,,,A*69,0
1777416357270810666,$GPGGA,224557.000,1206.2579,S,07701.1974,W,1,05,1.6,152.3,M,8.3,M,,0000*6A,0
1777416357383094530,$GPGSA,M,3,24,29,12,11,15,,,,,,,,2.7,1.6,2.2*36,0
1777416357543537387,$GPGSV,3,1,12,24,63,075,26,29,62,284,37,12,32,159,30,11,24,114,19*7E,0
1777416357690201696,$GPGSV,3,2,12,15,18,006,19,51,52,289,,14,54,277,,09,37,253,*77,0
1777416357832272896,$GPGSV,3,3,12,04,11,340,,20,03,325,,05,02,046,,10,01,302,*78,0
1777416357997269583,$GPRMC,224557.000,A,1206.2579,S,07701.1974,W,1.15,294.24,280426,,,A*62,0
1777416358296008729,$GPGGA,224558.000,1206.2576,S,07701.1977,W,1,05,1.6,152.3,M,8.3,M,,0000*69,0
1777416358408292287,$GPGSA,M,3,24,29,12,11,15,,,,,,,,2.7,1.6,2.2*36,0
1777416358573296831,$GPRMC,224558.000,A,1206.2576,S,07701.1977,W,1.77,309.29,280426,,,A*6D,0
1777416359270552402,$GPGGA,224559.000,1206.2572,S,07701.1979,W,1,05,1.6,152.0,M,8.3,M,,0000*61,0
1777416359382841431,$GPGSA,M,3,24,29,12,11,15,,,,,,,,2.7,1.6,2.2*36,0
1777416359547845610,$GPRMC,224559.000,A,1206.2572,S,07701.1979,W,2.86,325.51,280426,,,A*6A,0
1777416360271190583,$GPGGA,224600.000,1206.2564,S,07701.1981,W,1,05,1.6,151.5,M,8.3,M,,0000*68,0
1777416360383436010,$GPGSA,M,3,24,29,12,11,15,,,,,,,,2.7,1.6,2.2*36,0
1777416360548425842,$GPRMC,224600.000,A,1206.2564,S,07701.1981,W,2.82,330.55,280426,,,A*61,0
1777416361268612590,$GPGGA,224601.000,1206.2544,S,07701.1982,W,1,04,1.8,149.4,M,8.3,M,,0000*6F,0
1777416361376361871,$GPGSA,M,3,24,29,12,15,,,,,,,,,2.9,1.8,2.2*36,0
1777416361541292690,$GPRMC,224601.000,A,1206.2544,S,07701.1982,W,2.82,333.22,280426,,,A*62,0
1777416362271508385,$GPGGA,224602.000,1206.2537,S,07701.1985,W,1,05,1.6,149.2,M,8.3,M,,0000*66,0
1777416362383763183,$GPGSA,M,3,24,29,12,11,15,,,,,,,,2.7,1.6,2.2*36,0
1777416362544178374,$GPGSV,3,1,12,24,63,075,27,29,62,284,30,12,32,159,29,11,24,114,11*78,0
1777416362690836174,$GPGSV,3,2,12,15,18,006,26,51,52,289,,14,54,277,,09,37,253,*7B,0
1777416362832909876,$GPGSV,3,3,12,04,11,340,,20,03,325,,05,02,046,,10,01,302,*78,0
1777416362997911092,$GPRMC,224602.000,A,1206.2537,S,07701.1985,W,2.02,334.07,280426,,,A*6A,0
1777416363271649942,$GPGGA,224603.000,1206.2532,S,07701.1988,W,1,05,1.6,149.1,M,8.3,M,,0000*6C,0
1777416363383931418,$GPGSA,M,3,24,29,12,11,15,,,,,,,,2.7,1.6,2.2*36,0
1777416363548946881,$GPRMC,224603.000,A,1206.2532,S,07701.1988,W,0.46,334.07,280426,,,A*61,0
1777416364271395260,$GPGGA,224604.000,1206.2528,S,07701.1990,W,1,05,1.6,148.6,M,8.3,M,,0000*6F,0
1777416364383703801,$GPGSA,M,3,24,29,12,11,15,,,,,,,,2.7,1.6,2.2*36,0
1777416364548666569,$GPRMC,224604.000,A,1206.2528,S,07701.1990,W,0.45,334.07,280426,,,A*67,0
1777416365270529952,$GPGGA,224605.000,1206.2522,S,07701.1990,W,1,05,1.6,148.4,M,8.3,M,,0000*66,0
1777416365382808097,$GPGSA,M,3,24,29,12,11,15,,,,,,,,2.7,1.6,2.2*36,0
1777416365547796391,$GPRMC,224605.000,A,1206.2522,S,07701.1990,W,1.68,338.25,280426,,,A*6E,0
1777416366271322661,$GPGGA,224606.000,1206.2515,S,07701.1991,W,1,05,1.6,148.2,M,8.3,M,,0000*66,0
1777416366383618020,$GPGSA,M,3,24,29,12,11,15,,,,,,,,2.7,1.6,2.2*36,0
1777416366548591434,$GPRMC,224606.000,A,1206.2515,S,07701.1991,W,0.73,338.25,280426,,,A*63,0
1777416367271058840,$GPGGA,224607.000,1206.2513,S,07701.1991,W,1,05,1.6,148.0,M,8.3,M,,0000*63,0
1777416367383348729,$GPGSA,M,3,24,29,12,11,15,,,,,,,,2.7,1.6,2.2*36,0
1777416367543755989,$GPGSV,3,1,12,24,63,075,35,29,62,284,43,12,32,159,32,11,24,114,25*72,0
1777416367690411979,$GPGSV,3,2,12,15,18,006,26,51,52,289,,14,54,277,,09,37,253,*7B,0
1777416367832491916,$GPGSV,3,3,12,04,11,340,,20,03,325,,05,02,046,,10,01,302,*78,0
1777416367997488728,$GPRMC,224607.000,A,1206.2513,S,07701.1991,W,0.14,338.25,280426,,,A*65,0
1777416368043376891,$PSRF156,23,1,0*09,0
1777416368271221777,$GPGGA,224608.000,1206.2513,S,07701.1991,W,1,05,1.6,148.1,M,8.3,M,,0000*6D,0
1777416368383508123,$GPGSA,M,3,24,29,12,11,15,,,,,,,,2.7,1.6,2.2*36,0
1777416368548500631,$GPRMC,224608.000,A,1206.2513,S,07701.1991,W,0.00,338.25,280426,,,A*6F,0
1777416369270153434,$GPGGA,224609.000,1206.2508,S,07701.1993,W,1,05,1.6,148.2,M,8.3,M,,0000*67,1
1777416369382421643,$GPGSA,M,3,24,29,12,11,15,,,,,,,,2.7,1.6,2.2*36,1
1777416369547421476,$GPRMC,224609.000,A,1206.2508,S,07701.1993,W,0.13,338.25,280426,,,A*64,1
1777416370271354192,$GPGGA,224610.000,1206.2504,S,07701.1994,W,1,05,1.6,148.4,M,8.3,M,,0000*62,1
1777416370383627081,$GPGSA,M,3,24,29,12,11,15,,,,,,,,2.7,1.6,2.2*36,1
1777416370548639314,$GPRMC,224610.000,A,1206.2504,S,07701.1994,W,0.15,338.25,280426,,,A*61,1
1777416371296729466,$GPGGA,224611.000,1206.2501,S,07701.1995,W,1,05,1.6,148.6,M,8.3,M,,0000*65,1
1777416371409011683,$GPGSA,M,3,24,29,12,11,15,,,,,,,,2.7,1.6,2.2*36,1
1777416371573994371,$GPRMC,224611.000,A,1206.2501,S,07701.1995,W,0.30,338.25,280426,,,A*63,1
1777416372271053929,$GPGGA,224612.000,1206.2497,S,07701.1994,W,1,05,1.6,148.5,M,8.3,M,,0000*6A,1
1777416372383334307,$GPGSA,M,3,24,29,12,11,15,,,,,,,,2.7,1.6,2.2*36,1
1777416372543742796,$GPGSV,3,1,12,24,63,075,33,29,62,284,46,12,32,159,38,11,24,114,23*7D,1
1777416372690398598,$GPGSV,3,2,12,15,18,006,26,51,52,289,,14,54,277,,09,37,253,*7B,1
1777416372832480059,$GPGSV,3,3,12,04,11,340,,20,03,325,,05,02,046,,10,01,302,*78,1
1777416372997483629,$GPRMC,224612.000,A,1206.2497,S,07701.1994,W,0.19,338.25,280426,,,A*64,1
1777416373270178064,$GPGGA,224613.000,1206.2494,S,07701.1993,W,1,05,1.6,148.5,M,8.3,M,,0000*6F,1
1777416373382451882,$GPGSA,M,3,24,29,12,11,15,,,,,,,,2.7,1.6,2.2*36,1
1777416373547453057,$GPRMC,224613.000,A,1206.2494,S,07701.1993,W,0.25,338.25,280426,,,A*6E,1
1777416374270552346,$GPGGA,224614.000,1206.2492,S,07701.1993,W,1,05,1.6,148.6,M,8.3,M,,0000*6D,1
1777416374382833640,$GPGSA,M,3,24,29,12,11,15,,,,,,,,2.7,1.6,2.2*36,1
1777416374547822346,$GPRMC,224614.000,A,1206.2492,S,07701.1993,W,0.14,338.25,280426,,,A*6D,1
1777416375271135053,$GPGGA,224615.000,1206.2489,S,07701.1993,W,1,05,1.6,148.7,M,8.3,M,,0000*67,1
1777416375383486805,$GPGSA,M,3,24,29,12,11,15,,,,,,,,2.7,1.6,2.2*36,1
1777416375548414192,$GPRMC,224615.000,A,1206.2489,S,07701.1993,W,0.18,338.25,280426,,,A*6A,1
1777416376270247761,$GPGGA,224616.000,1206.2488,S,07701.1993,W,1,05,1.6,149.0,M,8.3,M,,0000*63,1
1777416376382533195,$GPGSA,M,3,24,29,12,11,15,,,,,,,,2.7,1.6,2.2*36,1
1777416376547526373,$GPRMC,224616.000,A,1206.2488,S,07701.1993,W,0.14,338.25,280426,,,A*64,1
1777416377271472106,$GPGGA,224617.000,1206.2487,S,07701.1992,W,1,05,1.6,149.2,M,8.3,M,,0000*6E,1
1777416377383784517,$GPGSA,M,3,24,29,12,11,15,,,,,,,,2.7,1.6,2.2*36,1
1777416377544139026,$GPGSV,3,1,12,24,63,075,34,29,62,284,45,12,32,159,38,11,24,114,19*70,1
1777416377695386222,$GPGSV,3,2,12,15,18,006,25,44,42,284,41,14,54,277,,09,37,253,*75,1
1777416377837462218,$GPGSV,3,3,12,04,11,340,,20,03,325,,05,02,046,,10,01,302,*78,1
1777416378002468188,$GPRMC,224617.000,A,1206.2487,S,07701.1992,W,0.26,338.25,280426,,,A*6A,1
1777416378272660678,$GPGGA,224618.000,1206.2486,S,07701.1992,W,1,05,1.6,149.5,M,8.3,M,,0000*67,1
1777416378384932161,$GPGSA,M,3,24,29,12,11,15,,,,,,,,2.7,1.6,2.2*36,1
1777416378549952349,$GPRMC,224618.000,A,1206.2486,S,07701.1992,W,0.19,338.25,280426,,,A*68,1
1777416379272405116,$GPGGA,224619.000,1206.2484,S,07701.1991,W,1,05,1.6,149.6,M,8.3,M,,0000*64,1
1777416379384695688,$GPGSA,M,3,29,24,12,11,15,,,,,,,,2.7,1.6,2.2*36,1
1777416379549672966,$GPRMC,224619.000,A,1206.2484,S,07701.1991,W,0.27,338.25,280426,,,A*65,1
1777416380297775866,$GPGGA,224620.000,1206.2483,S,07701.1991,W,1,05,1.6,149.9,M,8.3,M,,0000*66,1
1777416380410057120,$GPGSA,M,3,29,24,12,11,15,,,,,,,,2.7,1.6,2.2*36,1
1777416380575044747,$GPRMC,224620.000,A,1206.2483,S,07701.1991,W,0.17,338.25,280426,,,A*6B,1
1777416381272374775,$GPGGA,224621.000,1206.2482,S,07701.1990,W,1,05,1.6,150.1,M,8.3,M,,0000*67,1
1777416381384602934,$GPGSA,M,3,29,24,12,11,15,,,,,,,,2.7,1.6,2.2*36,1
1777416381549588651,$GPRMC,224621.000,A,1206.2482,S,07701.1990,W,0.12,338.25,280426,,,A*6F,1
1777416382297876560,$GPGGA,224622.000,1206.2482,S,07701.1990,W,1,05,1.6,150.4,M,8.3,M,,0000*61,1
1777416382410157736,$GPGSA,M,3,29,24,12,11,15,,,,,,,,2.7,1.6,2.2*36,1
1777416382570564238,$GPGSV,3,1,12,29,63,280,46,24,62,072,34,12,32,158,37,11,24,116,20*76,1
1777416382721804241,$GPGSV,3,2,12,15,17,007,24,44,42,284,40,14,54,280,,09,37,255,*75,1
1777416382863886558,$GPGSV,3,3,12,04,12,341,,20,03,327,,05,02,047,,10,00,303,*79,1
1777416383028874135,$GPRMC,224622.000,A,1206.2482,S,07701.1990,W,0.20,338.25,280426,,,A*6D,1
1777416383300544406,$GPGGA,224623.000,1206.2481,S,07701.1990,W,1,05,1.6,150.6,M,8.3,M,,0000*61,1
1777416383412811376,$GPGSA,M,3,29,24,12,11,15,,,,,,,,2.7,1.6,2.2*36,1
1777416383577819182,$GPRMC,224623.000,A,1206.2481,S,07701.1990,W,0.22,338.25,280426,,,A*6D,1
1777416384273613523,$GPGGA,224624.000,1206.2480,S,07701.1990,W,1,05,1.6,150.9,M,8.3,M,,0000*68,1
1777416384385917047,$GPGSA,M,3,29,24,12,11,15,,,,,,,,2.7,1.6,2.2*36,1
1777416384550895352,$GPRMC,224624.000,A,1206.2480,S,07701.1990,W,0.16,338.25,280426,,,A*6C,1
1777416385272745846,$GPGGA,224625.000,1206.2480,S,07701.1990,W,1,05,1.6,151.2,M,8.3,M,,0000*63,1
1777416385385005591,$GPGSA,M,3,29,24,12,11,15,,,,,,,,2.7,1.6,2.2*36,1
1777416385550006877,$GPRMC,224625.000,A,1206.2480,S,07701.1990,W,0.11,338.25,280426,,,A*6A,1
1777416386272262476,$GPGGA,224626.000,1206.2480,S,07701.1990,W,1,05,1.6,151.6,M,8.3,M,,0000*64,1
1777416386384540739,$GPGSA,M,3,29,24,12,11,15,,,,,,,,2.7,1.6,2.2*36,1
1777416386549539672,$GPRMC,224626.000,A,1206.2480,S,07701.1990,W,0.12,338.25,280426,,,A*6A,1
1777416387272223991,$GPGGA,224627.000,1206.2479,S,07701.1990,W,1,05,1.6,151.9,M,8.3,M,,0000*6C,1
1777416387384500346,$GPGSA,M,3,29,24,12,11,15,,,,,,,,2.7,1.6,2.2*36,1
1777416387544907371,$GPGSV,3,1,12,29,63,280,46,24,62,072,35,12,32,158,36,11,24,116,18*7D,1
1777416387696158319,$GPGSV,3,2,12,15,17,007,23,44,42,284,40,14,54,280,,09,37,255,*72,1
1777416387838303820,$GPGSV,3,3,12,04,12,341,,20,03,327,,05,02,047,,10,00,303,*79,1
1777416388003220236,$GPRMC,224627.000,A,1206.2479,S,07701.1990,W,0.11,338.25,280426,,,A*6E,1
1777416388272787630,$GPGGA,224628.000,1206.2479,S,07701.1990,W,1,05,1.6,152.1,M,8.3,M,,0000*68,1
1777416388385066077,$GPGSA,M,3,29,24,12,11,15,,,,,,,,2.7,1.6,2.2*36,1
1777416388550067085,$GPRMC,224628.000,A,1206.2479,S,07701.1990,W,0.09,338.25,280426,,,A*68,1
1777416389272754311,$GPGGA,224629.000,1206.2477,S,07701.1990,W,1,05,1.6,151.9,M,8.3,M,,0000*6C,1
1777416389385017925,$GPGSA,M,3,29,24,12,11,15,,,,,,,,2.7,1.6,2.2*36,1
1777416389550025471,$GPRMC,224629.000,A,1206.2477,S,07701.1990,W,0.24,338.25,280426,,,A*68,1
1777416390271857462,$GPGGA,224630.000,1206.2475,S,07701.1990,W,1,05,1.6,151.8,M,8.3,M,,0000*67,1
1777416390384132076,$GPGSA,M,3,29,24,12,11,15,,,,,,,,2.7,1.6,2.2*36,1
1777416390549139513,$GPRMC,224630.000,A,1206.2475,S,07701.1990,W,0.26,338.25,280426,,,A*60,1
1777416391297433412,$GPGGA,224631.000,1206.2474,S,07701.1990,W,1,05,1.6,151.7,M,8.3,M,,0000*68,1
1777416391409733564,$GPGSA,M,3,29,24,12,11,15,,,,,,,,2.7,1.6,2.2*36,0
1777416391574730391,$GPRMC,224631.000,A,1206.2474,S,07701.1990,W,0.15,338.25,280426,,,A*60,0
1777416392271571984,$GPGGA,224632.000,1206.2473,S,07701.1990,W,1,05,1.6,151.8,M,8.3,M,,0000*63,0
1777416392383838155,$GPGSA,M,3,29,24,12,11,15,,,,,,,,2.7,1.6,2.2*36,0
1777416392544259343,$GPGSV,3,1,12,29,63,280,46,24,62,072,35,12,32,158,36,11,24,116,17*72,0
1777416392695510025,$GPGSV,3,2,12,15,17,007,23,44,42,284,41,14,54,280,,09,37,255,*73,0
1777416392837557979,$GPGSV,3,3,12,04,12,341,,20,03,327,,05,02,047,,10,00,303,*79,0
1777416393002554346,$GPRMC,224632.000,A,1206.2473,S,07701.1990,W,0.09,338.25,280426,,,A*69,0
1777416393271918767,$GPGGA,224633.000,1206.2473,S,07701.1990,W,1,05,1.6,151.9,M,8.3,M,,0000*63,0
1777416393384210013,$GPGSA,M,3,29,24,12,11,15,,,,,,,,2.7,1.6,2.2*36,0
1777416393549191123,$GPRMC,224633.000,A,1206.2473,S,07701.1990,W,0.10,338.25,280426,,,A*60,0
1777416394272720264,$GPGGA,224634.000,1206.2471,S,07701.1989,W,1,05,1.6,152.0,M,8.3,M,,0000*64,0
1777416394385015882,$GPGSA,M,3,29,24,12,11,15,,,,,,,,2.7,1.6,2.2*36,0
1777416394549964700,$GPRMC,224634.000,A,1206.2471,S,07701.1989,W,0.34,338.25,280426,,,A*6B,0
1777416395273692796,$GPGGA,224635.000,1206.2473,S,07701.1988,W,1,05,1.6,151.9,M,8.3,M,,0000*6C,0
1777416395385976601,$GPGSA,M,3,29,24,12,11,15,,,,,,,,2.7,1.6,2.2*36,0
1777416395550965070,$GPRMC,224635.000,A,1206.2473,S,07701.1988,W,0.81,338.25,280426,,,A*67,0
1777416396272798228,$GPGGA,224636.000,1206.2482,S,07701.1990,W,1,05,1.6,151.3,M,8.3,M,,0000*62,0
1777416396385085146,$GPGSA,M,3,29,24,12,11,15,,,,,,,,2.7,1.6,2.2*36,0
1777416396550086952,$GPRMC,224636.000,A,1206.2482,S,07701.1990,W,2.28,223.53,280426,,,A*68,0
1777416397272563882,$GPGGA,224637.000,1206.2491,S,07701.1993,W,1,05,1.6,150.7,M,8.3,M,,0000*67,0
1777416397384824432,$GPGSA,M,3,29,24,12,11,15,,,,,,,,2.7,1.6,2.2*36,0
1777416397545241275,$GPGSV,3,1,12,29,63,280,38,24,62,072,30,12,32,158,46,11,24,116,21*7C,0
1777416397696485719,$GPGSV,3,2,12,15,17,007,23,44,42,284,33,14,54,280,,09,37,255,*76,0
1777416397838546504,$GPGSV,3,3,12,04,12,341,,20,03,327,,05,02,047,,10,00,303,*79,0
1777416398003541260,$GPRMC,224637.000,A,1206.2491,S,07701.1993,W,1.85,202.97,280426,,,A*67,0
1777416398273117535,$GPGGA,224638.000,1206.2493,S,07701.1993,W,1,05,1.6,149.0,M,8.3,M,,0000*65,0
1777416398385402827,$GPGSA,M,3,29,24,12,11,15,,,,,,,,2.7,1.6,2.2*36,0
1777416398550387458,$GPRMC,224638.000,A,1206.2493,S,07701.1993,W,2.25,193.91,280426,,,A*6E,0
1777416399273685232,$GPGGA,224639.000,1206.2499,S,07701.1992,W,1,05,1.6,148.4,M,8.3,M,,0000*6A,0
1777416399385975879,$GPGSA,M,3,29,24,12,11,15,,,,,,,,2.7,1.6,2.2*36,0
1777416399550979199,$GPRMC,224639.000,A,1206.2499,S,07701.1992,W,2.11,186.74,280426,,,A*6C,0
1777416400273424853,$GPGGA,224640.000,1206.2507,S,07701.1989,W,1,05,1.6,148.0,M,8.3,M,,0000*6C,0
1777416400385699762,$GPGSA,M,3,29,24,12,11,15,,,,,,,,2.7,1.6,2.2*36,0
1777416400550692496,$GPRMC,224640.000,A,1206.2507,S,07701.1989,W,2.03,181.27,280426,,,A*6C,0
1777416401277557821,$GPGGA,224641.000,1206.2514,S,07701.1987,W,1,05,1.6,147.5,M,8.3,M,,0000*6B,0
1777416401389816012,$GPGSA,M,3,29,24,12,11,15,,,,,,,,2.7,1.6,2.2*36,0
1777416401554803696,$GPRMC,224641.000,A,1206.2514,S,07701.1987,W,2.35,175.22,280426,,,A*6A,0
1777416402271441352,$GPGGA,224642.000,1206.2521,S,07701.1982,W,1,05,1.6,146.9,M,8.3,M,,0000*66,0
1777416402383737971,$GPGSA,M,3,29,24,12,11,15,,,,,,,,2.7,1.6,2.2*36,0
1777416402544154571,$GPGSV,3,1,12,29,63,280,30,24,62,072,29,12,32,158,47,11,24,116,19*76,0
1777416402690796621,$GPGSV,3,2,12,15,17,007,25,44,42,284,,14,54,280,,09,37,255,*70,0
1777416402832879506,$GPGSV,3,3,12,04,12,341,,20,03,327,,05,02,047,,10,00,303,*79,0
1777416402997855901,$GPRMC,224642.000,A,1206.2521,S,07701.1982,W,2.81,161.06,280426,,,A*66,0
1777416403296797644,$GPGGA,224643.000,1206.2530,S,07701.1978,W,1,05,1.6,146.6,M,8.3,M,,0000*6D,0
1777416403409071972,$GPGSA,M,3,29,24,12,11,15,,,,,,,,2.7,1.6,2.2*36,0
1777416403574073428,$GPRMC,224643.000,A,1206.2530,S,07701.1978,W,2.58,158.52,280426,,,A*6D,0
1777416404295916939,$GPGGA,224644.000,1206.2538,S,07701.1976,W,1,05,1.6,146.3,M,8.3,M,,0000*69,0
1777416404408189789,$GPGSA,M,3,29,24,12,11,15,,,,,,,,2.7,1.6,2.2*36,0
1777416404573191734,$GPRMC,224644.000,A,1206.2538,S,07701.1976,W,2.41,159.39,280426,,,A*68,0
1777416405271291832,$GPGGA,224645.000,1206.2545,S,07701.1974,W,1,05,1.6,145.9,M,8.3,M,,0000*69,0
1777416405383557112,$GPGSA,M,3,29,24,12,11,15,,,,,,,,2.7,1.6,2.2*36,0
1777416405548567620,$GPRMC,224645.000,A,1206.2545,S,07701.1974,W,2.49,158.94,280426,,,A*6F,0
1777416406268106963,$GPGGA,224646.000,1206.2553,S,07701.1969,W,1,04,3.4,145.8,M,8.3,M,,0000*61,0
1777416406375809755,$GPGSA,M,3,29,12,11,15,,,,,,,,,6.8,3.4,5.9*37,0
1777416406540792697,$GPRMC,224646.000,A,1206.2553,S,07701.1969,W,2.61,160.23,280426,,,A*6A,0
1777416407271593833,$GPGGA,224647.000,1206.2561,S,07701.1968,W,1,05,1.6,145.7,M,8.3,M,,0000*6E,0
1777416407383872994,$GPGSA,M,3,29,24,12,11,15,,,,,,,,2.7,1.6,2.2*36,0
1777416407544265582,$GPGSV,3,1,12,29,63,280,34,24,62,072,30,12,32,158,48,11,24,116,18*74,0
1777416407690936011,$GPGSV,3,2,12,15,17,007,16,44,42,284,,14,54,280,,09,37,255,*70,0
1777416407833012671,$GPGSV,3,3,12,04,12,341,,20,03,327,,05,02,047,,10,00,303,*79,0
1777416407997997936,$GPRMC,224647.000,A,1206.2561,S,07701.1968,W,2.41,163.63,280426,,,A*6E,0
1777416408271741376,$GPGGA,224648.000,1206.2566,S,07701.1961,W,1,05,1.6,145.9,M,8.3,M,,0000*61,0
1777416408384015041,$GPGSA,M,3,29,24,12,11,15,,,,,,,,2.7,1.6,2.2*36,0
1777416408549005685,$GPRMC,224648.000,A,1206.2566,S,07701.1961,W,2.38,164.67,280426,,,A*62,0
1777416409296093510,$GPGGA,224649.000,1206.2572,S,07701.1956,W,1,05,1.6,145.7,M,8.3,M,,0000*6F,0
1777416409408352643,$GPGSA,M,3,29,24,12,11,15,,,,,,,,2.7,1.6,2.2*36,0
1777416409573384907,$GPRMC,224649.000,A,1206.2572,S,07701.1956,W,2.49,161.02,280426,,,A*62,0
1777416410272479310,$GPGGA,224650.000,1206.2578,S,07701.1954,W,1,05,1.6,145.8,M,8.3,M,,0000*60,0
1777416410384740134,$GPGSA,M,3,29,24,12,11,15,,,,,,,,2.7,1.6,2.2*36,0
1777416410549744759,$GPRMC,224650.000,A,1206.2578,S,07701.1954,W,1.50,161.80,280426,,,A*63,0
1777416411273027095,$GPGGA,224651.000,1206.2580,S,07701.1950,W,1,05,1.6,146.0,M,8.3,M,,0000*69,0
1777416411385299648,$GPGSA,M,3,29,24,12,11,15,,,,,,,,2.7,1.6,2.2*36,0
1777416411550298597,$GPRMC,224651.000,A,1206.2580,S,07701.1950,W,0.72,161.80,280426,,,A*60,0
1777416412272342487,$GPGGA,224652.000,1206.2580,S,07701.1949,W,1,05,1.6,146.3,M,8.3,M,,0000*61,0
1777416412384635953,$GPGSA,M,3,29,24,12,11,15,,,,,,,,2.7,1.6,2.2*36,0
1777416412545039816,$GPGSV,3,1,12,29,63,280,31,24,62,072,41,12,32,158,30,11,24,116,19*79,0
1777416412696269358,$GPGSV,3,2,12,15,17,007,19,44,42,284,39,14,54,280,,09,37,255,*75,0
1777416412838351097,$GPGSV,3,3,12,04,12,341,,20,03,327,,05,02,047,,10,00,303,*79,0
1777416413003365556,$GPRMC,224652.000,A,1206.2580,S,07701.1949,W,0.49,161.80,280426,,,A*63,0
1777416413272700684,$GPGGA,224653.000,1206.2579,S,07701.1944,W,1,05,1.6,146.6,M,8.3,M,,0000*6E,0
1777416413384991915,$GPGSA,M,3,29,24,12,11,15,,,,,,,,2.7,1.6,2.2*36,0
1777416413549973348,$GPRMC,224653.000,A,1206.2579,S,07701.1944,W,0.18,161.80,280426,,,A*6D,0
1777416414273059126,$GPGGA,224654.000,1206.2580,S,07701.1943,W,1,05,1.6,146.7,M,8.3,M,,0000*69,1
1777416414385354271,$GPGSA,M,3,29,24,12,11,15,,,,,,,,2.7,1.6,2.2*36,1
1777416414550335086,$GPRMC,224654.000,A,1206.2580,S,07701.1943,W,0.46,161.80,280426,,,A*60,1
1777416415273005914,$GPGGA,224655.000,1206.2579,S,07701.1941,W,1,05,1.6,146.7,M,8.3,M,,0000*6C,1
1777416415385303066,$GPGSA,M,3,29,24,12,11,15,,,,,,,,2.7,1.6,2.2*36,1
1777416415550281021,$GPRMC,224655.000,A,1206.2579,S,07701.1941,W,0.29,161.80,280426,,,A*6C,1
1777416416270864958,$GPGGA,224656.000,1206.2578,S,07701.1941,W,1,04,3.1,146.7,M,8.3,M,,0000*6A,1
1777416416378562007,$GPGSA,M,3,29,24,12,11,,,,,,,,,6.7,3.1,6.0*35,1
1777416416543563011,$GPRMC,224656.000,A,1206.2578,S,07701.1941,W,0.62,161.80,280426,,,A*61,1
1777416417272901722,$GPGGA,224657.000,1206.2578,S,07701.1943,W,1,05,1.6,146.8,M,8.3,M,,0000*62,1
1777416417385190221,$GPGSA,M,3,29,24,12,11,15,,,,,,,,2.7,1.6,2.2*36,1
1777416417545585406,$GPGSV,3,1,12,29,63,280,27,24,62,072,42,12,32,158,18,11,24,116,18*76,1
1777416417696819597,$GPGSV,3,2,12,15,17,007,08,44,42,284,39,14,54,280,,09,37,255,*75,1
1777416417838899440,$GPGSV,3,3,12,04,12,341,,20,03,327,,05,02,047,,10,00,303,*79,1
1777416418003894307,$GPRMC,224657.000,A,1206.2578,S,07701.1943,W,0.36,161.80,280426,,,A*63,1
1777416418270947752,$GPGGA,224658.000,1206.2578,S,07701.1941,W,1,04,3.1,146.9,M,8.3,M,,0000*6A,1
1777416418378658986,$GPGSA,M,3,29,24,12,11,,,,,,,,,6.7,3.1,6.0*35,1
1777416418543649254,$GPRMC,224658.000,A,1206.2578,S,07701.1941,W,0.74,161.80,280426,,,A*68,1
1777416419273191652,$GPGGA,224659.000,1206.2578,S,07701.1939,W,1,05,1.6,147.1,M,8.3,M,,0000*69,1
1777416419385468241,$GPGSA,M,3,29,24,12,11,15,,,,,,,,2.7,1.6,2.2*36,1
1777416419550469596,$GPRMC,224659.000,A,1206.2578,S,07701.1939,W,0.49,161.80,280426,,,A*68,1
