Unix_time,GPS_data,flagStop
1777416420271896948,$GPGGA,224700.000,1206.2577,S,07701.1939,W,1,04,3.1,147.1,M,8.3,M,,0000*6F,0
1777416456063307801,$GPGSA,M,3,29,24,12,11,,,,,,,,,6.8,3.1,6.0*3A,0
1777416456063780994,$GPRMC,224700.000,A,1206.2577,S,07701.1939,W,0.00,161.80,280426,,,A*67,0
1777416456064488497,$GPGGA,224701.000,1206.2577,S,07701.1939,W,1,04,3.1,147.1,M,8.3,M,,0000*6E,0
1777416456065245296,$GPGSA,M,3,29,24,12,11,,,,,,,,,6.8,3.1,6.0*3A,0
1777416456065704656,$GPRMC,224701.000,A,1206.2577,S,07701.1939,W,0.00,161.80,280426,,,A*66,0
1777416456066407900,$GPGGA,224702.000,1206.2577,S,07701.1939,W,1,04,3.1,147.1,M,8.3,M,,0000*6D,0
1777416456067152107,$GPGSA,M,3,29,24,12,11,,,,,,,,,6.8,3.1,6.0*3A,0
1777416456067625393,$GPGSV,3,1,12,29,63,280,27,24,62,072,42,12,32,158,17,11,24,116,17*76,0
1777416456068309600,$GPGSV,3,2,12,15,17,007,07,44,42,284,40,14,54,280,,09,37,255,*74,0
1777416456068953586,$GPGSV,3,3,12,04,12,341,,20,03,327,,05,02,047,,10,00,303,*79,0
1777416456069556795,$GPRMC,224702.000,A,1206.2577,S,07701.1939,W,0.00,161.80,280426,,,A*65,0
1777416456070256521,$GPGGA,224703.000,1206.2577,S,07701.1939,W,1,04,3.1,147.2,M,8.3,M,,0000*6F,0
1777416456070997246,$GPGSA,M,3,29,24,12,11,,,,,,,,,6.8,3.1,6.0*3A,0
1777416456071462847,$GPRMC,224703.000,A,1206.2577,S,07701.1939,W,0.00,161.80,280426,,,A*64,0
1777416456072163406,$GPGGA,224704.000,1206.2577,S,07701.1934,W,1,04,3.1,147.2,M,8.3,M,,0000*65,0
1777416456072906242,$GPGSA,M,3,29,24,12,11,,,,,,,,,6.8,3.1,6.0*3A,0
1777416456073365750,$GPRMC,224704.000,A,1206.2577,S,07701.1934,W,0.28,161.80,280426,,,A*64,0
1777416456074065939,$GPGGA,224705.000,1206.2580,S,07701.1930,W,1,04,3.1,147.2,M,8.3,M,,0000*68,0
1777416456074805312,$GPGSA,M,3,29,24,12,11,,,,,,,,,6.8,3.1,6.0*3A,0
1777416456075268691,$GPRMC,224705.000,A,1206.2580,S,07701.1930,W,0.93,161.80,280426,,,A*69,0
1777416456075964528,$GPGGA,224706.000,1206.2579,S,07701.1930,W,1,04,3.2,147.2,M,8.3,M,,0000*6E,0
1777416456076682494,$GPGSA,M,3,29,24,12,11,,,,,,,,,6.8,3.2,6.0*39,0
1777416456077126373,$GPRMC,224706.000,A,1206.2579,S,07701.1930,W,0.00,161.80,280426,,,A*66,0
1777416456077808080,$GPGGA,224707.000,1206.2579,S,07701.1930,W,1,05,1.6,147.2,M,8.3,M,,0000*68,0
1777416456078524750,$GPGSA,M,3,29,24,12,11,15,,,,,,,,2.7,1.6,2.2*36,0
1777416456078987462,$GPGSV,3,1,12,29,63,280,27,24,62,072,42,12,32,158,23,11,24,116,16*70,0
1777416456079660670,$GPGSV,3,2,12,15,17,007,08,44,42,284,37,14,54,280,,09,37,255,*7B,0
1777416456080283194,$GPGSV,3,3,12,04,12,341,,20,03,327,,05,02,047,,10,00,303,*79,0
1777416456080868533,$GPRMC,224707.000,A,1206.2579,S,07701.1930,W,0.00,161.80,280426,,,A*67,0
1777416456081546759,$GPGGA,224708.000,1206.2579,S,07701.1930,W,1,05,1.6,147.2,M,8.3,M,,0000*67,0
1777416456082262688,$GPGSA,M,3,29,24,12,11,15,,,,,,,,2.7,1.6,2.2*36,0
1777416456082724808,$GPRMC,224708.000,A,1206.2579,S,07701.1930,W,0.00,161.80,280426,,,A*68,0
1777416456083454347,$GPGGA,224709.000,1206.2579,S,07701.1930,W,1,05,1.6,147.2,M,8.3,M,,0000*66,0
1777416456084192276,$GPGSA,M,3,29,24,12,11,15,,,,,,,,2.7,1.6,2.2*36,0
1777416456084669043,$GPRMC,224709.000,A,1206.2579,S,07701.1930,W,0.00,161.80,280426,,,A*69,0
1777416456085368714,$GPGGA,224710.000,1206.2579,S,07701.1930,W,1,05,1.6,147.2,M,8.3,M,,0000*6E,0
1777416456086107716,$GPGSA,M,3,29,24,12,11,15,,,,,,,,2.7,1.6,2.2*36,0
1777416456086583298,$GPRMC,224710.000,A,1206.2579,S,07701.1930,W,0.00,161.80,280426,,,A*61,0
1777416456087293579,$GPGGA,224711.000,1206.2579,S,07701.1930,W,1,05,1.6,147.2,M,8.3,M,,0000*6F,0
1777416456088030378,$GPGSA,M,3,29,24,12,11,15,,,,,,,,2.7,1.6,2.2*36,0
1777416456088506220,$GPRMC,224711.000,A,1206.2579,S,07701.1930,W,0.00,161.80,280426,,,A*60,0
1777416456089203316,$GPGGA,224712.000,1206.2583,S,07701.1925,W,1,04,1.8,147.4,M,8.3,M,,0000*64,0
1777416456089937745,$GPGSA,M,3,29,24,12,15,,,,,,,,,2.9,1.8,2.2*36,0
1777416456090395050,$GPGSV,3,1,12,29,63,280,26,24,62,072,43,12,32,158,24,15,17,007,11*75,0
1777416456091072757,$GPGSV,3,2,12,11,24,116,04,44,42,284,38,14,54,280,,09,37,255,*7D,0
1777416456091722688,$GPGSV,3,3,12,04,12,341,,20,03,327,,05,02,047,,10,00,303,*79,0
1777416456092325212,$GPRMC,224712.000,A,1206.2583,S,07701.1925,W,0.25,161.80,280426,,,A*65,0
1777416456093390522,$GPGGA,224713.000,1206.2586,S,07701.1924,W,1,04,1.8,147.6,M,8.3,M,,0000*63,0
1777416456094124006,$GPGSA,M,3,29,24,12,15,,,,,,,,,2.9,1.8,2.2*36,0
1777416456094577848,$GPRMC,224713.000,A,1206.2586,S,07701.1924,W,0.98,161.80,280426,,,A*66,0
1777416456095282352,$GPGGA,224714.000,1206.2587,S,07701.1927,W,0,00,,147.6,M,8.3,M,,0000*44,0
1777416456095987114,$GPGSA,M,1,,,,,,,,,,,,,,,*12,0
1777416456096266682,$GPRMC,224714.000,V,1206.2587,S,07701.1927,W,,,280426,,,N*74,0
1777416456096825152,$GPGGA,224715.000,1206.2587,S,07701.1929,W,0,00,,147.6,M,8.3,M,,0000*4B,0
1777416456097479212,$GPGSA,M,1,,,,,,,,,,,,,,,*12,0
1777416456097750261,$GPRMC,224715.000,V,1206.2587,S,07701.1929,W,,,280426,,,N*7B,0
1777416456098304657,$GPGGA,224716.097,1206.2589,S,07701.1932,W,0,00,,147.6,M,8.3,M,,0000*42,0
1777416456098954254,$GPGSA,M,1,,,,,,,,,,,,,,,*12,0
1777416456099223211,$GPRMC,224716.097,V,1206.2589,S,07701.1932,W,,,280426,,,N*72,0
1777416456099786403,$GPGGA,224717.097,1206.2589,S,07701.1927,W,1,04,1.8,147.6,M,8.3,M,,0000*65,0
1777416456100389167,$GPGSA,M,3,29,24,12,15,,,,,,,,,2.9,1.8,2.2*36,0
1777416456100809566,$GPGSV,3,1,12,29,63,280,27,24,62,072,42,12,32,158,20,15,17,007,16*76,0
1777416456101432811,$GPGSV,3,2,12,11,24,116,04,44,42,284,41,14,54,280,,09,37,255,*73,0
1777416456102021243,$GPGSV,3,3,12,04,12,341,,20,03,327,,05,02,047,,10,00,303,*79,0
1777416456102575509,$GPRMC,224717.097,A,1206.2589,S,07701.1927,W,0.18,161.80,280426,,,A*68,0
1777416456102814208,$GPGGA,224718.097,1206.2592,S,07701.1922,W,1,04,1.8,147.6,M,8.3,M,,0000*65,0
1777416456102954742,$GPGSA,M,3,29,24,12,15,,,,,,,,,2.9,1.8,2.2*36,0
1777416456103041906,$GPRMC,224718.097,A,1206.2592,S,07701.1922,W,1.16,161.80,280426,,,A*67,0
1777416456103176144,$GPGGA,224719.000,1206.2595,S,07701.1915,W,1,04,1.8,147.5,M,8.3,M,,0000*6A,0
1777416456103362640,$GPGSA,M,3,29,24,12,15,,,,,,,,,2.9,1.8,2.2*36,0
1777416456103450712,$GPRMC,224719.000,A,1206.2595,S,07701.1915,W,0.34,161.80,280426,,,A*6A,0
1777416456103584839,$GPGGA,224720.000,1206.2595,S,07701.1901,W,1,04,1.8,147.5,M,8.3,M,,0000*65,0
1777416456103726466,$GPGSA,M,3,29,24,12,15,,,,,,,,,2.9,1.8,2.2*36,0
1777416456103814297,$GPRMC,224720.000,A,1206.2595,S,07701.1901,W,0.60,161.80,280426,,,A*64,0
1777416456103948405,$GPGGA,224721.000,1206.2597,S,07701.1892,W,1,04,1.8,147.2,M,8.3,M,,0000*6A,0
1777416456104090087,$GPGSA,M,3,29,24,12,15,,,,,,,,,2.9,1.8,2.2*36,0
1777416456104177993,$GPRMC,224721.000,A,1206.2597,S,07701.1892,W,0.94,161.80,280426,,,A*67,0
1777416456104312027,$GPGGA,224722.000,1206.2603,S,07701.1885,W,1,04,1.8,147.0,M,8.3,M,,0000*63,0
1777416456104453617,$GPGSA,M,3,29,24,12,15,,,,,,,,,2.9,1.8,2.2*36,0
1777416456104541393,$GPGSV,3,1,12,29,63,280,28,24,62,072,43,12,32,158,18,15,17,007,17*72,0
1777416456104670871,$GPGSV,3,2,12,11,24,116,04,44,42,284,39,14,54,280,,09,37,255,*7C,0
1777416456104793609,$GPGSV,3,3,12,04,12,341,,20,03,327,,05,02,047,,10,00,303,*79,0
1777416456104908625,$GPRMC,224722.000,A,1206.2603,S,07701.1885,W,2.24,172.82,280426,,,A*65,0
1777416456105042234,$GPGGA,224723.000,1206.2610,S,07701.1880,W,1,04,1.8,146.7,M,8.3,M,,0000*63,0
1777416456105183082,$GPGSA,M,3,29,24,12,15,,,,,,,,,2.9,1.8,2.2*36,0
1777416456105270469,$GPRMC,224723.000,A,1206.2610,S,07701.1880,W,1.98,173.53,280426,,,A*6A,0
1777416456105403966,$GPGGA,224724.000,1206.2613,S,07701.1875,W,1,04,1.8,146.8,M,8.3,M,,0000*62,0
1777416456105545038,$GPGSA,M,3,29,24,12,15,,,,,,,,,2.9,1.8,2.2*36,0
1777416456105632406,$GPRMC,224724.000,A,1206.2613,S,07701.1875,W,0.72,173.53,280426,,,A*61,0
1777416456105766033,$GPGGA,224725.000,1206.2612,S,07701.1872,W,1,04,1.8,147.1,M,8.3,M,,0000*6D,0
1777416456105906604,$GPGSA,M,3,29,24,12,15,,,,,,,,,2.9,1.8,2.2*36,0
1777416456105993935,$GPRMC,224725.000,A,1206.2612,S,07701.1872,W,0.56,173.53,280426,,,A*60,0
1777416456106127432,$GPGGA,224726.000,1206.2612,S,07701.1870,W,1,04,1.8,147.3,M,8.3,M,,0000*6E,0
1777416456106268392,$GPGSA,M,3,29,24,12,15,,,,,,,,,2.9,1.8,2.2*36,0
1777416456106355816,$GPRMC,224726.000,A,1206.2612,S,07701.1870,W,0.37,173.53,280426,,,A*66,0
1777416456106512924,$GPGGA,224727.000,1206.2613,S,07701.1874,W,1,04,1.8,147.6,M,8.3,M,,0000*6F,0
1777416456106654328,$GPGSA,M,3,29,24,12,15,,,,,,,,,2.9,1.8,2.2*36,0
1777416456106741530,$GPGSV,3,1,12,29,63,280,28,24,62,072,34,12,32,158,24,15,17,007,18*72,0
1777416456106870953,$GPGSV,3,2,12,44,42,284,40,14,54,280,,09,37,255,,11,24,116,*76,0
1777416456106989617,$GPGSV,3,3,12,04,12,341,,20,03,327,,05,02,047,,10,00,303,*79,0
1777416456107104819,$GPRMC,224727.000,A,1206.2613,S,07701.1874,W,1.31,175.13,280426,,,A*67,0
1777416456107237408,$GPGGA,224728.000,1206.2615,S,07701.1880,W,1,04,1.8,147.9,M,8.3,M,,0000*62,0
1777416456107385813,$GPGSA,M,3,29,24,12,15,,,,,,,,,2.9,1.8,2.2*36,0
1777416456107473274,$GPRMC,224728.000,A,1206.2615,S,07701.1880,W,0.18,175.13,280426,,,A*6F,0
1777416456107607215,$GPGGA,224729.000,1206.2610,S,07701.1885,W,1,04,1.8,148.9,M,8.3,M,,0000*6C,0
1777416456107748453,$GPGSA,M,3,29,24,12,15,,,,,,,,,2.9,1.8,2.2*36,0
1777416456107835970,$GPRMC,224729.000,A,1206.2610,S,07701.1885,W,1.04,175.13,280426,,,A*62,0
1777416456107969819,$GPGGA,224730.000,1206.2610,S,07701.1889,W,1,04,1.8,148.9,M,8.3,M,,0000*68,0
1777416456108110760,$GPGSA,M,3,29,24,12,15,,,,,,,,,2.9,1.8,2.2*36,0
1777416456108197962,$GPRMC,224730.000,A,1206.2610,S,07701.1889,W,0.49,175.13,280426,,,A*6E,0
1777416456108331218,$GPGGA,224731.000,1206.2606,S,07701.1893,W,1,04,1.8,149.2,M,8.3,M,,0000*6F,0
1777416456108472252,$GPGSA,M,3,29,24,12,15,,,,,,,,,2.9,1.8,2.2*36,0
1777416456108560621,$GPRMC,224731.000,A,1206.2606,S,07701.1893,W,0.34,175.13,280426,,,A*69,0
1777416456108694377,$GPGGA,224732.000,1206.2605,S,07701.1895,W,1,04,1.8,150.2,M,8.3,M,,0000*61,0
1777416456108834170,$GPGSA,M,3,29,24,12,15,,,,,,,,,2.9,1.8,2.2*36,0
1777416456108921668,$GPGSV,3,1,12,29,63,280,33,24,62,072,38,12,32,158,28,15,17,007,18*78,0
1777416456109051591,$GPGSV,3,2,12,44,42,284,42,14,54,280,,09,37,255,,11,24,116,*74,0
1777416456109170515,$GPGSV,3,3,12,04,12,341,,20,03,327,,05,02,047,,10,00,303,*79,0
1777416456109285698,$GPRMC,224732.000,A,1206.2605,S,07701.1895,W,0.09,175.13,280426,,,A*61,0
1777416456109418398,$GPGGA,224733.000,1206.2605,S,07701.1896,W,1,04,1.8,151.4,M,8.3,M,,0000*64,0
1777416456109557525,$GPGSA,M,3,29,24,12,15,,,,,,,,,2.9,1.8,2.2*36,0
1777416456109644616,$GPRMC,224733.000,A,1206.2605,S,07701.1896,W,0.03,175.13,280426,,,A*69,0
1777416456109776983,$GPGGA,224734.000,1206.2606,S,07701.1897,W,1,04,1.8,152.5,M,8.3,M,,0000*63,0
1777416456109917128,$GPGSA,M,3,29,24,12,15,,,,,,,,,2.9,1.8,2.2*36,0
1777416456110004404,$GPRMC,224734.000,A,1206.2606,S,07701.1897,W,0.07,175.13,280426,,,A*68,0
1777416456110138235,$GPGGA,224735.000,1206.2605,S,07701.1898,W,1,04,1.8,153.2,M,8.3,M,,0000*68,0
1777416456110279898,$GPGSA,M,3,29,24,12,15,,,,,,,,,2.9,1.8,2.2*36,0
1777416456110370396,$GPRMC,224735.000,A,1206.2605,S,07701.1898,W,0.11,175.13,280426,,,A*62,0
1777416456269741402,$GPGGA,224736.000,1206.2606,S,07701.1899,W,1,04,1.8,154.5,M,8.3,M,,0000*69,0
1777416456377498837,$GPGSA,M,3,29,24,12,15,,,,,,,,,2.9,1.8,2.2*36,0
1777416456542528776,$GPRMC,224736.000,A,1206.2606,S,07701.1899,W,0.16,175.13,280426,,,A*64,0
1777416457294304371,$GPGGA,224737.000,1206.2606,S,07701.1899,W,1,04,1.8,155.6,M,8.3,M,,0000*6A,0
1777416457402000360,$GPGSA,M,3,29,24,12,15,,,,,,,,,2.9,1.8,2.2*36,0
1777416457562389276,$GPGSV,3,1,12,29,63,280,33,24,62,072,37,12,32,158,28,15,17,007,19*76,0
1777416457709039157,$GPGSV,3,2,12,44,42,284,42,14,54,280,,09,37,255,,11,24,116,*74,0
1777416457851121509,$GPGSV,3,3,12,04,12,341,,20,03,327,,05,02,047,,10,00,303,*79,0
1777416458016135358,$GPRMC,224737.000,A,1206.2606,S,07701.1899,W,0.24,175.13,280426,,,A*64,0
1777416458299866831,$GPGGA,224738.000,1206.2604,S,07701.1900,W,1,04,1.8,153.6,M,8.3,M,,0000*60,0
1777416458407555447,$GPGSA,M,3,29,24,12,15,,,,,,,,,2.9,1.8,2.2*36,0
1777416458572560898,$GPRMC,224738.000,A,1206.2604,S,07701.1900,W,0.00,175.13,280426,,,A*6E,0
1777416459270184675,$GPGGA,224739.000,1206.2604,S,07701.1900,W,1,04,1.8,154.2,M,8.3,M,,0000*62,0
1777416459377876234,$GPGSA,M,3,29,24,12,15,,,,,,,,,2.9,1.8,2.2*36,0
1777416459542897004,$GPRMC,224739.000,A,1206.2604,S,07701.1900,W,0.54,175.13,280426,,,A*6E,0
1777416460270306025,$GPGGA,224740.000,1206.2601,S,07701.1901,W,1,04,1.8,154.3,M,8.3,M,,0000*69,0
1777416460378030655,$GPGSA,M,3,29,24,12,15,,,,,,,,,2.9,1.8,2.2*36,0
1777416460543069579,$GPRMC,224740.000,A,1206.2601,S,07701.1901,W,0.57,175.13,280426,,,A*67,0
1777416461271546920,$GPGGA,224741.000,1206.2596,S,07701.1904,W,1,05,1.6,154.6,M,8.3,M,,0000*6A,0
1777416461383841446,$GPGSA,M,3,29,24,12,11,15,,,,,,,,2.7,1.6,2.2*36,0
1777416461548813600,$GPRMC,224741.000,A,1206.2596,S,07701.1904,W,0.73,175.13,280426,,,A*68,0
1777416462299423152,$GPGGA,224742.000,1206.2594,S,07701.1907,W,1,05,1.6,154.7,M,8.3,M,,0000*69,0
1777416462411680621,$GPGSA,M,3,29,24,12,11,15,,,,,,,,2.7,1.6,2.2*36,0
1777416462572063218,$GPGSV,3,1,12,29,63,280,38,24,62,072,39,12,32,158,32,11,24,116,13*77,0
1777416462723345022,$GPGSV,3,2,12,15,17,007,21,44,42,284,30,14,54,280,,09,37,255,*77,0
1777416462865374981,$GPGSV,3,3,12,04,12,341,,20,03,327,,05,02,047,,10,00,303,*79,0
1777416463030381821,$GPRMC,224742.000,A,1206.2594,S,07701.1907,W,2.09,278.57,280426,,,A*6B,0
1777416463269540196,$GPGGA,224743.000,1206.2584,S,07701.1911,W,1,04,3.5,155.0,M,8.3,M,,0000*68,0
1777416463377226711,$GPGSA,M,3,29,12,11,15,,,,,,,,,7.0,3.5,6.0*35,0
1777416463542240488,$GPRMC,224743.000,A,1206.2584,S,07701.1911,W,2.79,300.89,280426,,,A*66,0
1777416464271799584,$GPGGA,224744.000,1206.2573,S,07701.1915,W,1,05,1.6,155.0,M,8.3,M,,0000*63,0
1777416464384040807,$GPGSA,M,3,29,24,12,11,15,,,,,,,,2.7,1.6,2.2*36,0
1777416464549003573,$GPRMC,224744.000,A,1206.2573,S,07701.1915,W,2.48,328.68,280426,,,A*6A,0
1777416465272107167,$GPGGA,224745.000,1206.2566,S,07701.1919,W,1,05,1.6,154.5,M,8.3,M,,0000*6E,0
1777416465384415980,$GPGSA,M,3,29,24,12,11,15,,,,,,,,2.7,1.6,2.2*36,0
1777416465549376605,$GPRMC,224745.000,A,1206.2566,S,07701.1919,W,2.56,332.89,280426,,,A*68,0
1777416466271859710,$GPGGA,224746.000,1206.2559,S,07701.1924,W,1,05,1.6,154.2,M,8.3,M,,0000*68,0
1777416466384113134,$GPGSA,M,3,29,24,12,11,15,,,,,,,,2.7,1.6,2.2*36,0
1777416466549074210,$GPRMC,224746.000,A,1206.2559,S,07701.1924,W,3.34,334.46,280426,,,A*69,0
1777416467272571125,$GPGGA,224747.000,1206.2549,S,07701.1930,W,1,05,1.6,153.5,M,8.3,M,,0000*6D,0
1777416467384935656,$GPGSA,M,3,29,24,12,11,15,,,,,,,,2.7,1.6,2.2*36,0
1777416467545253072,$GPGSV,3,1,12,29,63,280,32,24,62,072,25,12,32,158,33,11,24,116,16*74,0
1777416467696521165,$GPGSV,3,2,12,15,17,007,23,44,42,284,26,14,54,280,,09,37,255,*72,0
1777416467838598419,$GPGSV,3,3,12,04,12,341,,20,03,327,,05,02,047,,10,00,303,*79,0
1777416468003558985,$GPRMC,224747.000,A,1206.2549,S,07701.1930,W,2.25,336.15,280426,,,A*69,0
1777416468273038181,$GPGGA,224748.000,1206.2539,S,07701.1934,W,1,05,1.6,152.8,M,8.3,M,,0000*6D,0
1777416468385284306,$GPGSA,M,3,29,24,12,11,15,,,,,,,,2.7,1.6,2.2*36,0
1777416468550186010,$GPRMC,224748.000,A,1206.2539,S,07701.1934,W,1.12,336.15,280426,,,A*62,0
1777416469272918816,$GPGGA,224749.000,1206.2535,S,07701.1939,W,1,05,1.6,152.3,M,8.3,M,,0000*66,0
1777416469385230956,$GPGSA,M,3,29,24,12,11,15,,,,,,,,2.7,1.6,2.2*36,0
1777416469550105039,$GPRMC,224749.000,A,1206.2535,S,07701.1939,W,1.07,336.15,280426,,,A*66,0
1777416470272599852,$GPGGA,224750.000,1206.2530,S,07701.1945,W,1,05,1.6,152.1,M,8.3,M,,0000*62,0
1777416470384853678,$GPGSA,M,3,29,24,12,11,15,,,,,,,,2.7,1.6,2.2*36,0
1777416470549876729,$GPRMC,224750.000,A,1206.2530,S,07701.1945,W,1.86,336.49,280426,,,A*60,0
1777416471273150916,$GPGGA,224751.000,1206.2524,S,07701.1950,W,1,05,1.6,151.4,M,8.3,M,,0000*64,0
1777416471385426351,$GPGSA,M,3,29,24,12,11,15,,,,,,,,2.7,1.6,2.2*36,0
1777416471550447484,$GPRMC,224751.000,A,1206.2524,S,07701.1950,W,1.52,338.28,280426,,,A*60,0
1777416472300593073,$GPGGA,224752.000,1206.2519,S,07701.1956,W,1,05,1.6,151.0,M,8.3,M,,0000*6B,0
1777416472412861711,$GPGSA,M,3,29,24,12,11,15,,,,,,,,2.7,1.6,2.2*36,0
1777416472573247559,$GPGSV,3,1,12,29,63,280,33,24,62,072,27,12,32,158,38,11,24,116,17*7D,0
1777416472724587666,$GPGSV,3,2,12,15,17,007,22,44,42,284,35,14,54,280,,09,37,255,*71,0
1777416472866603464,$GPGSV,3,3,12,04,12,341,,20,03,327,,05,02,047,,10,00,303,*79,0
1777416473031650120,$GPRMC,224752.000,A,1206.2519,S,07701.1956,W,2.48,335.33,280426,,,A*64,0
1777416473272823447,$GPGGA,224753.000,1206.2509,S,07701.1962,W,1,05,1.6,151.2,M,8.3,M,,0000*6E,0
1777416473385083159,$GPGSA,M,3,29,24,12,11,15,,,,,,,,2.7,1.6,2.2*36,0
1777416473550045015,$GPRMC,224753.000,A,1206.2509,S,07701.1962,W,2.65,339.09,280426,,,A*69,0
1777416474272520923,$GPGGA,224754.000,1206.2504,S,07701.1972,W,1,05,1.6,151.2,M,8.3,M,,0000*65,0
1777416474384790041,$GPGSA,M,3,29,24,12,11,15,,,,,,,,2.7,1.6,2.2*36,0
1777416474549814831,$GPRMC,224754.000,A,1206.2504,S,07701.1972,W,1.60,337.75,280426,,,A*61,0
1777416475272640775,$GPGGA,224755.000,1206.2500,S,07701.1976,W,1,05,1.6,151.4,M,8.3,M,,0000*62,0
1777416475384921300,$GPGSA,M,3,29,24,12,11,15,,,,,,,,2.7,1.6,2.2*36,0
1777416475549989320,$GPRMC,224755.000,A,1206.2500,S,07701.1976,W,1.01,337.75,280426,,,A*67,0
1777416476273035563,$GPGGA,224756.000,1206.2499,S,07701.1980,W,1,05,1.6,151.3,M,8.3,M,,0000*6E,0
1777416476385258923,$GPGSA,M,3,29,24,12,11,15,,,,,,,,2.7,1.6,2.2*36,0
1777416476550252084,$GPRMC,224756.000,A,1206.2499,S,07701.1980,W,0.12,337.75,280426,,,A*6F,0
1777416477272708592,$GPGGA,224757.000,1206.2499,S,07701.1981,W,1,05,1.6,151.3,M,8.3,M,,0000*6E,0
1777416477384987321,$GPGSA,M,3,29,24,12,11,15,,,,,,,,2.7,1.6,2.2*36,0
1777416477545376312,$GPGSV,3,1,12,29,63,280,43,24,62,072,38,12,32,158,27,11,24,116,21*7F,1
1777416477696622812,$GPGSV,3,2,12,15,17,007,22,44,42,284,38,14,54,280,,09,37,255,*7C,1
1777416477838713859,$GPGSV,3,3,12,04,12,341,,20,03,327,,05,02,047,,10,00,303,*79,1
1777416478003677456,$GPRMC,224757.000,A,1206.2499,S,07701.1981,W,0.00,337.75,280426,,,A*6C,1
1777416478273277191,$GPGGA,224758.000,1206.2499,S,07701.1981,W,1,05,1.6,151.3,M,8.3,M,,0000*61,1
1777416478385541439,$GPGSA,M,3,29,24,12,11,15,,,,,,,,2.7,1.6,2.2*36,1
1777416478550522934,$GPRMC,224758.000,A,1206.2499,S,07701.1981,W,0.00,337.75,280426,,,A*63,1
1777416479272977260,$GPGGA,224759.000,1206.2499,S,07701.1981,W,1,05,1.6,151.3,M,8.3,M,,0000*60,1
1777416479385278970,$GPGSA,M,3,29,24,12,11,15,,,,,,,,2.7,1.6,2.2*36,1
1777416479550248606,$GPRMC,224759.000,A,1206.2499,S,07701.1981,W,0.00,337.75,280426,,,A*62,1
1777416480271021154,$GPGGA,224800.000,1206.2499,S,07701.1981,W,1,05,1.6,150.7,M,8.3,M,,0000*66,1
1777416480383311383,$GPGSA,M,3,29,24,12,11,15,,,,,,,,2.7,1.6,2.2*36,1
1777416480548308825,$GPRMC,224800.000,A,1206.2499,S,07701.1981,W,0.21,337.75,280426,,,A*62,1
1777416481271391808,$GPGGA,224801.000,1206.2498,S,07701.1982,W,1,05,1.6,150.6,M,8.3,M,,0000*64,1
1777416481383659260,$GPGSA,M,3,29,24,12,11,15,,,,,,,,2.7,1.6,2.2*36,1
1777416481548681360,$GPRMC,224801.000,A,1206.2498,S,07701.1982,W,0.23,337.75,280426,,,A*63,1
1777416482297138397,$GPGGA,224802.000,1206.2497,S,07701.1983,W,1,05,1.6,150.5,M,8.3,M,,0000*6A,1
1777416482409402517,$GPGSA,M,3,29,24,12,11,15,,,,,,,,2.7,1.6,2.2*36,1
1777416482569817840,$GPGSV,3,1,12,29,63,280,39,24,62,072,37,12,32,158,33,11,24,116,22*7B,1
1777416482721057496,$GPGSV,3,2,12,15,17,007,20,44,42,284,35,14,54,280,,09,37,255,*73,1
1777416482863111596,$GPGSV,3,3,12,04,12,341,,20,03,327,,05,02,047,,10,00,303,*79,1
1777416483028108204,$GPRMC,224802.000,A,1206.2497,S,07701.1983,W,0.24,337.75,280426,,,A*69,1
1777416483271223549,$GPGGA,224803.000,1206.2496,S,07701.1984,W,1,05,1.6,150.5,M,8.3,M,,0000*6D,1
1777416483383508650,$GPGSA,M,3,29,24,12,11,15,,,,,,,,2.7,1.6,2.2*36,1
1777416483548500458,$GPRMC,224803.000,A,1206.2496,S,07701.1984,W,0.16,337.75,280426,,,A*6F,1
1777416484296773837,$GPGGA,224804.000,1206.2495,S,07701.1984,W,1,05,1.6,150.3,M,8.3,M,,0000*6F,1
1777416484409055939,$GPGSA,M,3,29,24,12,11,15,,,,,,,,2.7,1.6,2.2*36,1
1777416484574046221,$GPRMC,224804.000,A,1206.2495,S,07701.1984,W,0.20,337.75,280426,,,A*6E,1
1777416485296918859,$GPGGA,224805.000,1206.2493,S,07701.1985,W,1,05,1.6,150.2,M,8.3,M,,0000*68,1
1777416485409190278,$GPGSA,M,3,29,24,12,11,15,,,,,,,,2.7,1.6,2.2*36,1
1777416485574172978,$GPRMC,224805.000,A,1206.2493,S,07701.1985,W,0.21,337.75,280426,,,A*69,1
1777416486270177761,$GPGGA,224806.000,1206.2492,S,07701.1985,W,1,04,3.2,150.3,M,8.3,M,,0000*6C,1
1777416486377882821,$GPGSA,M,3,29,24,12,11,,,,,,,,,7.0,3.2,6.2*32,1
1777416486542850145,$GPRMC,224806.000,A,1206.2492,S,07701.1985,W,0.16,337.75,280426,,,A*6F,1
1777416487270943202,$GPGGA,224807.000,1206.2492,S,07701.1986,W,1,04,3.2,150.5,M,8.3,M,,0000*68,1
1777416487378635117,$GPGSA,M,3,29,24,12,11,,,,,,,,,7.0,3.2,6.2*32,1
1777416487539034909,$GPGSV,3,1,12,29,63,280,39,24,62,072,36,12,32,158,31,11,24,116,23*79,1
1777416487690283206,$GPGSV,3,2,12,15,17,007,04,44,42,284,33,14,54,280,,09,37,255,*73,1
1777416487832352992,$GPGSV,3,3,12,04,12,341,,20,03,327,,05,02,047,,10,00,303,*79,1
1777416487997341290,$GPRMC,224807.000,A,1206.2492,S,07701.1986,W,0.14,337.75,280426,,,A*6F,1
1777416488269407942,$GPGGA,224808.000,1206.2491,S,07701.1986,W,1,04,3.2,150.7,M,8.3,M,,0000*66,1
1777416488377096173,$GPGSA,M,3,29,24,12,11,,,,,,,,,7.0,3.2,6.2*32,1
1777416488542081780,$GPRMC,224808.000,A,1206.2491,S,07701.1986,W,0.19,337.75,280426,,,A*6E,1
1777416489269136237,$GPGGA,224809.000,1206.2490,S,07701.1987,W,1,04,3.2,150.8,M,8.3,M,,0000*68,1
1777416489376825601,$GPGSA,M,3,29,24,12,11,,,,,,,,,7.0,3.2,6.2*32,1
1777416489541808812,$GPRMC,224809.000,A,1206.2490,S,07701.1987,W,0.16,337.75,280426,,,A*60,1
1777416490269263833,$GPGGA,224810.000,1206.2489,S,07701.1987,W,1,04,3.2,151.0,M,8.3,M,,0000*61,1
1777416490376946699,$GPGSA,M,3,29,24,12,11,,,,,,,,,7.0,3.2,6.2*32,1
1777416490541939682,$GPRMC,224810.000,A,1206.2489,S,07701.1987,W,0.18,337.75,280426,,,A*6E,1
1777416491268985033,$GPGGA,224811.000,1206.2488,S,07701.1987,W,1,04,3.2,151.1,M,8.3,M,,0000*60,1
1777416491376674938,$GPGSA,M,3,29,24,12,11,,,,,,,,,7.0,3.2,6.2*32,1
1777416491541649452,$GPRMC,224811.000,A,1206.2488,S,07701.1987,W,0.24,337.75,280426,,,A*61,1
1777416492295566710,$GPGGA,224812.000,1206.2487,S,07701.1988,W,1,04,3.2,151.2,M,8.3,M,,0000*60,1
1777416492403289007,$GPGSA,M,3,29,24,12,11,,,,,,,,,7.0,3.2,6.2*32,1
1777416492563657568,$GPGSV,3,1,12,29,63,280,38,24,62,072,32,12,32,158,31,11,24,116,24*7B,1
1777416492714902493,$GPGSV,3,2,12,15,17,007,05,44,42,284,33,14,54,280,,09,37,255,*72,0
1777416492857050318,$GPGSV,3,3,12,04,12,341,,20,03,327,,05,02,047,,10,00,303,*79,0
1777416493021968399,$GPRMC,224812.000,A,1206.2487,S,07701.1988,W,0.21,337.75,280426,,,A*67,0
1777416493271530122,$GPGGA,224813.000,1206.2486,S,07701.1988,W,1,05,1.6,151.5,M,8.3,M,,0000*60,0
1777416493383813573,$GPGSA,M,3,29,24,12,11,15,,,,,,,,2.7,1.6,2.2*36,0
1777416493548800982,$GPRMC,224813.000,A,1206.2486,S,07701.1988,W,0.13,337.75,280426,,,A*66,0
1777416494272102838,$GPGGA,224814.000,1206.2486,S,07701.1989,W,1,05,1.6,151.5,M,8.3,M,,0000*66,0
1777416494384358143,$GPGSA,M,3,29,24,12,11,15,,,,,,,,2.7,1.6,2.2*36,0
1777416494549366917,$GPRMC,224814.000,A,1206.2486,S,07701.1989,W,0.00,337.75,280426,,,A*62,0
1777416495271595383,$GPGGA,224815.000,1206.2486,S,07701.1989,W,1,05,1.6,151.6,M,8.3,M,,0000*64,0
1777416495383873227,$GPGSA,M,3,29,24,12,11,15,,,,,,,,2.7,1.6,2.2*36,0
1777416495548880903,$GPRMC,224815.000,A,1206.2486,S,07701.1989,W,0.38,337.75,280426,,,A*68,0
1777416496272355231,$GPGGA,224816.000,1206.2487,S,07701.1990,W,1,05,1.6,151.6,M,8.3,M,,0000*6E,0
1777416496384623003,$GPGSA,M,3,29,24,12,11,15,,,,,,,,2.7,1.6,2.2*36,0
1777416496549638934,$GPRMC,224816.000,A,1206.2487,S,07701.1990,W,0.68,337.75,280426,,,A*67,0
1777416497272290589,$GPGGA,224817.000,1206.2489,S,07701.1991,W,1,05,1.6,151.8,M,8.3,M,,0000*6E,0
1777416497384600474,$GPGSA,M,3,29,24,12,11,15,,,,,,,,2.7,1.6,2.2*36,0
1777416497544965031,$GPGSV,3,1,12,29,63,280,43,24,62,072,29,12,32,158,31,11,24,116,24*7D,0
1777416497696208736,$GPGSV,3,2,12,15,17,007,25,44,42,284,40,14,54,280,,09,37,255,*74,0
1777416497838272203,$GPGSV,3,3,12,04,12,341,,20,03,327,,05,02,047,,10,00,303,*79,0
1777416498003298091,$GPRMC,224817.000,A,1206.2489,S,07701.1991,W,1.18,216.29,280426,,,A*64,0
1777416498272415652,$GPGGA,224818.000,1206.2494,S,07701.1992,W,1,05,1.6,151.8,M,8.3,M,,0000*6E,0
1777416498384713244,$GPGSA,M,3,29,24,12,11,15,,,,,,,,2.7,1.6,2.2*36,0
1777416498549736479,$GPRMC,224818.000,A,1206.2494,S,07701.1992,W,1.66,208.36,280426,,,A*6C,0
1777416499272330637,$GPGGA,224819.000,1206.2500,S,07701.1993,W,1,05,1.6,151.5,M,8.3,M,,0000*6F,0
1777416499384616362,$GPGSA,M,3,29,24,12,11,15,,,,,,,,2.7,1.6,2.2*36,0
1777416499549606723,$GPRMC,224819.000,A,1206.2500,S,07701.1993,W,1.43,204.93,280426,,,A*64,0
1777416500272274741,$GPGGA,224820.000,1206.2505,S,07701.1992,W,1,05,1.6,151.1,M,8.3,M,,0000*65,0
1777416500384540451,$GPGSA,M,3,29,24,12,11,15,,,,,,,,2.7,1.6,2.2*36,0
1777416500549582029,$GPRMC,224820.000,A,1206.2505,S,07701.1992,W,2.19,195.41,280426,,,A*62,0
1777416501271777127,$GPGGA,224821.000,1206.2513,S,07701.1987,W,1,05,1.6,150.8,M,8.3,M,,0000*6F,0
1777416501384079431,$GPGSA,M,3,29,24,12,11,15,,,,,,,,2.7,1.6,2.2*36,0
1777416501549104394,$GPRMC,224821.000,A,1206.2513,S,07701.1987,W,2.56,175.77,280426,,,A*60,0
1777416502271905321,$GPGGA,224822.000,1206.2522,S,07701.1985,W,1,05,1.6,150.5,M,8.3,M,,0000*61,0
1777416502384200333,$GPGSA,M,3,29,24,12,11,15,,,,,,,,2.7,1.6,2.2*36,0
1777416502544583149,$GPGSV,3,1,12,29,63,280,32,24,62,072,28,12,32,158,47,11,24,116,18*74,0
1777416502695831972,$GPGSV,3,2,12,15,17,007,23,44,42,284,30,14,54,280,,09,37,255,*75,0
1777416502837900914,$GPGSV,3,3,12,04,12,341,,20,03,327,,05,02,047,,10,00,303,*79,0
1777416503002898337,$GPRMC,224822.000,A,1206.2522,S,07701.1985,W,2.28,170.52,280426,,,A*68,0
1777416503271419175,$GPGGA,224823.000,1206.2530,S,07701.1982,W,1,05,1.6,150.1,M,8.3,M,,0000*60,0
1777416503383693616,$GPGSA,M,3,29,24,12,11,15,,,,,,,,2.7,1.6,2.2*36,0
1777416503548674184,$GPRMC,224823.000,A,1206.2530,S,07701.1982,W,2.62,166.83,280426,,,A*68,0
1777416504273003630,$GPGGA,224824.000,1206.2536,S,07701.1980,W,1,05,1.6,149.5,M,8.3,M,,0000*6F,0
1777416504385296148,$GPGSA,M,3,29,24,12,11,15,,,,,,,,2.7,1.6,2.2*36,0
1777416504550267416,$GPRMC,224824.000,A,1206.2536,S,07701.1980,W,2.26,165.21,280426,,,A*60,0
1777416505271318509,$GPGGA,224825.000,1206.2545,S,07701.1979,W,1,05,1.6,149.2,M,8.3,M,,0000*6B,0
1777416505383552755,$GPGSA,M,3,29,24,12,11,15,,,,,,,,2.7,1.6,2.2*36,0
1777416505548575371,$GPRMC,224825.000,A,1206.2545,S,07701.1979,W,2.94,171.15,280426,,,A*68,0
1777416506272042556,$GPGGA,224826.000,1206.2551,S,07701.1977,W,1,05,1.6,148.9,M,8.3,M,,0000*69,0
1777416506384311730,$GPGSA,M,3,29,24,12,11,15,,,,,,,,2.7,1.6,2.2*36,0
1777416506549297510,$GPRMC,224826.000,A,1206.2551,S,07701.1977,W,2.51,169.41,280426,,,A*61,0
1777416507298405264,$GPGGA,224827.000,1206.2557,S,07701.1972,W,1,04,3.6,148.7,M,8.3,M,,0000*66,0
1777416507406105375,$GPGSA,M,3,29,12,11,15,,,,,,,,,7.1,3.6,6.1*36,0
1777416507566510362,$GPGSV,3,1,12,29,63,280,32,12,32,158,47,11,24,116,18,15,17,007,21*7F,0
1777416507726907553,$GPGSV,3,2,12,04,12,341,31,09,37,255,29,20,03,327,30,44,42,284,25*77,0
1777416507868972030,$GPGSV,3,3,12,24,62,072,,14,54,280,,05,02,047,,10,00,303,*76,0
1777416508033992801,$GPRMC,224827.000,A,1206.2557,S,07701.1972,W,2.38,165.72,280426,,,A*60,0
1777416508270609138,$GPGGA,224828.000,1206.2561,S,07701.1966,W,1,04,3.6,148.6,M,8.3,M,,0000*68,0
1777416508378309513,$GPGSA,M,3,29,12,11,15,,,,,,,,,7.1,3.6,6.1*36,0
1777416508543298675,$GPRMC,224828.000,A,1206.2561,S,07701.1966,W,2.57,153.26,280426,,,A*62,0
1777416509294305011,$GPGGA,224829.000,1206.2565,S,07701.1958,W,1,04,3.6,148.7,M,8.3,M,,0000*61,0
1777416509402033167,$GPGSA,M,3,29,12,11,15,,,,,,,,,7.1,3.6,6.1*36,0
1777416509567050029,$GPRMC,224829.000,A,1206.2565,S,07701.1958,W,2.51,139.77,280426,,,A*64,0
1777416510271714459,$GPGGA,224830.000,1206.2569,S,07701.1953,W,1,05,1.6,148.8,M,8.3,M,,0000*62,0
1777416510384011371,$GPGSA,M,3,29,24,12,11,15,,,,,,,,2.7,1.6,2.2*36,0
1777416510548979528,$GPRMC,224830.000,A,1206.2569,S,07701.1953,W,1.80,139.78,280426,,,A*6B,0
1777416511271249153,$GPGGA,224831.000,1206.2576,S,07701.1954,W,1,05,1.6,148.8,M,8.3,M,,0000*6A,0
1777416511383509070,$GPGSA,M,3,29,24,12,11,15,,,,,,,,2.7,1.6,2.2*36,0
1777416511548484651,$GPRMC,224831.000,A,1206.2576,S,07701.1954,W,2.08,145.93,280426,,,A*6E,0
1777416512296573066,$GPGGA,224832.000,1206.2582,S,07701.1952,W,1,05,1.6,148.8,M,8.3,M,,0000*64,0
1777416512408858302,$GPGSA,M,3,29,24,12,11,15,,,,,,,,2.7,1.6,2.2*36,0
1777416512569257871,$GPGSV,3,1,12,29,63,280,33,24,62,072,38,12,32,158,38,11,24,116,18*7C,0
1777416512720489201,$GPGSV,3,2,12,15,17,007,19,44,42,284,34,14,54,280,,09,37,255,*78,0
1777416512862560180,$GPGSV,3,3,12,04,12,341,,20,03,327,,05,02,047,,10,00,303,*79,0
1777416513027545496,$GPRMC,224832.000,A,1206.2582,S,07701.1952,W,1.68,148.08,280426,,,A*6A,0
1777416513270860960,$GPGGA,224833.000,1206.2586,S,07701.1948,W,1,05,1.6,148.9,M,8.3,M,,0000*6B,0
1777416513383134441,$GPGSA,M,3,29,24,12,11,15,,,,,,,,2.7,1.6,2.2*36,0
1777416513548131554,$GPRMC,224833.000,A,1206.2586,S,07701.1948,W,1.48,147.89,280426,,,A*60,0
1777416514270790894,$GPGGA,224834.000,1206.2586,S,07701.1943,W,1,05,1.6,149.3,M,8.3,M,,0000*6C,0
1777416514383060306,$GPGSA,M,3,29,24,12,11,15,,,,,,,,2.7,1.6,2.2*36,0
1777416514548054343,$GPRMC,224834.000,A,1206.2586,S,07701.1943,W,0.92,147.89,280426,,,A*6A,0
1777416515271117193,$GPGGA,224835.000,1206.2584,S,07701.1937,W,1,05,1.6,150.0,M,8.3,M,,0000*67,0
1777416515383404035,$GPGSA,M,3,29,24,12,11,15,,,,,,,,2.7,1.6,2.2*36,0
1777416515548397682,$GPRMC,224835.000,A,1206.2584,S,07701.1937,W,0.09,147.89,280426,,,A*68,0
1777416516271879541,$GPGGA,224836.000,1206.2584,S,07701.1937,W,1,05,1.6,149.9,M,8.3,M,,0000*65,0
1777416516384164628,$GPGSA,M,3,29,24,12,11,15,,,,,,,,2.7,1.6,2.2*36,0
1777416516549144329,$GPRMC,224836.000,A,1206.2584,S,07701.1937,W,0.00,147.89,280426,,,A*62,0
1777416517271398954,$GPGGA,224837.000,1206.2584,S,07701.1937,W,1,05,1.6,149.9,M,8.3,M,,0000*64,0
1777416517383665121,$GPGSA,M,3,29,24,12,11,15,,,,,,,,2.7,1.6,2.2*36,0
1777416517544069037,$GPGSV,3,1,12,29,63,280,34,24,62,072,35,12,32,158,26,11,24,116,17*76,0
1777416517695315903,$GPGSV,3,2,12,15,17,007,19,44,42,284,40,14,54,280,,09,37,255,*7B,1
1777416517837390627,$GPGSV,3,3,12,04,12,341,,20,03,327,,05,02,047,,10,00,303,*79,1
1777416518002373586,$GPRMC,224837.000,A,1206.2584,S,07701.1937,W,0.00,147.89,280426,,,A*63,1
1777416518271299289,$GPGGA,224838.000,1206.2584,S,07701.1937,W,1,05,1.6,149.9,M,8.3,M,,0000*6B,1
1777416518383578647,$GPGSA,M,3,29,24,12,11,15,,,,,,,,2.7,1.6,2.2*36,1
1777416518548591010,$GPRMC,224838.000,A,1206.2584,S,07701.1937,W,0.00,147.89,280426,,,A*6C,1
1777416519271026584,$GPGGA,224839.000,1206.2584,S,07701.1937,W,1,05,1.6,149.9,M,8.3,M,,0000*6A,1
1777416519383298669,$GPGSA,M,3,29,24,12,11,15,,,,,,,,2.7,1.6,2.2*36,1
1777416519548311106,$GPRMC,224839.000,A,1206.2584,S,07701.1937,W,0.00,147.89,280426,,,A*6D,1
1777416520270951348,$GPGGA,224840.000,1206.2584,S,07701.1937,W,1,05,1.6,149.9,M,8.3,M,,0000*64,1
1777416520383216716,$GPGSA,M,3,29,24,12,11,15,,,,,,,,2.7,1.6,2.2*36,1
1777416520548227985,$GPRMC,224840.000,A,1206.2584,S,07701.1937,W,0.00,147.89,280426,,,A*63,1
1777416521271098598,$GPGGA,224841.000,1206.2584,S,07701.1937,W,1,05,1.6,149.9,M,8.3,M,,0000*65,1
1777416521383443913,$GPGSA,M,3,29,24,12,11,15,,,,,,,,2.7,1.6,2.2*36,1
1777416521548347481,$GPRMC,224841.000,A,1206.2584,S,07701.1937,W,0.00,147.89,280426,,,A*62,1
1777416522271428391,$GPGGA,224842.000,1206.2584,S,07701.1937,W,1,05,1.6,149.9,M,8.3,M,,0000*66,1
1777416522383700548,$GPGSA,M,3,29,24,12,11,15,,,,,,,,2.7,1.6,2.2*36,1
1777416522544104238,$GPGSV,3,1,12,29,63,280,37,24,62,072,37,12,32,158,27,11,24,116,17*76,1
1777416522695341682,$GPGSV,3,2,12,15,17,007,20,44,42,284,41,14,54,280,,09,37,255,*70,1
1777416522837416249,$GPGSV,3,3,12,04,12,341,,20,03,327,,05,02,047,,10,00,303,*79,1
1777416523002408332,$GPRMC,224842.000,A,1206.2584,S,07701.1937,W,0.00,147.89,280426,,,A*61,1
1777416523298214692,$GPGGA,224843.000,1206.2584,S,07701.1937,W,1,05,1.6,149.9,M,8.3,M,,0000*67,1
1777416523410493613,$GPGSA,M,3,29,24,12,11,15,,,,,,,,2.7,1.6,2.2*36,1
1777416523575483492,$GPRMC,224843.000,A,1206.2584,S,07701.1937,W,0.00,147.89,280426,,,A*60,1
1777416524270219208,$GPGGA,224844.000,1206.2583,S,07701.1934,W,1,05,1.6,150.1,M,8.3,M,,0000*64,1
1777416524382502356,$GPGSA,M,3,29,24,12,11,15,,,,,,,,2.7,1.6,2.2*36,1
1777416524547488253,$GPRMC,224844.000,A,1206.2583,S,07701.1934,W,0.26,147.89,280426,,,A*67,1
1777416525270377383,$GPGGA,224845.000,1206.2582,S,07701.1933,W,1,05,1.6,150.3,M,8.3,M,,0000*61,1
1777416525382641630,$GPGSA,M,3,29,24,12,11,15,,,,,,,,2.7,1.6,2.2*36,1
1777416525547620083,$GPRMC,224845.000,A,1206.2582,S,07701.1933,W,0.21,147.89,280426,,,A*67,1
1777416526270691328,$GPGGA,224846.000,1206.2581,S,07701.1931,W,1,05,1.6,150.7,M,8.3,M,,0000*67,1
1777416526383031912,$GPGSA,M,3,29,24,12,11,15,,,,,,,,2.7,1.6,2.2*36,1
1777416526547965367,$GPRMC,224846.000,A,1206.2581,S,07701.1931,W,0.15,147.89,280426,,,A*62,1
1777416527270825815,$GPGGA,224847.000,1206.2580,S,07701.1930,W,1,05,1.6,150.9,M,8.3,M,,0000*68,1
1777416527383141350,$GPGSA,M,3,29,24,12,11,15,,,,,,,,2.7,1.6,2.2*36,1
1777416527543511784,$GPGSV,3,1,12,29,63,280,36,24,62,072,38,12,32,158,29,11,24,116,17*76,1
1777416527694744698,$GPGSV,3,2,12,15,17,007,20,44,42,284,41,14,54,280,,09,37,255,*70,1
1777416527836816517,$GPGSV,3,3,12,04,12,341,,20,03,327,,05,02,047,,10,00,303,*79,1
1777416528001812951,$GPRMC,224847.000,A,1206.2580,S,07701.1930,W,0.14,147.89,280426,,,A*62,1
1777416528271389824,$GPGGA,224848.000,1206.2579,S,07701.1930,W,1,05,1.6,151.1,M,8.3,M,,0000*68,1
1777416528383649015,$GPGSA,M,3,29,24,12,11,15,,,,,,,,2.7,1.6,2.2*36,1
1777416528548643931,$GPRMC,224848.000,A,1206.2579,S,07701.1930,W,0.08,147.89,280426,,,A*66,1
1777416529270892239,$GPGGA,224849.000,1206.2579,S,07701.1929,W,1,05,1.6,151.3,M,8.3,M,,0000*63,1
1777416529383151918,$GPGSA,M,3,29,24,12,11,15,,,,,,,,2.7,1.6,2.2*36,1
