Unix_time,GPS_data,flagStop
1777415753006978733,$GPGSV,3,3,12,04,08,339,,20,03,322,,05,01,043,,10,01,299,*7C,0
1777415753008077289,$GPRMC,223507.000,A,1206.2631,S,07701.1937,W,0.58,350.92,280426,,,A*64,0
1777415753008885146,$GPGGA,223508.000,1206.2630,S,07701.1935,W,1,05,1.6,155.7,M,8.3,M,,0000*6F,0
1777415753009785242,$GPGSA,M,3,24,29,12,11,15,,,,,,,,2.8,1.6,2.3*38,0
1777415753010280030,$GPRMC,223508.000,A,1206.2630,S,07701.1935,W,0.50,350.92,280426,,,A*60,0
1777415753010992240,$GPGGA,223509.000,1206.2626,S,07701.1932,W,1,05,1.6,155.8,M,8.3,M,,0000*61,0
1777415753011735894,$GPGSA,M,3,24,29,12,11,15,,,,,,,,2.8,1.6,2.3*38,0
1777415753012208812,$GPRMC,223509.000,A,1206.2626,S,07701.1932,W,0.71,350.92,280426,,,A*62,0
1777415753012908115,$GPGGA,223510.000,1206.2623,S,07701.1927,W,1,05,1.6,155.7,M,8.3,M,,0000*67,0
1777415753013078983,$GPGSA,M,3,24,29,12,11,15,,,,,,,,2.8,1.6,2.3*38,0
1777415753013171833,$GPRMC,223510.000,A,1206.2623,S,07701.1927,W,2.42,31.88,280426,,,A*56,0
1777415753013303590,$GPGGA,223511.000,1206.2619,S,07701.1925,W,1,05,1.6,155.4,M,8.3,M,,0000*6E,0
1777415753013444662,$GPGSA,M,3,24,29,12,11,15,,,,,,,,2.8,1.6,2.3*38,0
1777415753013535901,$GPRMC,223511.000,A,1206.2619,S,07701.1925,W,1.23,31.00,280426,,,A*58,0
1777415753013668232,$GPGGA,223512.000,1206.2617,S,07701.1926,W,1,05,1.6,154.9,M,8.3,M,,0000*6C,0
1777415753013809748,$GPGSA,M,3,24,29,12,11,15,,,,,,,,2.8,1.6,2.3*38,0
1777415753013900969,$GPGSV,3,1,12,24,64,085,26,29,60,292,26,12,33,164,21,11,25,110,15*75,0
1777415753014031448,$GPGSV,3,2,12,15,21,004,19,05,01,043,12,48,33,280,26,14,54,269,*7B,0
1777415753014158205,$GPGSV,3,3,12,09,36,248,,04,08,339,,20,03,322,,10,01,299,*7D,0
1777415753014273852,$GPRMC,223512.000,A,1206.2617,S,07701.1926,W,1.70,36.77,280426,,,A*57,0
1777415753014816565,$GPGGA,223513.000,1206.2611,S,07701.1928,W,1,05,1.6,154.4,M,8.3,M,,0000*68,0
1777415753014969433,$GPGSA,M,3,24,29,12,11,15,,,,,,,,2.8,1.6,2.3*38,0
1777415753015061542,$GPRMC,223513.000,A,1206.2611,S,07701.1928,W,1.97,35.12,280426,,,A*57,0
1777415753015194244,$GPGGA,223514.000,1206.2606,S,07701.1928,W,1,05,1.6,154.1,M,8.3,M,,0000*6C,0
1777415753015355704,$GPGSA,M,3,24,29,12,11,15,,,,,,,,2.8,1.6,2.3*38,0
1777415753015618199,$GPRMC,223514.000,A,1206.2606,S,07701.1928,W,1.52,35.88,280426,,,A*5C,0
1777415753016296595,$GPGGA,223515.000,1206.2604,S,07701.1927,W,1,05,1.6,153.5,M,8.3,M,,0000*63,0
1777415753017053675,$GPGSA,M,3,24,29,12,11,15,,,,,,,,2.8,1.6,2.3*38,0
1777415753017524834,$GPRMC,223515.000,A,1206.2604,S,07701.1927,W,0.52,35.88,280426,,,A*51,0
1777415753018199767,$GPGGA,223516.000,1206.2600,S,07701.1923,W,1,04,1.9,153.5,M,8.3,M,,0000*6E,0
1777415753018923773,$GPGSA,M,3,24,29,12,15,,,,,,,,,3.0,1.9,2.4*39,0
1777415753019379210,$GPRMC,223516.000,A,1206.2600,S,07701.1923,W,0.31,35.88,280426,,,A*57,0
1777415753020054736,$GPGGA,223517.000,1206.2600,S,07701.1929,W,1,04,1.9,153.4,M,8.3,M,,0000*64,0
1777415753020780150,$GPGSA,M,3,24,29,12,15,,,,,,,,,3.0,1.9,2.4*39,0
1777415753021227920,$GPGSV,3,1,12,24,64,085,26,29,60,292,33,12,33,164,23,15,21,004,18*7A,0
1777415753021894779,$GPGSV,3,2,12,11,25,110,07,48,33,280,28,14,54,269,,09,36,248,*7C,0
1777415753022522639,$GPGSV,3,3,12,04,08,339,,20,03,322,,05,01,043,,10,01,299,*7C,0
1777415753023113925,$GPRMC,223517.000,A,1206.2600,S,07701.1929,W,0.59,35.88,280426,,,A*52,0
1777415753023796266,$GPGGA,223518.000,1206.2601,S,07701.1935,W,1,04,1.9,153.1,M,8.3,M,,0000*62,0
1777415753024515661,$GPGSA,M,3,24,29,12,15,,,,,,,,,3.0,1.9,2.4*39,0
1777415753024962839,$GPRMC,223518.000,A,1206.2601,S,07701.1935,W,0.93,35.88,280426,,,A*57,0
1777415753025636494,$GPGGA,223519.000,1206.2602,S,07701.1941,W,1,04,1.9,152.3,M,8.3,M,,0000*60,0
1777415753026358537,$GPGSA,M,3,24,29,12,15,,,,,,,,,3.0,1.9,2.4*39,0
1777415753026805660,$GPRMC,223519.000,A,1206.2602,S,07701.1941,W,0.62,35.88,280426,,,A*58,0
1777415753027484630,$GPGGA,223520.000,1206.2602,S,07701.1946,W,1,04,1.9,151.9,M,8.3,M,,0000*64,0
1777415753028197414,$GPGSA,M,3,24,29,12,15,,,,,,,,,3.0,1.9,2.4*39,0
1777415753028639129,$GPRMC,223520.000,A,1206.2602,S,07701.1946,W,0.56,35.88,280426,,,A*52,0
1777415753029304173,$GPGGA,223521.000,1206.2604,S,07701.1953,W,1,04,1.9,151.5,M,8.3,M,,0000*6B,0
1777415753030101252,$GPGSA,M,3,24,29,12,15,,,,,,,,,3.0,1.9,2.4*39,0
1777415753030545245,$GPRMC,223521.000,A,1206.2604,S,07701.1953,W,0.41,35.88,280426,,,A*57,0
1777415753031211956,$GPGGA,223522.000,1206.2607,S,07701.1960,W,1,04,1.9,151.0,M,8.3,M,,0000*6E,0
1777415753031937796,$GPGSA,M,3,24,29,12,15,,,,,,,,,3.0,1.9,2.4*39,0
1777415753032380344,$GPGSV,3,1,12,24,64,085,25,29,60,292,34,12,33,164,24,15,21,004,19*78,0
1777415753033033055,$GPGSV,3,2,12,11,25,110,08,48,33,280,31,14,54,269,,09,36,248,*7B,0
1777415753033648656,$GPGSV,3,3,12,04,08,339,,20,03,322,,05,01,043,,10,01,299,*7C,0
1777415753034229368,$GPRMC,223522.000,A,1206.2607,S,07701.1960,W,0.63,35.88,280426,,,A*57,0
1777415753034892468,$GPGGA,223523.000,1206.2607,S,07701.1964,W,1,04,1.9,150.5,M,8.3,M,,0000*6F,0
1777415753035611363,$GPGSA,M,3,24,29,12,15,,,,,,,,,3.0,1.9,2.4*39,0
1777415753036050912,$GPRMC,223523.000,A,1206.2607,S,07701.1964,W,0.51,35.88,280426,,,A*53,0
1777415753036739122,$GPGGA,223524.000,1206.2608,S,07701.1970,W,1,04,1.9,149.8,M,8.3,M,,0000*67,0
1777415753037444425,$GPGSA,M,3,24,29,12,15,,,,,,,,,3.0,1.9,2.4*39,0
1777415753037881418,$GPRMC,223524.000,A,1206.2608,S,07701.1970,W,0.26,35.88,280426,,,A*5E,0
1777415753038540240,$GPGGA,223525.000,1206.2608,S,07701.1974,W,1,04,1.9,149.1,M,8.3,M,,0000*6B,0
1777415753039245043,$GPGSA,M,3,24,29,12,15,,,,,,,,,3.0,1.9,2.4*39,0
1777415753039691239,$GPRMC,223525.000,A,1206.2608,S,07701.1974,W,0.55,35.88,280426,,,A*5F,0
1777415753040349691,$GPGGA,223526.000,1206.2607,S,07701.1974,W,1,04,1.9,149.0,M,8.3,M,,0000*66,0
1777415753041056105,$GPGSA,M,3,24,29,12,15,,,,,,,,,3.0,1.9,2.4*39,0
1777415753041493339,$GPRMC,223526.000,A,1206.2607,S,07701.1974,W,0.11,35.88,280426,,,A*53,0
1777415753042152142,$GPGGA,223527.000,1206.2608,S,07701.1977,W,1,04,1.9,148.8,M,8.3,M,,0000*62,0
1777415753042854057,$GPGSA,M,3,24,29,12,15,,,,,,,,,3.0,1.9,2.4*39,0
1777415753043273864,$GPGSV,3,1,12,24,64,085,24,29,60,292,35,12,33,164,25,15,21,004,20*73,0
1777415753043413010,$GPGSV,3,2,12,11,25,110,09,48,33,280,32,14,54,269,,09,36,248,*79,0
1777415753043536841,$GPGSV,3,3,12,04,08,339,,20,03,322,,05,01,043,,10,01,299,*7C,0
1777415753043653265,$GPRMC,223527.000,A,1206.2608,S,07701.1977,W,0.35,35.88,280426,,,A*58,0
1777415753043785430,$GPGGA,223528.000,1206.2605,S,07701.1976,W,1,04,1.9,148.8,M,8.3,M,,0000*61,0
1777415753043926798,$GPGSA,M,3,24,29,12,15,,,,,,,,,3.0,1.9,2.4*39,0
1777415753044014593,$GPRMC,223528.000,A,1206.2605,S,07701.1976,W,0.67,35.88,280426,,,A*5C,0
1777415753044146720,$GPGGA,223529.000,1206.2599,S,07701.1972,W,1,04,1.9,148.7,M,8.3,M,,0000*6D,0
1777415753044287570,$GPGSA,M,3,24,29,12,15,,,,,,,,,3.0,1.9,2.4*39,0
1777415753044375105,$GPRMC,223529.000,A,1206.2599,S,07701.1972,W,1.19,36.48,280426,,,A*58,0
1777415753044507084,$GPGGA,223530.000,1206.2593,S,07701.1967,W,1,04,1.9,148.5,M,8.3,M,,0000*69,0
1777415753044649138,$GPGSA,M,3,24,29,12,15,,,,,,,,,3.0,1.9,2.4*39,0
1777415753044736488,$GPRMC,223530.000,A,1206.2593,S,07701.1967,W,1.61,25.69,280426,,,A*50,0
1777415753044869597,$GPGGA,223531.000,1206.2590,S,07701.1963,W,1,04,1.9,148.2,M,8.3,M,,0000*68,0
1777415753045011502,$GPGSA,M,3,24,29,12,15,,,,,,,,,3.0,1.9,2.4*39,0
1777415753045099926,$GPRMC,223531.000,A,1206.2590,S,07701.1963,W,0.21,25.69,280426,,,A*53,0
1777415753045233091,$GPGGA,223532.000,1206.2590,S,07701.1964,W,1,04,1.9,148.2,M,8.3,M,,0000*6C,0
1777415753045375718,$GPGSA,M,3,24,29,12,15,,,,,,,,,3.0,1.9,2.4*39,0
1777415753045464198,$GPGSV,3,1,12,24,64,085,32,29,60,292,35,12,33,164,20,15,21,004,19*7B,0
1777415753045595511,$GPGSV,3,2,12,11,25,110,08,48,33,280,24,14,54,269,,09,36,248,*7F,0
1777415753045719064,$GPGSV,3,3,12,04,08,339,,20,03,322,,05,01,043,,10,01,299,*7C,0
1777415753045834692,$GPRMC,223532.000,A,1206.2590,S,07701.1964,W,0.00,25.69,280426,,,A*54,0
1777415753045966949,$GPGGA,223533.000,1206.2590,S,07701.1963,W,1,04,1.9,148.2,M,8.3,M,,0000*6A,0
1777415753046107595,$GPGSA,M,3,24,29,12,15,,,,,,,,,3.0,1.9,2.4*39,0
1777415753046195519,$GPRMC,223533.000,A,1206.2590,S,07701.1963,W,0.00,25.69,280426,,,A*52,0
1777415753046356627,$GPGGA,223534.000,1206.2589,S,07701.1960,W,1,04,1.9,148.5,M,8.3,M,,0000*61,0
1777415753046499347,$GPGSA,M,3,24,29,12,15,,,,,,,,,3.0,1.9,2.4*39,0
1777415753046587216,$GPRMC,223534.000,A,1206.2589,S,07701.1960,W,0.96,25.69,280426,,,A*51,0
1777415753046719806,$GPGGA,223535.000,1206.2586,S,07701.1959,W,1,04,1.9,148.8,M,8.3,M,,0000*68,0
1777415753046862397,$GPGSA,M,3,24,29,12,15,,,,,,,,,3.0,1.9,2.4*39,0
1777415753046950821,$GPRMC,223535.000,A,1206.2586,S,07701.1959,W,0.62,25.69,280426,,,A*5E,0
1777415753047084041,$GPGGA,223536.000,1206.2585,S,07701.1956,W,1,04,1.9,148.8,M,8.3,M,,0000*67,0
1777415753047226650,$GPGSA,M,3,24,29,12,15,,,,,,,,,3.0,1.9,2.4*39,0
1777415753047353148,$GPRMC,223536.000,A,1206.2585,S,07701.1956,W,0.78,25.69,280426,,,A*5A,0
1777415753047516367,$GPGGA,223537.000,1206.2586,S,07701.1954,W,1,04,1.9,148.7,M,8.3,M,,0000*68,0
1777415753047659013,$GPGSA,M,3,24,29,12,15,,,,,,,,,3.0,1.9,2.4*39,0
1777415753047747178,$GPGSV,3,1,12,24,64,085,27,29,60,292,35,12,33,164,15,15,21,004,18*78,0
1777415753047877435,$GPGSV,3,2,12,11,25,110,07,48,33,280,24,14,54,269,,09,36,248,*70,0
1777415753048000359,$GPGSV,3,3,12,04,08,339,,20,03,322,,05,01,043,,10,01,299,*7C,0
1777415753048115950,$GPRMC,223537.000,A,1206.2586,S,07701.1954,W,1.02,25.69,280426,,,A*56,0
1777415753048248114,$GPGGA,223538.000,1206.2584,S,07701.1953,W,1,04,1.9,148.6,M,8.3,M,,0000*63,0
1777415753048389704,$GPGSA,M,3,24,29,12,15,,,,,,,,,3.0,1.9,2.4*39,0
1777415753048477573,$GPRMC,223538.000,A,1206.2584,S,07701.1953,W,0.39,25.69,280426,,,A*55,0
1777415753048609793,$GPGGA,223539.000,1206.2579,S,07701.1951,W,1,04,1.9,148.7,M,8.3,M,,0000*63,0
1777415753048750939,$GPGSA,M,3,24,29,12,15,,,,,,,,,3.0,1.9,2.4*39,0
1777415753048838512,$GPRMC,223539.000,A,1206.2579,S,07701.1951,W,0.90,25.69,280426,,,A*57,0
1777415753048970269,$GPGGA,223540.000,1206.2570,S,07701.1952,W,1,04,1.9,148.7,M,8.3,M,,0000*67,0
1777415753049111377,$GPGSA,M,3,24,29,12,15,,,,,,,,,3.0,1.9,2.4*39,0
1777415753049198969,$GPRMC,223540.000,A,1206.2570,S,07701.1952,W,0.50,25.69,280426,,,A*5F,0
1777415753049330744,$GPGGA,223541.000,1206.2564,S,07701.1949,W,1,04,1.9,149.1,M,8.3,M,,0000*6E,0
1777415753049471779,$GPGSA,M,3,24,29,12,15,,,,,,,,,3.0,1.9,2.4*39,0
1777415753049559388,$GPRMC,223541.000,A,1206.2564,S,07701.1949,W,0.26,25.69,280426,,,A*50,0
1777415753049691145,$GPGGA,223542.000,1206.2562,S,07701.1945,W,1,04,1.9,149.6,M,8.3,M,,0000*60,0
1777415753049832180,$GPGSA,M,3,24,29,12,15,,,,,,,,,3.0,1.9,2.4*39,0
1777415753049920438,$GPGSV,3,1,12,24,64,085,26,29,60,292,34,12,33,164,25,15,21,004,18*7B,0
1777415753050051010,$GPGSV,3,2,12,11,25,110,09,33,19,083,,14,54,269,,09,36,248,*7D,0
1777415753050170489,$GPGSV,3,3,12,04,08,339,,20,03,322,,05,01,043,,10,01,299,*7C,0
1777415753050286302,$GPRMC,223542.000,A,1206.2562,S,07701.1945,W,0.12,25.69,280426,,,A*5E,0
1777415753050418689,$GPGGA,223543.000,1206.2560,S,07701.1943,W,1,04,1.9,150.0,M,8.3,M,,0000*6B,0
1777415753050560872,$GPGSA,M,3,24,29,12,15,,,,,,,,,3.0,1.9,2.4*39,0
1777415753050648833,$GPRMC,223543.000,A,1206.2560,S,07701.1943,W,0.63,25.69,280426,,,A*5D,0
1777415753050781368,$GPGGA,223544.000,1206.2562,S,07701.1942,W,1,05,1.6,150.2,M,8.3,M,,0000*63,0
1777415753050923014,$GPGSA,M,3,24,29,12,11,15,,,,,,,,2.8,1.6,2.3*38,0
1777415753051014642,$GPRMC,223544.000,A,1206.2562,S,07701.1942,W,0.33,25.69,280426,,,A*5C,0
1777415753051147528,$GPGGA,223545.000,1206.2562,S,07701.1943,W,1,05,1.6,150.3,M,8.3,M,,0000*62,0
1777415753051297007,$GPGSA,M,3,24,29,12,11,15,,,,,,,,2.8,1.6,2.3*38,0
1777415753051390135,$GPRMC,223545.000,A,1206.2562,S,07701.1943,W,0.25,25.69,280426,,,A*5B,0
1777415753051523429,$GPGGA,223546.000,1206.2565,S,07701.1943,W,1,05,1.6,150.1,M,8.3,M,,0000*64,0
1777415753051666223,$GPGSA,M,3,24,29,12,11,15,,,,,,,,2.8,1.6,2.3*38,0
1777415753051758500,$GPRMC,223546.000,A,1206.2565,S,07701.1943,W,0.76,25.69,280426,,,A*59,0
1777415753051891942,$GPGGA,223547.000,1206.2564,S,07701.1941,W,1,05,1.6,150.3,M,8.3,M,,0000*64,0
1777415753052034773,$GPGSA,M,3,24,29,12,11,15,,,,,,,,2.8,1.6,2.3*38,0
1777415753052127030,$GPGSV,3,1,12,24,64,085,27,29,60,292,27,12,33,164,26,11,25,110,08*7E,0
1777415753052273454,$GPGSV,3,2,12,15,21,004,17,33,19,083,,14,54,269,,09,36,248,*76,0
1777415753052393637,$GPGSV,3,3,12,04,08,339,,20,03,322,,05,01,043,,10,01,299,*7C,0
1777415753052509709,$GPRMC,223547.000,A,1206.2564,S,07701.1941,W,1.16,25.69,280426,,,A*5C,0
1777415753052643133,$GPGGA,223548.000,1206.2561,S,07701.1937,W,1,04,1.9,150.6,M,8.3,M,,0000*64,0
1777415753052785686,$GPGSA,M,3,24,29,12,15,,,,,,,,,3.0,1.9,2.4*39,0
1777415753052874222,$GPRMC,223548.000,A,1206.2561,S,07701.1937,W,1.00,25.69,280426,,,A*50,0
1777415753053007664,$GPGGA,223549.000,1206.2562,S,07701.1936,W,1,04,1.9,150.8,M,8.3,M,,0000*69,0
1777415753053150587,$GPGSA,M,3,24,29,12,15,,,,,,,,,3.0,1.9,2.4*39,0
1777415753053239197,$GPRMC,223549.000,A,1206.2562,S,07701.1936,W,1.33,27.69,280426,,,A*51,0
1777415753053372602,$GPGGA,223550.000,1206.2561,S,07701.1934,W,1,04,1.9,151.3,M,8.3,M,,0000*6A,0
1777415753053515081,$GPGSA,M,3,24,29,12,15,,,,,,,,,3.0,1.9,2.4*39,0
1777415753053603265,$GPRMC,223550.000,A,1206.2561,S,07701.1934,W,1.61,21.21,280426,,,A*55,0
1777415753053736059,$GPGGA,223551.000,1206.2556,S,07701.1933,W,0,00,,151.2,M,8.3,M,,0000*4A,0
1777415753053872557,$GPGSA,M,1,,,,,,,,,,,,,,,*12,0
1777415753053929167,$GPRMC,223551.000,V,1206.2556,S,07701.1933,W,,,280426,,,N*79,0
1777415753054045257,$GPGGA,223552.000,1206.2552,S,07701.1932,W,0,00,,151.2,M,8.3,M,,0000*4C,0
1777415753054181792,$GPGSA,M,1,,,,,,,,,,,,,,,*12,0
1777415753054238402,$GPGSV,3,1,12,11,25,110,08,12,33,164,22,15,21,004,06,24,64,085,27*7E,0
1777415753054369382,$GPGSV,3,2,12,29,60,292,35,33,19,083,,14,54,269,,09,36,248,*71,0
1777415753054490435,$GPGSV,3,3,12,04,08,339,,20,03,322,,05,01,043,,10,01,299,*7C,0
1777415753054611433,$GPRMC,223552.000,V,1206.2552,S,07701.1932,W,,,280426,,,N*7F,0
1777415753298302635,$GPGGA,223553.099,1206.2560,S,07701.1939,W,1,04,2.5,151.1,M,8.3,M,,0000*68,0
1777415753405908290,$GPGSA,M,3,24,29,12,11,,,,,,,,,5.2,2.5,4.5*31,0
1777415753570925944,$GPRMC,223553.099,A,1206.2560,S,07701.1939,W,2.00,354.52,280426,,,A*6B,0
1777415754297569595,$GPGGA,223554.099,1206.2565,S,07701.1943,W,1,04,2.5,150.9,M,8.3,M,,0000*6E,0
1777415754405213731,$GPGSA,M,3,24,29,12,11,,,,,,,,,5.2,2.5,4.5*31,0
1777415754570224265,$GPRMC,223554.099,A,1206.2565,S,07701.1943,W,1.73,340.70,280426,,,A*66,0
1777415755299977354,$GPGGA,223555.000,1206.2566,S,07701.1942,W,1,05,1.6,150.6,M,8.3,M,,0000*63,0
1777415755412292431,$GPGSA,M,3,24,29,12,11,15,,,,,,,,2.8,1.6,2.3*38,0
1777415755577303437,$GPRMC,223555.000,A,1206.2566,S,07701.1942,W,0.62,340.70,280426,,,A*64,0
1777415756299705997,$GPGGA,223556.000,1206.2564,S,07701.1941,W,1,05,1.6,150.5,M,8.3,M,,0000*62,0
1777415756411989463,$GPGSA,M,3,24,29,12,11,15,,,,,,,,2.8,1.6,2.3*38,0
1777415756577012221,$GPRMC,223556.000,A,1206.2564,S,07701.1941,W,0.55,340.70,280426,,,A*62,0
1777415757299239151,$GPGGA,223557.000,1206.2564,S,07701.1944,W,1,05,1.6,150.3,M,8.3,M,,0000*60,0
1777415757411542562,$GPGSA,M,3,24,29,12,11,15,,,,,,,,2.8,1.6,2.3*38,0
1777415757571938153,$GPGSV,3,1,12,24,64,085,36,29,60,292,28,12,33,164,30,11,25,110,09*77,0
1777415757718584835,$GPGSV,3,2,12,15,21,004,11,33,19,083,,14,54,269,,09,36,248,*70,0
1777415757860701170,$GPGSV,3,3,12,04,08,339,,20,03,322,,05,01,043,,10,01,299,*7C,0
1777415758025669233,$GPRMC,223557.000,A,1206.2564,S,07701.1944,W,0.41,340.70,280426,,,A*63,0
1777415758300458637,$GPGGA,223558.000,1206.2564,S,07701.1945,W,1,05,1.6,150.6,M,8.3,M,,0000*6B,0
1777415758412727309,$GPGSA,M,3,24,29,12,11,15,,,,,,,,2.8,1.6,2.3*38,0
1777415758577732738,$GPRMC,223558.000,A,1206.2564,S,07701.1945,W,1.41,341.44,280426,,,A*6A,0
1777415759297906369,$GPGGA,223559.000,1206.2560,S,07701.1945,W,1,04,1.9,150.7,M,8.3,M,,0000*61,0
1777415759405604549,$GPGSA,M,3,24,29,12,15,,,,,,,,,3.0,1.9,2.4*39,0
1777415759570566620,$GPRMC,223559.000,A,1206.2560,S,07701.1945,W,0.84,341.44,280426,,,A*67,0
1777415760298481911,$GPGGA,223600.000,1206.2559,S,07701.1945,W,1,04,1.9,150.5,M,8.3,M,,0000*66,0
1777415760406169224,$GPGSA,M,3,24,29,12,15,,,,,,,,,3.0,1.9,2.4*39,0
1777415760571147140,$GPRMC,223600.000,A,1206.2559,S,07701.1945,W,0.39,341.44,280426,,,A*64,0
1777415761297983565,$GPGGA,223601.000,1206.2571,S,07701.1947,W,1,04,1.9,150.1,M,8.3,M,,0000*6B,0
1777415761405682972,$GPGSA,M,3,24,29,12,15,,,,,,,,,3.0,1.9,2.4*39,0
1777415761570647438,$GPRMC,223601.000,A,1206.2571,S,07701.1947,W,0.75,341.44,280426,,,A*65,0
1777415762319813812,$GPGGA,223602.000,1206.2575,S,07701.1947,W,1,04,1.9,150.1,M,8.3,M,,0000*6C,0
1777415762427491038,$GPGSA,M,3,24,29,12,15,,,,,,,,,3.0,1.9,2.4*39,0
1777415762587897674,$GPGSV,3,1,12,24,64,085,30,29,60,292,28,12,33,164,39,15,21,004,21*76,0
1777415762734531006,$GPGSV,3,2,12,11,25,110,05,33,19,083,,14,54,269,,09,36,248,*71,0
1777415762876612309,$GPGSV,3,3,12,04,08,339,,20,03,322,,05,01,043,,10,01,299,*7C,0
1777415763041634097,$GPRMC,223602.000,A,1206.2575,S,07701.1947,W,0.28,341.44,280426,,,A*6A,0
1777415763297662437,$GPGGA,223603.000,1206.2584,S,07701.1947,W,1,04,1.9,149.4,M,8.3,M,,0000*6E,0
1777415763405312741,$GPGSA,M,3,24,29,12,15,,,,,,,,,3.0,1.9,2.4*39,0
1777415763570318677,$GPRMC,223603.000,A,1206.2584,S,07701.1947,W,0.41,341.44,280426,,,A*6A,0
1777415764319422078,$GPGGA,223604.000,1206.2593,S,07701.1954,W,1,04,1.9,149.1,M,8.3,M,,0000*68,0
1777415764427128068,$GPGSA,M,3,24,29,12,15,,,,,,,,,3.0,1.9,2.4*39,0
1777415764592163777,$GPRMC,223604.000,A,1206.2593,S,07701.1954,W,0.81,341.44,280426,,,A*65,0
1777415765297742713,$GPGGA,223605.000,1206.2597,S,07701.1960,W,1,04,1.9,149.1,M,8.3,M,,0000*6A,0
1777415765405384431,$GPGSA,M,3,24,29,12,15,,,,,,,,,3.0,1.9,2.4*39,0
1777415765570397673,$GPRMC,223605.000,A,1206.2597,S,07701.1960,W,1.26,283.72,280426,,,A*61,0
1777415766299742421,$GPGGA,223606.000,1206.2599,S,07701.1964,W,1,05,1.6,148.7,M,8.3,M,,0000*6A,0
1777415766412004185,$GPGSA,M,3,24,29,12,11,15,,,,,,,,2.8,1.6,2.3*38,0
1777415766577029904,$GPRMC,223606.000,A,1206.2599,S,07701.1964,W,1.15,283.72,280426,,,A*68,0
1777415766622851341,$PSRF156,23,1,0*09,0
1777415767322576802,$GPGGA,223607.000,1206.2601,S,07701.1966,W,1,05,1.6,148.8,M,8.3,M,,0000*64,0
1777415767434892661,$GPGSA,M,3,24,29,12,11,15,,,,,,,,2.8,1.6,2.3*38,0
1777415767595303982,$GPGSV,3,1,12,24,64,085,46,29,60,292,37,12,33,164,34,11,25,110,14*76,0
1777415767741932545,$GPGSV,3,2,12,15,21,004,20,33,19,083,,14,54,269,,09,36,248,*72,0
1777415767884018231,$GPGSV,3,3,12,04,08,339,,20,03,322,,05,01,043,,10,01,299,*7C,0
1777415768048961108,$GPRMC,223607.000,A,1206.2601,S,07701.1966,W,0.50,283.72,280426,,,A*69,0
1777415768322936692,$GPGGA,223608.000,1206.2601,S,07701.1968,W,1,05,1.6,148.8,M,8.3,M,,0000*65,0
1777415768435200297,$GPGSA,M,3,24,29,12,11,15,,,,,,,,2.8,1.6,2.3*38,0
1777415768600229194,$GPRMC,223608.000,A,1206.2601,S,07701.1968,W,0.73,283.72,280426,,,A*69,0
1777415769299957823,$GPGGA,223609.000,1206.2601,S,07701.1970,W,1,05,1.6,148.6,M,8.3,M,,0000*63,0
1777415769412206617,$GPGSA,M,3,24,29,12,11,15,,,,,,,,2.8,1.6,2.3*38,0
1777415769577225104,$GPRMC,223609.000,A,1206.2601,S,07701.1970,W,0.28,283.72,280426,,,A*6F,0
1777415770299079201,$GPGGA,223610.000,1206.2599,S,07701.1970,W,1,05,1.6,149.1,M,8.3,M,,0000*6F,0
1777415770411317591,$GPGSA,M,3,24,29,12,11,15,,,,,,,,2.8,1.6,2.3*38,0
1777415770576294243,$GPRMC,223610.000,A,1206.2599,S,07701.1970,W,0.48,283.72,280426,,,A*63,0
1777415771299817549,$GPGGA,223611.000,1206.2599,S,07701.1970,W,1,05,1.6,149.2,M,8.3,M,,0000*6D,1
1777415771412094240,$GPGSA,M,3,24,29,12,11,15,,,,,,,,2.8,1.6,2.3*38,1
1777415771577125610,$GPRMC,223611.000,A,1206.2599,S,07701.1970,W,0.00,283.72,280426,,,A*6E,1
1777415772300036152,$GPGGA,223612.000,1206.2599,S,07701.1970,W,1,05,1.6,149.2,M,8.3,M,,0000*6E,1
1777415772412222404,$GPGSA,M,3,24,29,12,11,15,,,,,,,,2.8,1.6,2.3*38,1
1777415772572669807,$GPGSV,3,1,12,24,64,085,46,29,60,292,38,12,33,164,20,11,25,110,15*7D,1
1777415772723876001,$GPGSV,3,2,12,15,21,004,20,05,01,043,17,51,52,289,,14,54,269,*76,1
1777415772865965132,$GPGSV,3,3,12,09,36,248,,04,08,339,,20,03,322,,10,01,299,*7D,1
1777415773030958201,$GPRMC,223612.000,A,1206.2599,S,07701.1970,W,0.00,283.72,280426,,,A*6D,1
1777415773299340981,$GPGGA,223613.000,1206.2599,S,07701.1970,W,1,05,1.6,149.2,M,8.3,M,,0000*6F,1
1777415773411543479,$GPGSA,M,3,24,29,12,11,15,,,,,,,,2.8,1.6,2.3*38,1
1777415773576568901,$GPRMC,223613.000,A,1206.2599,S,07701.1970,W,0.00,283.72,280426,,,A*6C,1
1777415774298982108,$GPGGA,223614.000,1206.2599,S,07701.1970,W,1,05,1.6,149.2,M,8.3,M,,0000*68,1
1777415774411302627,$GPGSA,M,3,24,29,12,11,15,,,,,,,,2.8,1.6,2.3*38,1
1777415774576340437,$GPRMC,223614.000,A,1206.2599,S,07701.1970,W,0.00,283.72,280426,,,A*6B,1
1777415775299988718,$GPGGA,223615.000,1206.2599,S,07701.1970,W,1,05,1.6,149.2,M,8.3,M,,0000*69,1
1777415775412230300,$GPGSA,M,3,24,29,12,11,15,,,,,,,,2.8,1.6,2.3*38,1
1777415775577246849,$GPRMC,223615.000,A,1206.2599,S,07701.1970,W,0.00,283.72,280426,,,A*6A,1
1777415776322239969,$GPGGA,223616.000,1206.2599,S,07701.1970,W,1,05,1.6,149.2,M,8.3,M,,0000*6A,1
1777415776434565388,$GPGSA,M,3,24,29,12,11,15,,,,,,,,2.8,1.6,2.3*38,1
1777415776599452328,$GPRMC,223616.000,A,1206.2599,S,07701.1970,W,0.00,283.72,280426,,,A*69,1
1777415777298991849,$GPGGA,223617.000,1206.2599,S,07701.1970,W,1,05,1.6,149.2,M,8.3,M,,0000*6B,1
1777415777411289403,$GPGSA,M,3,24,29,12,11,15,,,,,,,,2.8,1.6,2.3*38,1
1777415777571710822,$GPGSV,3,1,12,24,64,085,47,29,60,292,38,12,33,164,19,11,25,110,17*74,1
1777415777722912593,$GPGSV,3,2,12,15,21,004,22,05,01,043,15,51,52,289,,14,54,269,*76,1
1777415777864998825,$GPGSV,3,3,12,09,36,248,,04,08,339,,20,03,322,,10,01,299,*7D,1
1777415778030015222,$GPRMC,223617.000,A,1206.2599,S,07701.1970,W,0.00,283.72,280426,,,A*68,1
1777415778299162552,$GPGGA,223618.000,1206.2599,S,07701.1970,W,1,05,1.6,149.2,M,8.3,M,,0000*64,1
1777415778411417779,$GPGSA,M,3,24,29,12,11,15,,,,,,,,2.8,1.6,2.3*38,1
1777415778576461864,$GPRMC,223618.000,A,1206.2599,S,07701.1970,W,0.00,283.72,280426,,,A*67,1
1777415779299121090,$GPGGA,223619.000,1206.2599,S,07701.1970,W,1,05,1.6,149.2,M,8.3,M,,0000*65,1
1777415779411371620,$GPGSA,M,3,24,29,12,11,15,,,,,,,,2.8,1.6,2.3*38,1
1777415779576332837,$GPRMC,223619.000,A,1206.2599,S,07701.1970,W,0.00,283.72,280426,,,A*66,1
1777415780300071110,$GPGGA,223620.000,1206.2599,S,07701.1970,W,1,05,1.6,149.2,M,8.3,M,,0000*6F,1
1777415780412360905,$GPGSA,M,3,24,29,12,11,15,,,,,,,,2.8,1.6,2.3*38,1
1777415780577315362,$GPRMC,223620.000,A,1206.2599,S,07701.1970,W,0.00,283.72,280426,,,A*6C,1
1777415781298521960,$GPGGA,223621.000,1206.2599,S,07701.1970,W,1,05,1.6,149.2,M,8.3,M,,0000*6E,1
1777415781410799502,$GPGSA,M,3,24,29,12,11,15,,,,,,,,2.8,1.6,2.3*38,1
1777415781575789626,$GPRMC,223621.000,A,1206.2599,S,07701.1970,W,0.00,283.72,280426,,,A*6D,1
1777415782298244806,$GPGGA,223622.000,1206.2599,S,07701.1970,W,1,05,1.6,149.2,M,8.3,M,,0000*6D,1
1777415782410518522,$GPGSA,M,3,24,29,12,11,15,,,,,,,,2.8,1.6,2.3*38,1
1777415782570940723,$GPGSV,3,1,12,24,64,085,47,29,60,292,38,12,33,164,20,11,25,110,19*70,1
1777415782717575339,$GPGSV,3,2,12,15,21,004,22,51,52,289,,14,54,269,,09,36,248,*73,1
1777415782859660086,$GPGSV,3,3,12,04,08,339,,20,03,322,,05,01,043,,10,01,299,*7C,1
1777415783024668134,$GPRMC,223622.000,A,1206.2599,S,07701.1970,W,0.00,283.72,280426,,,A*6E,1
1777415783298591700,$GPGGA,223623.000,1206.2599,S,07701.1970,W,1,05,1.6,149.2,M,8.3,M,,0000*6C,1
1777415783410862126,$GPGSA,M,3,24,29,12,11,15,,,,,,,,2.8,1.6,2.3*38,1
1777415783575874678,$GPRMC,223623.000,A,1206.2599,S,07701.1970,W,0.00,283.72,280426,,,A*6F,1
1777415784299372981,$GPGGA,223624.000,1206.2599,S,07701.1970,W,1,05,1.6,149.2,M,8.3,M,,0000*6B,1
1777415784411639414,$GPGSA,M,3,24,29,12,11,15,,,,,,,,2.8,1.6,2.3*38,1
1777415784576631116,$GPRMC,223624.000,A,1206.2599,S,07701.1970,W,0.00,283.72,280426,,,A*68,1
1777415785298713596,$GPGGA,223625.000,1206.2599,S,07701.1970,W,1,05,1.6,149.3,M,8.3,M,,0000*6B,1
1777415785410952222,$GPGSA,M,3,24,29,12,11,15,,,,,,,,2.8,1.6,2.3*38,1
1777415785575936500,$GPRMC,223625.000,A,1206.2599,S,07701.1970,W,0.00,283.72,280426,,,A*69,1
1777415786299017999,$GPGGA,223626.000,1206.2599,S,07701.1970,W,1,05,1.6,149.3,M,8.3,M,,0000*68,1
1777415786411305871,$GPGSA,M,3,24,29,12,11,15,,,,,,,,2.8,1.6,2.3*38,1
1777415786576285559,$GPRMC,223626.000,A,1206.2599,S,07701.1970,W,0.00,283.72,280426,,,A*6A,1
1777415787299367948,$GPGGA,223627.000,1206.2599,S,07701.1970,W,1,05,1.6,149.3,M,8.3,M,,0000*69,1
1777415787411631532,$GPGSA,M,3,24,29,12,11,15,,,,,,,,2.8,1.6,2.3*38,1
1777415787572046967,$GPGSV,3,1,12,24,64,085,47,29,60,292,39,12,33,164,30,11,25,110,20*7A,1
1777415787718694878,$GPGSV,3,2,12,15,21,004,21,51,52,289,,14,54,269,,09,36,248,*70,1
1777415787860786164,$GPGSV,3,3,12,04,08,339,,20,03,322,,05,01,043,,10,01,299,*7C,1
1777415788025771982,$GPRMC,223627.000,A,1206.2599,S,07701.1970,W,0.00,283.72,280426,,,A*6B,1
1777415788299487341,$GPGGA,223628.000,1206.2599,S,07701.1970,W,1,05,1.6,149.3,M,8.3,M,,0000*66,0
1777415788411781229,$GPGSA,M,3,24,29,12,11,15,,,,,,,,2.8,1.6,2.3*38,0
1777415788576772977,$GPRMC,223628.000,A,1206.2599,S,07701.1970,W,0.00,283.72,280426,,,A*64,0
1777415789299232128,$GPGGA,223629.000,1206.2599,S,07701.1970,W,1,05,1.6,149.3,M,8.3,M,,0000*67,0
1777415789411489673,$GPGSA,M,3,24,29,12,11,15,,,,,,,,2.8,1.6,2.3*38,0
1777415789576498645,$GPRMC,223629.000,A,1206.2599,S,07701.1970,W,0.00,283.72,280426,,,A*65,0
1777415790298542348,$GPGGA,223630.000,1206.2597,S,07701.1968,W,1,05,1.6,150.5,M,8.3,M,,0000*66,0
1777415790410799141,$GPGSA,M,3,24,29,12,11,15,,,,,,,,2.8,1.6,2.3*38,0
1777415790575808802,$GPRMC,223630.000,A,1206.2597,S,07701.1968,W,0.42,283.72,280426,,,A*6C,0
1777415791299511032,$GPGGA,223631.000,1206.2594,S,07701.1966,W,1,05,1.6,151.2,M,8.3,M,,0000*6C,0
1777415791411774370,$GPGSA,M,3,24,29,12,11,15,,,,,,,,2.8,1.6,2.3*38,0
1777415791576770608,$GPRMC,223631.000,A,1206.2594,S,07701.1966,W,0.61,283.72,280426,,,A*61,0
1777415792299455053,$GPGGA,223632.000,1206.2593,S,07701.1963,W,1,05,1.6,151.9,M,8.3,M,,0000*66,0
1777415792411710418,$GPGSA,M,3,24,29,12,11,15,,,,,,,,2.8,1.6,2.3*38,0
1777415792572121685,$GPGSV,3,1,12,24,64,085,48,29,60,292,39,12,33,164,28,11,25,110,20*7C,0
1777415792718781213,$GPGSV,3,2,12,15,21,004,22,51,52,289,,14,54,269,,09,36,248,*73,0
1777415792860851562,$GPGSV,3,3,12,04,08,339,,20,03,322,,05,01,043,,10,01,299,*7C,0
1777415793025847894,$GPRMC,223632.000,A,1206.2593,S,07701.1963,W,0.98,283.72,280426,,,A*66,0
1777415793298321340,$GPGGA,223633.000,1206.2588,S,07701.1958,W,1,05,1.6,153.1,M,8.3,M,,0000*6F,0
1777415793410591713,$GPGSA,M,3,24,29,12,11,15,,,,,,,,2.8,1.6,2.3*38,0
1777415793573306953,$GPRMC,223633.000,A,1206.2588,S,07701.1958,W,1.51,48.85,280426,,,A*5C,0
1777415794297636677,$GPGGA,223634.000,1206.2583,S,07701.1953,W,1,05,1.6,153.9,M,8.3,M,,0000*60,0
1777415794409901763,$GPGSA,M,3,24,29,12,11,15,,,,,,,,2.8,1.6,2.3*38,0
1777415794572628821,$GPRMC,223634.000,A,1206.2583,S,07701.1953,W,1.40,50.32,280426,,,A*5E,0
1777415795298208602,$GPGGA,223635.000,1206.2582,S,07701.1953,W,1,05,1.6,154.5,M,8.3,M,,0000*6B,0
1777415795410472493,$GPGSA,M,3,24,29,12,11,15,,,,,,,,2.8,1.6,2.3*38,0
1777415795573166557,$GPRMC,223635.000,A,1206.2582,S,07701.1953,W,0.56,50.32,280426,,,A*58,0
1777415796299164989,$GPGGA,223636.000,1206.2581,S,07701.1955,W,1,05,1.6,154.8,M,8.3,M,,0000*60,0
1777415796411451296,$GPGSA,M,3,24,29,12,11,15,,,,,,,,2.8,1.6,2.3*38,0
1777415796574144679,$GPRMC,223636.000,A,1206.2581,S,07701.1955,W,0.82,50.32,280426,,,A*57,0
1777415797300147586,$GPGGA,223637.000,1206.2580,S,07701.1955,W,1,05,1.6,154.7,M,8.3,M,,0000*6F,0
1777415797412426902,$GPGSA,M,3,24,29,12,11,15,,,,,,,,2.8,1.6,2.3*38,0
1777415797572824952,$GPGSV,3,1,12,24,64,085,31,29,60,292,28,12,33,164,34,11,25,110,14*78,0
1777415797719493693,$GPGSV,3,2,12,15,21,004,18,51,52,289,,14,54,269,,09,36,248,*7A,0
1777415797861558537,$GPGSV,3,3,12,04,08,339,,20,03,322,,05,01,043,,10,01,299,*7C,0
1777415798024311551,$GPRMC,223637.000,A,1206.2580,S,07701.1955,W,0.56,50.32,280426,,,A*5E,0
1777415798322149059,$GPGGA,223638.000,1206.2577,S,07701.1956,W,1,05,1.6,154.7,M,8.3,M,,0000*6B,0
1777415798434424144,$GPGSA,M,3,24,29,12,11,15,,,,,,,,2.8,1.6,2.3*38,0
1777415798597129036,$GPRMC,223638.000,A,1206.2577,S,07701.1956,W,1.24,42.22,280426,,,A*5C,0
1777415799323131117,$GPGGA,223639.000,1206.2576,S,07701.1958,W,1,05,1.6,154.5,M,8.3,M,,0000*67,0
1777415799435398323,$GPGSA,M,3,24,29,12,11,15,,,,,,,,2.8,1.6,2.3*38,0
1777415799598120869,$GPRMC,223639.000,A,1206.2576,S,07701.1958,W,0.12,42.22,280426,,,A*56,0
1777415800322650609,$GPGGA,223640.000,1206.2576,S,07701.1958,W,1,05,1.6,154.2,M,8.3,M,,0000*6E,0
1777415800434924657,$GPGSA,M,3,24,29,12,11,15,,,,,,,,2.8,1.6,2.3*38,0
1777415800597638616,$GPRMC,223640.000,A,1206.2576,S,07701.1958,W,0.33,42.22,280426,,,A*5B,0
1777415801299885354,$GPGGA,223641.000,1206.2575,S,07701.1961,W,1,05,1.6,153.7,M,8.3,M,,0000*64,0
1777415801412143709,$GPGSA,M,3,24,29,12,11,15,,,,,,,,2.8,1.6,2.3*38,0
1777415801574860414,$GPRMC,223641.000,A,1206.2575,S,07701.1961,W,0.73,42.22,280426,,,A*57,0
1777415802298151163,$GPGGA,223642.000,1206.2578,S,07701.1967,W,1,04,2.5,153.5,M,8.3,M,,0000*6F,0
1777415802405850574,$GPGSA,M,3,24,29,12,11,,,,,,,,,5.3,2.5,4.6*33,0
1777415802566253559,$GPGSV,3,1,12,24,64,085,18,29,60,292,25,12,33,164,25,11,25,110,13*79,0
1777415802712890206,$GPGSV,3,2,12,15,21,004,05,48,33,280,,14,54,269,,09,36,248,*70,0
1777415802854971418,$GPGSV,3,3,12,04,08,339,,20,03,322,,05,01,043,,10,01,299,*7C,0
1777415803019954670,$GPRMC,223642.000,A,1206.2578,S,07701.1967,W,2.67,358.24,280426,,,A*66,0
1777415803298680936,$GPGGA,223643.000,1206.2583,S,07701.1973,W,1,04,2.5,153.4,M,8.3,M,,0000*6E,0
1777415803406375080,$GPGSA,M,3,24,29,12,11,,,,,,,,,5.3,2.5,4.6*33,0
1777415803571386449,$GPRMC,223643.000,A,1206.2583,S,07701.1973,W,2.77,323.62,280426,,,A*69,0
1777415804299458405,$GPGGA,223644.000,1206.2587,S,07701.1977,W,1,04,2.5,153.3,M,8.3,M,,0000*6E,1
1777415804407139393,$GPGSA,M,3,24,29,12,11,,,,,,,,,5.3,2.5,4.6*33,1
1777415804572160601,$GPRMC,223644.000,A,1206.2587,S,07701.1977,W,1.47,315.00,280426,,,A*6F,1
1777415805298356637,$GPGGA,223645.000,1206.2587,S,07701.1980,W,1,04,2.5,153.2,M,8.3,M,,0000*66,1
1777415805406029747,$GPGSA,M,3,24,29,12,11,,,,,,,,,5.3,2.5,4.6*33,1
1777415805571026703,$GPRMC,223645.000,A,1206.2587,S,07701.1980,W,0.60,315.00,280426,,,A*62,1
1777415806298274014,$GPGGA,223646.000,1206.2587,S,07701.1976,W,1,04,2.5,153.1,M,8.3,M,,0000*6F,1
1777415806405970838,$GPGSA,M,3,24,29,12,11,,,,,,,,,5.3,2.5,4.6*33,1
1777415806570959597,$GPRMC,223646.000,A,1206.2587,S,07701.1976,W,2.06,333.94,280426,,,A*63,1
1777415807298009323,$GPGGA,223647.000,1206.2586,S,07701.1974,W,1,04,2.5,152.9,M,8.3,M,,0000*64,1
1777415807405690824,$GPGSA,M,3,24,29,12,11,,,,,,,,,5.3,2.5,4.6*33,1
1777415807566111786,$GPGSV,3,1,12,24,64,085,20,29,60,292,24,12,33,164,25,11,25,110,09*78,1
1777415807712749971,$GPGSV,3,2,12,15,21,004,06,48,33,280,,14,54,269,,09,36,248,*73,1
1777415807854841890,$GPGSV,3,3,12,04,08,339,,20,03,322,,05,01,043,,10,01,299,*7C,1
1777415808019821673,$GPRMC,223647.000,A,1206.2586,S,07701.1974,W,1.74,342.18,280426,,,A*65,1
1777415808298123995,$GPGGA,223648.000,1206.2583,S,07701.1972,W,1,04,2.5,152.8,M,8.3,M,,0000*69,1
1777415808405819693,$GPGSA,M,3,24,29,12,11,,,,,,,,,5.3,2.5,4.6*33,1
1777415808570824409,$GPRMC,223648.000,A,1206.2583,S,07701.1972,W,2.08,353.61,280426,,,A*6F,1
1777415809297444820,$GPGGA,223649.000,1206.2578,S,07701.1973,W,1,04,2.5,152.8,M,8.3,M,,0000*6D,1
1777415809405112251,$GPGSA,M,3,24,29,12,11,,,,,,,,,5.3,2.5,4.6*33,1
1777415809570141585,$GPRMC,223649.000,A,1206.2578,S,07701.1973,W,1.56,353.70,280426,,,A*63,1
