Unix_time,GPS_data,flagStop
1777416865374349698,$GPGSA,M,3,29,24,12,11,,,,,,,,,8.2,3.7,7.3*3A,0
1777416891276106546,$GPRMC,225425.092,A,1206.2516,S,07701.1985,W,0.49,348.34,280426,,,A*62,0
1777416891276800748,$GPGGA,225426.000,1206.2515,S,07701.1984,W,0,00,,154.2,M,8.3,M,,0000*43,0
1777416891277516840,$GPGSA,M,1,,,,,,,,,,,,,,,*12,0
1777416891277694997,$GPRMC,225426.000,V,1206.2515,S,07701.1984,W,,,280426,,,N*75,0
1777416891278222987,$GPGGA,225427.000,1206.2508,S,07701.1982,W,1,04,3.7,154.4,M,8.3,M,,0000*61,0
1777416891278940468,$GPGSA,M,3,29,24,12,11,,,,,,,,,8.2,3.7,7.3*3A,0
1777416891279399306,$GPGSV,3,1,12,29,64,274,46,24,60,066,37,12,32,155,35,11,23,119,16*7C,0
1777416891280071062,$GPGSV,3,2,12,37,00,094,,14,53,285,,09,38,259,,15,15,009,*7B,0
1777416891280658703,$GPGSV,3,3,12,04,14,342,,20,03,329,,05,02,050,,10,00,306,*71,0
1777416891281242806,$GPRMC,225427.000,A,1206.2508,S,07701.1982,W,0.35,348.34,280426,,,A*68,0
1777416891281923526,$GPGGA,225428.092,1206.2503,S,07701.1981,W,1,04,3.7,154.4,M,8.3,M,,0000*6D,0
1777416891282227078,$GPGSA,M,3,29,24,12,11,,,,,,,,,8.3,3.7,7.4*3C,0
1777416891282314601,$GPRMC,225428.092,A,1206.2503,S,07701.1981,W,0.15,348.34,280426,,,A*66,0
1777416891282448034,$GPGGA,225429.000,1206.2502,S,07701.1980,W,1,04,3.7,154.2,M,8.3,M,,0000*61,0
1777416891282588523,$GPGSA,M,3,29,24,12,11,,,,,,,,,8.3,3.7,7.4*3C,0
1777416891282675971,$GPRMC,225429.000,A,1206.2502,S,07701.1980,W,0.67,348.34,280426,,,A*69,0
1777416891282809293,$GPGGA,225430.000,1206.2498,S,07701.1979,W,1,04,3.8,154.3,M,8.3,M,,0000*63,0
1777416891282950022,$GPGSA,M,3,29,24,12,11,,,,,,,,,8.3,3.8,7.4*33,0
1777416891283036953,$GPRMC,225430.000,A,1206.2498,S,07701.1979,W,0.25,348.34,280426,,,A*63,0
1777416891283169459,$GPGGA,225431.000,1206.2494,S,07701.1977,W,1,04,3.8,154.5,M,8.3,M,,0000*66,0
1777416891283332042,$GPGSA,M,3,29,24,12,11,,,,,,,,,8.3,3.8,7.4*33,0
1777416891283426806,$GPRMC,225431.000,A,1206.2494,S,07701.1977,W,0.25,348.34,280426,,,A*60,0
1777416891283567794,$GPGGA,225432.000,1206.2490,S,07701.1977,W,1,04,3.8,154.7,M,8.3,M,,0000*63,0
1777416891284192882,$GPGSA,M,3,29,24,12,11,,,,,,,,,8.3,3.8,7.4*33,0
1777416891284640071,$GPGSV,3,1,12,29,64,274,44,24,60,066,44,12,32,155,30,11,23,119,19*70,0
1777416891285305197,$GPGSV,3,2,12,37,00,094,,14,53,285,,09,38,259,,15,15,009,*7B,0
1777416891285893153,$GPGSV,3,3,12,04,14,342,,20,03,329,,05,02,050,,10,00,306,*71,0
1777416891286471052,$GPRMC,225432.000,A,1206.2490,S,07701.1977,W,0.22,348.34,280426,,,A*60,0
1777416891287105547,$GPGGA,225433.000,1206.2488,S,07701.1977,W,1,04,3.8,154.7,M,8.3,M,,0000*6B,0
1777416891287817046,$GPGSA,M,3,29,24,12,11,,,,,,,,,8.3,3.8,7.4*33,0
1777416891288171564,$GPRMC,225433.000,A,1206.2488,S,07701.1977,W,0.17,348.34,280426,,,A*6E,0
1777416891288306516,$GPGGA,225434.000,1206.2485,S,07701.1977,W,1,04,3.8,154.6,M,8.3,M,,0000*60,0
1777416891288448764,$GPGSA,M,3,29,24,12,11,,,,,,,,,8.3,3.8,7.4*33,0
1777416891288537250,$GPRMC,225434.000,A,1206.2485,S,07701.1977,W,0.20,348.34,280426,,,A*60,0
1777416891288671349,$GPGGA,225435.000,1206.2483,S,07701.1978,W,1,04,3.8,154.4,M,8.3,M,,0000*6A,0
1777416891288812671,$GPGSA,M,3,29,24,12,11,,,,,,,,,8.3,3.8,7.4*33,0
1777416891288900620,$GPRMC,225435.000,A,1206.2483,S,07701.1978,W,0.21,348.34,280426,,,A*69,0
1777416891289034553,$GPGGA,225436.000,1206.2480,S,07701.1979,W,1,05,1.6,153.8,M,8.3,M,,0000*6D,0
1777416891289176319,$GPGSA,M,3,29,24,12,11,15,,,,,,,,2.7,1.6,2.1*35,0
1777416891289267750,$GPRMC,225436.000,A,1206.2480,S,07701.1979,W,0.29,348.34,280426,,,A*60,0
1777416891289401701,$GPGGA,225437.000,1206.2476,S,07701.1980,W,1,05,1.6,152.8,M,8.3,M,,0000*62,0
1777416891289542949,$GPGSA,M,3,29,24,12,11,15,,,,,,,,2.7,1.6,2.1*35,0
1777416891289634305,$GPGSV,3,1,12,29,64,274,43,24,60,066,44,12,32,155,30,11,23,119,16*78,0
1777416891289764497,$GPGSV,3,2,12,15,15,009,17,37,00,094,,14,53,285,,09,38,259,*7D,0
1777416891289883558,$GPGSV,3,3,12,04,14,342,,20,03,329,,05,02,050,,10,00,306,*71,0
1777416891289998953,$GPRMC,225437.000,A,1206.2476,S,07701.1980,W,0.30,348.34,280426,,,A*66,0
1777416891290132775,$GPGGA,225438.000,1206.2475,S,07701.1980,W,1,05,1.6,153.5,M,8.3,M,,0000*62,0
1777416891290381621,$GPGSA,M,3,29,24,12,11,15,,,,,,,,2.7,1.6,2.1*35,0
1777416891290472496,$GPRMC,225438.000,A,1206.2475,S,07701.1980,W,0.23,348.34,280426,,,A*68,0
1777416891290604317,$GPGGA,225439.000,1206.2477,S,07701.1980,W,1,05,1.6,155.2,M,8.3,M,,0000*60,0
1777416891290742898,$GPGSA,M,3,29,24,12,11,15,,,,,,,,2.7,1.6,2.1*35,0
1777416891290832921,$GPRMC,225439.000,A,1206.2477,S,07701.1980,W,0.12,348.34,280426,,,A*69,0
1777416891290965447,$GPGGA,225440.000,1206.2479,S,07701.1980,W,1,04,1.8,156.3,M,8.3,M,,0000*6D,0
1777416891291104713,$GPGSA,M,3,29,24,12,15,,,,,,,,,2.8,1.8,2.2*37,0
1777416891291191477,$GPRMC,225440.000,A,1206.2479,S,07701.1980,W,0.05,348.34,280426,,,A*6F,0
1777416891291333854,$GPGGA,225441.000,1206.2477,S,07701.1981,W,1,05,1.6,156.1,M,8.3,M,,0000*6E,0
1777416891291473935,$GPGSA,M,3,29,24,12,11,15,,,,,,,,2.7,1.6,2.1*35,0
1777416891291564384,$GPRMC,225441.000,A,1206.2477,S,07701.1981,W,0.10,348.34,280426,,,A*65,0
1777416891291697002,$GPGGA,225442.000,1206.2477,S,07701.1981,W,1,05,1.6,156.2,M,8.3,M,,0000*6E,0
1777416891291836972,$GPGSA,M,3,29,24,12,11,15,,,,,,,,2.7,1.6,2.1*35,0
1777416891291927588,$GPGSV,3,1,12,29,64,274,42,24,60,066,44,12,32,155,30,11,23,119,19*76,0
1777416891292056983,$GPGSV,3,2,12,15,15,009,15,37,00,094,,14,53,285,,09,38,259,*7F,0
1777416891292175841,$GPGSV,3,3,12,04,14,342,,20,03,329,,05,02,050,,10,00,306,*71,0
1777416891292290773,$GPRMC,225442.000,A,1206.2477,S,07701.1981,W,0.09,348.34,280426,,,A*6E,0
1777416891292423631,$GPGGA,225443.000,1206.2477,S,07701.1981,W,1,05,1.6,156.7,M,8.3,M,,0000*6A,0
1777416891292564268,$GPGSA,M,3,29,24,12,11,15,,,,,,,,2.7,1.6,2.1*35,0
1777416891292655180,$GPRMC,225443.000,A,1206.2477,S,07701.1981,W,0.12,348.34,280426,,,A*65,0
1777416891292788446,$GPGGA,225444.000,1206.2475,S,07701.1982,W,1,05,1.6,156.3,M,8.3,M,,0000*68,0
1777416891292928731,$GPGSA,M,3,29,24,12,11,15,,,,,,,,2.7,1.6,2.1*35,0
1777416891293019791,$GPRMC,225444.000,A,1206.2475,S,07701.1982,W,0.08,348.34,280426,,,A*68,0
1777416891293152780,$GPGGA,225445.000,1206.2476,S,07701.1982,W,1,05,1.6,156.8,M,8.3,M,,0000*61,0
1777416891293293472,$GPGSA,M,3,29,24,12,11,15,,,,,,,,2.7,1.6,2.1*35,0
1777416891293384217,$GPRMC,225445.000,A,1206.2476,S,07701.1982,W,0.09,348.34,280426,,,A*6B,0
1777416891293519131,$GPGGA,225446.000,1206.2477,S,07701.1982,W,1,05,1.6,157.9,M,8.3,M,,0000*63,0
1777416891293660157,$GPGSA,M,3,29,24,12,11,15,,,,,,,,2.7,1.6,2.1*35,0
1777416891293752754,$GPRMC,225446.000,A,1206.2477,S,07701.1982,W,0.05,348.34,280426,,,A*65,0
1777416891293885854,$GPGGA,225447.000,1206.2479,S,07701.1982,W,1,05,1.6,159.3,M,8.3,M,,0000*68,0
1777416891294026935,$GPGSA,M,3,29,24,12,11,15,,,,,,,,2.7,1.6,2.1*35,0
1777416891294119217,$GPGSV,3,1,12,29,64,274,42,24,60,066,45,12,32,155,30,11,23,119,18*76,0
1777416891294249631,$GPGSV,3,2,12,15,15,009,17,37,00,094,,14,53,285,,09,38,259,*7D,0
1777416891294368897,$GPGSV,3,3,12,04,14,342,,20,03,329,,05,02,050,,10,00,306,*71,0
1777416891294483865,$GPRMC,225447.000,A,1206.2479,S,07701.1982,W,0.06,348.34,280426,,,A*69,0
1777416891294616631,$GPGGA,225448.000,1206.2481,S,07701.1981,W,1,05,1.6,160.2,M,8.3,M,,0000*68,0
1777416891294757916,$GPGSA,M,3,29,24,12,11,15,,,,,,,,2.7,1.6,2.1*35,0
1777416891294848791,$GPRMC,225448.000,A,1206.2481,S,07701.1981,W,0.07,348.34,280426,,,A*63,0
1777416891294981298,$GPGGA,225449.000,1206.2482,S,07701.1981,W,1,05,1.6,160.9,M,8.3,M,,0000*61,0
1777416891295121972,$GPGSA,M,3,29,24,12,11,15,,,,,,,,2.7,1.6,2.1*35,0
1777416891295212384,$GPRMC,225449.000,A,1206.2482,S,07701.1981,W,0.03,348.34,280426,,,A*65,0
1777416891295351539,$GPGGA,225450.000,1206.2482,S,07701.1981,W,1,05,1.6,161.4,M,8.3,M,,0000*65,0
1777416891295492009,$GPGSA,M,3,29,24,12,11,15,,,,,,,,2.7,1.6,2.1*35,0
1777416891295582532,$GPRMC,225450.000,A,1206.2482,S,07701.1981,W,0.20,348.34,280426,,,A*6C,0
1777416891295718706,$GPGGA,225451.000,1206.2480,S,07701.1981,W,1,05,1.6,161.0,M,8.3,M,,0000*62,0
1777416891385379262,$GPGSA,M,3,29,24,12,11,15,,,,,,,,2.7,1.6,2.1*35,0
1777416891550412634,$GPRMC,225451.000,A,1206.2480,S,07701.1981,W,0.10,348.34,280426,,,A*6C,0
1777416892272884156,$GPGGA,225452.000,1206.2480,S,07701.1982,W,1,05,1.6,161.1,M,8.3,M,,0000*63,0
1777416892385207343,$GPGSA,M,3,29,24,12,11,15,,,,,,,,2.7,1.6,2.1*35,0
1777416892545607393,$GPGSV,3,1,12,29,64,274,43,24,60,066,37,12,32,155,38,11,23,119,19*7B,0
1777416892696845927,$GPGSV,3,2,12,15,15,009,17,44,42,284,39,14,53,285,,09,38,259,*76,0
1777416892838927407,$GPGSV,3,3,12,04,14,342,,20,03,329,,05,02,050,,10,00,306,*71,0
1777416893003975227,$GPRMC,225452.000,A,1206.2480,S,07701.1982,W,0.14,348.34,280426,,,A*68,0
1777416893298509932,$GPGGA,225453.000,1206.2479,S,07701.1982,W,1,05,1.6,161.0,M,8.3,M,,0000*65,0
1777416893410845955,$GPGSA,M,3,29,24,12,11,15,,,,,,,,2.7,1.6,2.1*35,0
1777416893575853703,$GPRMC,225453.000,A,1206.2479,S,07701.1982,W,0.10,348.34,280426,,,A*6B,0
1777416894301023490,$GPGGA,225454.000,1206.2476,S,07701.1983,W,1,05,1.6,159.4,M,8.3,M,,0000*63,0
1777416894413302752,$GPGSA,M,3,29,24,12,11,15,,,,,,,,2.7,1.6,2.1*35,0
1777416894578334765,$GPRMC,225454.000,A,1206.2476,S,07701.1983,W,0.00,348.34,280426,,,A*63,0
1777416895273964384,$GPGGA,225455.000,1206.2476,S,07701.1983,W,1,05,1.6,159.4,M,8.3,M,,0000*62,0
1777416895386215796,$GPGSA,M,3,29,24,12,11,15,,,,,,,,2.7,1.6,2.1*35,0
1777416895551318261,$GPRMC,225455.000,A,1206.2476,S,07701.1983,W,0.00,348.34,280426,,,A*62,0
1777416896272972746,$GPGGA,225456.000,1206.2480,S,07701.1983,W,1,05,1.6,159.6,M,8.3,M,,0000*6A,0
1777416896385231715,$GPGSA,M,3,29,24,12,11,15,,,,,,,,2.7,1.6,2.1*35,0
1777416896550253403,$GPRMC,225456.000,A,1206.2480,S,07701.1983,W,1.40,250.02,280426,,,A*60,0
1777416897274662446,$GPGGA,225457.000,1206.2487,S,07701.1983,W,1,05,1.6,159.8,M,8.3,M,,0000*62,0
1777416897386931697,$GPGSA,M,3,29,24,12,11,15,,,,,,,,2.7,1.6,2.1*35,0
1777416897547331645,$GPGSV,3,1,12,29,64,274,32,24,60,066,28,12,32,155,38,11,23,119,20*79,0
1777416897698605129,$GPGSV,3,2,12,15,15,009,17,44,42,284,32,14,53,285,,09,38,259,*7D,0
1777416897840704612,$GPGSV,3,3,12,04,14,342,,20,03,329,,05,02,050,,10,00,306,*71,0
1777416898005674412,$GPRMC,225457.000,A,1206.2487,S,07701.1983,W,2.75,198.64,280426,,,A*64,0
1777416898274214309,$GPGGA,225458.000,1206.2501,S,07701.1980,W,1,05,1.6,160.1,M,8.3,M,,0000*62,0
1777416898386471579,$GPGSA,M,3,29,24,12,11,15,,,,,,,,2.7,1.6,2.1*35,0
1777416898551472886,$GPRMC,225458.000,A,1206.2501,S,07701.1980,W,2.97,186.48,280426,,,A*6A,0
1777416899272750110,$GPGGA,225459.000,1206.2514,S,07701.1976,W,1,05,1.6,160.4,M,8.3,M,,0000*6B,0
1777416899385022699,$GPGSA,M,3,29,24,12,11,15,,,,,,,,2.7,1.6,2.1*35,0
1777416899550016140,$GPRMC,225459.000,A,1206.2514,S,07701.1976,W,2.72,175.49,280426,,,A*60,0
1777416900273380485,$GPGGA,225500.000,1206.2526,S,07701.1972,W,1,05,1.6,160.8,M,8.3,M,,0000*6F,0
1777416900385641687,$GPGSA,M,3,29,24,12,11,15,,,,,,,,2.7,1.6,2.1*35,0
1777416900550649116,$GPRMC,225500.000,A,1206.2526,S,07701.1972,W,2.94,165.96,280426,,,A*63,0
1777416901299001797,$GPGGA,225501.000,1206.2537,S,07701.1966,W,1,05,1.6,161.1,M,8.3,M,,0000*63,0
1777416901411291263,$GPGSA,M,3,29,24,12,11,15,,,,,,,,2.7,1.6,2.1*35,0
1777416901576280955,$GPRMC,225501.000,A,1206.2537,S,07701.1966,W,3.34,155.02,280426,,,A*62,0
1777416902272947999,$GPGGA,225502.000,1206.2542,S,07701.1963,W,1,05,1.6,161.1,M,8.3,M,,0000*67,0
1777416902385240078,$GPGSA,M,3,29,24,12,11,15,,,,,,,,2.7,1.6,2.1*35,0
1777416902545648782,$GPGSV,3,1,12,29,64,274,28,24,60,066,25,12,32,155,35,11,23,119,19*78,0
1777416902692336282,$GPGSV,3,2,12,15,15,009,16,44,42,284,,14,53,285,,09,38,259,*7D,0
1777416902834396508,$GPGSV,3,3,12,04,14,342,,20,03,329,,05,02,050,,10,00,306,*71,0
1777416902999400096,$GPRMC,225502.000,A,1206.2542,S,07701.1963,W,1.48,152.48,280426,,,A*66,0
1777416903272969802,$GPGGA,225503.000,1206.2550,S,07701.1957,W,1,05,1.6,161.4,M,8.3,M,,0000*67,0
1777416903385238384,$GPGSA,M,3,29,24,12,11,15,,,,,,,,2.7,1.6,2.1*35,0
1777416903550228106,$GPRMC,225503.000,A,1206.2550,S,07701.1957,W,2.61,149.80,280426,,,A*65,0
1777416904273377879,$GPGGA,225504.000,1206.2560,S,07701.1953,W,1,05,1.6,161.7,M,8.3,M,,0000*64,0
1777416904385648335,$GPGSA,M,3,29,24,12,11,15,,,,,,,,2.7,1.6,2.1*35,0
1777416904550654212,$GPRMC,225504.000,A,1206.2560,S,07701.1953,W,3.24,153.17,280426,,,A*60,0
1777416905273993775,$GPGGA,225505.000,1206.2570,S,07701.1948,W,1,05,1.6,161.9,M,8.3,M,,0000*60,0
1777416905386274512,$GPGSA,M,3,29,24,12,11,15,,,,,,,,2.7,1.6,2.1*35,0
1777416905551309619,$GPRMC,225505.000,A,1206.2570,S,07701.1948,W,2.54,150.18,280426,,,A*60,0
1777416906273567065,$GPGGA,225506.000,1206.2580,S,07701.1943,W,1,05,1.6,162.2,M,8.3,M,,0000*6F,0
1777416906385866510,$GPGSA,M,3,29,24,12,11,15,,,,,,,,2.7,1.6,2.1*35,0
1777416906550856232,$GPRMC,225506.000,A,1206.2580,S,07701.1943,W,2.68,153.49,280426,,,A*6F,0
1777416907272755761,$GPGGA,225507.000,1206.2591,S,07701.1936,W,1,05,1.6,162.3,M,8.3,M,,0000*6D,0
1777416907385034135,$GPGSA,M,3,29,24,12,11,15,,,,,,,,2.7,1.6,2.1*35,0
1777416907545453766,$GPGSV,3,1,12,29,64,274,40,24,60,066,23,12,32,155,41,11,23,119,18*72,0
1777416907692118434,$GPGSV,3,2,12,15,15,009,16,44,42,284,,14,53,285,,09,38,259,*7D,0
1777416907834203727,$GPGSV,3,3,12,04,14,342,,20,03,329,,05,02,050,,10,00,306,*71,0
1777416907999195622,$GPRMC,225507.000,A,1206.2591,S,07701.1936,W,2.67,153.11,280426,,,A*6E,0
1777416908272944133,$GPGGA,225508.000,1206.2598,S,07701.1933,W,1,05,1.6,162.0,M,8.3,M,,0000*6D,0
1777416908385231030,$GPGSA,M,3,29,24,12,11,15,,,,,,,,2.7,1.6,2.1*35,0
1777416908550236988,$GPRMC,225508.000,A,1206.2598,S,07701.1933,W,2.16,151.07,280426,,,A*6E,0
1777416909272753173,$GPGGA,225509.000,1206.2601,S,07701.1931,W,1,05,1.6,161.4,M,8.3,M,,0000*6A,0
1777416909385038444,$GPGSA,M,3,29,24,12,11,15,,,,,,,,2.7,1.6,2.1*35,0
1777416909550020538,$GPRMC,225509.000,A,1206.2601,S,07701.1931,W,1.31,145.89,280426,,,A*6B,0
1777416910273153409,$GPGGA,225510.000,1206.2598,S,07701.1925,W,1,05,1.6,161.2,M,8.3,M,,0000*62,0
1777416910385457666,$GPGSA,M,3,29,24,12,11,15,,,,,,,,2.7,1.6,2.1*35,0
1777416910550434896,$GPRMC,225510.000,A,1206.2598,S,07701.1925,W,2.22,130.05,280426,,,A*62,0
1777416911275878565,$GPGGA,225511.000,1206.2597,S,07701.1922,W,1,05,1.6,161.4,M,8.3,M,,0000*6D,0
1777416911388163103,$GPGSA,M,3,29,24,12,11,15,,,,,,,,2.7,1.6,2.1*35,0
1777416911553142748,$GPRMC,225511.000,A,1206.2597,S,07701.1922,W,2.16,105.39,280426,,,A*65,0
1777416912302522504,$GPGGA,225512.000,1206.2595,S,07701.1918,W,1,05,1.6,161.5,M,8.3,M,,0000*64,0
1777416912414822233,$GPGSA,M,3,29,24,12,11,15,,,,,,,,2.7,1.6,2.1*35,0
1777416912575227424,$GPGSV,3,1,12,29,64,274,44,24,60,066,32,12,32,155,30,11,23,119,17*7F,0
1777416912726479265,$GPGSV,3,2,12,15,15,009,16,44,42,284,34,14,53,285,,09,38,259,*7A,0
1777416912868573886,$GPGSV,3,3,12,04,14,342,,20,03,329,,05,02,050,,10,00,306,*71,0
1777416913031300764,$GPRMC,225512.000,A,1206.2595,S,07701.1918,W,1.64,99.90,280426,,,A*5C,0
1777416913264812325,$GPGGA,225513.000,1206.2593,S,07701.1914,W,0,00,,161.5,M,8.3,M,,0000*42,0
1777416913333570015,$GPGSA,M,1,,,,,,,,,,,,,,,*12,0
1777416913475661483,$GPRMC,225513.000,V,1206.2593,S,07701.1914,W,,,280426,,,N*75,0
1777416914285857724,$GPGGA,225514.000,1206.2590,S,07701.1910,W,0,00,,161.5,M,8.3,M,,0000*42,0
1777416914354614023,$GPGSA,M,1,,,,,,,,,,,,,,,*12,0
1777416914496686413,$GPRMC,225514.000,V,1206.2590,S,07701.1910,W,,,280426,,,N*75,0
1777416915260436934,$GPGGA,225515.092,1206.2587,S,07701.1906,W,0,00,,161.5,M,8.3,M,,0000*49,0
1777416915329181287,$GPGSA,M,1,,,,,,,,,,,,,,,*12,0
1777416915471322139,$GPRMC,225515.092,V,1206.2587,S,07701.1906,W,,,280426,,,N*7E,0
1777416916272110416,$GPGGA,225516.091,1206.2587,S,07701.1910,W,1,04,1.8,161.7,M,8.3,M,,0000*6E,0
1777416916379812872,$GPGSA,M,3,29,24,12,15,,,,,,,,,2.8,1.8,2.2*37,0
1777416916542527125,$GPRMC,225516.091,A,1206.2587,S,07701.1910,W,1.03,97.98,280426,,,A*5C,0
1777416917272108584,$GPGGA,225517.092,1206.2585,S,07701.1914,W,1,04,1.8,161.6,M,8.3,M,,0000*6B,0
1777416917379801417,$GPGSA,M,3,29,24,12,15,,,,,,,,,2.8,1.8,2.2*37,0
1777416917540226322,$GPGSV,3,1,12,29,64,274,34,24,60,066,24,12,32,155,22,15,15,009,17*7D,0
1777416917691481761,$GPGSV,3,2,12,05,02,050,16,44,42,284,29,14,53,285,,09,38,259,*7D,0
1777416917833547139,$GPGSV,3,3,12,11,23,119,,04,14,342,,20,03,329,,10,00,306,*7B,0
1777416917996260605,$GPRMC,225517.092,A,1206.2585,S,07701.1914,W,1.82,79.49,280426,,,A*5D,0
1777416918273766743,$GPGGA,225518.000,1206.2583,S,07701.1917,W,1,04,1.8,161.7,M,8.3,M,,0000*6B,0
1777416918381474342,$GPGSA,M,3,29,24,12,15,,,,,,,,,2.8,1.8,2.2*37,0
1777416918544182150,$GPRMC,225518.000,A,1206.2583,S,07701.1917,W,1.52,68.45,280426,,,A*5D,0
1777416919272096012,$GPGGA,225519.000,1206.2589,S,07701.1923,W,1,04,1.8,161.8,M,8.3,M,,0000*68,0
1777416919379816877,$GPGSA,M,3,29,24,12,15,,,,,,,,,2.8,1.8,2.2*37,1
1777416919542502713,$GPRMC,225519.000,A,1206.2589,S,07701.1923,W,1.59,88.70,280426,,,A*52,1
1777416920302734355,$GPGGA,225520.000,1206.2599,S,07701.1927,W,1,04,1.8,161.6,M,8.3,M,,0000*69,1
1777416920410419670,$GPGSA,M,3,29,24,12,15,,,,,,,,,2.8,1.8,2.2*37,1
1777416920575430353,$GPRMC,225520.000,A,1206.2599,S,07701.1927,W,2.54,126.73,280426,,,A*65,1
1777416921272931157,$GPGGA,225521.000,1206.2610,S,07701.1935,W,1,04,1.8,161.1,M,8.3,M,,0000*6E,1
1777416921380619034,$GPGSA,M,3,29,24,12,15,,,,,,,,,2.8,1.8,2.2*37,1
1777416921545626560,$GPRMC,225521.000,A,1206.2610,S,07701.1935,W,4.19,161.83,280426,,,A*66,1
1777416922272502151,$GPGGA,225522.000,1206.2614,S,07701.1938,W,1,04,1.8,160.6,M,8.3,M,,0000*62,1
1777416922380196035,$GPGSA,M,3,29,24,12,15,,,,,,,,,2.8,1.8,2.2*37,1
1777416922540681957,$GPGSV,3,1,12,29,64,270,35,24,60,063,19,12,31,154,20,15,14,009,16*73,1
1777416922691870031,$GPGSV,3,2,12,11,22,120,11,44,42,284,31,14,53,287,,09,38,261,*7B,1
1777416922833946746,$GPGSV,3,3,12,04,15,342,,20,03,330,,05,03,051,,10,00,307,*79,1
1777416922998941243,$GPRMC,225522.000,A,1206.2614,S,07701.1938,W,1.44,165.02,280426,,,A*6C,1
1777416923272699780,$GPGGA,225523.000,1206.2611,S,07701.1941,W,1,04,1.8,160.6,M,8.3,M,,0000*68,1
1777416923380404283,$GPGSA,M,3,29,24,12,15,,,,,,,,,2.8,1.8,2.2*37,1
1777416923545406013,$GPRMC,225523.000,A,1206.2611,S,07701.1941,W,0.98,165.02,280426,,,A*66,1
1777416924276669915,$GPGGA,225524.000,1206.2614,S,07701.1941,W,1,05,1.6,159.9,M,8.3,M,,0000*60,1
1777416924388946426,$GPGSA,M,3,29,24,12,11,15,,,,,,,,2.7,1.6,2.1*35,1
1777416924553949073,$GPRMC,225524.000,A,1206.2614,S,07701.1941,W,2.00,176.40,280426,,,A*63,1
1777416925276045935,$GPGGA,225525.000,1206.2615,S,07701.1942,W,1,05,1.6,160.0,M,8.3,M,,0000*60,1
1777416925388322693,$GPGSA,M,3,29,24,12,11,15,,,,,,,,2.7,1.6,2.1*35,1
1777416925553314775,$GPRMC,225525.000,A,1206.2615,S,07701.1942,W,1.07,176.40,280426,,,A*64,1
1777416926275605666,$GPGGA,225526.000,1206.2614,S,07701.1943,W,1,05,1.6,160.3,M,8.3,M,,0000*60,1
1777416926387886708,$GPGSA,M,3,29,24,12,11,15,,,,,,,,2.7,1.6,2.1*35,1
1777416926552896801,$GPRMC,225526.000,A,1206.2614,S,07701.1943,W,0.54,176.40,280426,,,A*60,1
1777416927275809075,$GPGGA,225527.000,1206.2609,S,07701.1941,W,1,05,1.6,160.7,M,8.3,M,,0000*6B,1
1777416927388098920,$GPGSA,M,3,29,24,12,11,15,,,,,,,,2.7,1.6,2.1*35,1
1777416927548504394,$GPGSV,3,1,12,29,64,270,31,24,60,063,20,12,31,154,20,11,22,120,17*77,1
1777416927699760280,$GPGSV,3,2,12,15,14,009,16,44,42,284,33,14,53,287,,09,38,261,*75,1
1777416927841843577,$GPGSV,3,3,12,04,15,342,,20,03,330,,05,03,051,,10,00,307,*79,1
1777416928006842641,$GPRMC,225527.000,A,1206.2609,S,07701.1941,W,1.81,150.04,280426,,,A*62,1
1777416928276002894,$GPGGA,225528.000,1206.2607,S,07701.1944,W,1,05,1.6,160.8,M,8.3,M,,0000*60,1
1777416928388296838,$GPGSA,M,3,29,24,12,11,15,,,,,,,,2.7,1.6,2.1*35,1
1777416928553305062,$GPRMC,225528.000,A,1206.2607,S,07701.1944,W,0.62,150.04,280426,,,A*6A,1
1777416929276011747,$GPGGA,225529.000,1206.2608,S,07701.1945,W,1,05,1.6,160.4,M,8.3,M,,0000*63,1
1777416929388294826,$GPGSA,M,3,29,24,12,11,15,,,,,,,,2.7,1.6,2.1*35,1
1777416929553291190,$GPRMC,225529.000,A,1206.2608,S,07701.1945,W,0.93,150.04,280426,,,A*6B,1
1777416930304146893,$GPGGA,225530.000,1206.2606,S,07701.1949,W,1,05,1.6,160.0,M,8.3,M,,0000*6D,1
1777416930416406701,$GPGSA,M,3,29,24,12,11,15,,,,,,,,2.7,1.6,2.1*35,1
1777416930581423187,$GPRMC,225530.000,A,1206.2606,S,07701.1949,W,0.54,150.04,280426,,,A*6A,1
1777416931275358426,$GPGGA,225531.000,1206.2602,S,07701.1955,W,1,05,1.6,158.5,M,8.3,M,,0000*6B,1
1777416931387658260,$GPGSA,M,3,29,24,12,11,15,,,,,,,,2.7,1.6,2.1*35,1
1777416931552651053,$GPRMC,225531.000,A,1206.2602,S,07701.1955,W,0.69,150.04,280426,,,A*6C,1
1777416932275569362,$GPGGA,225532.000,1206.2595,S,07701.1956,W,1,05,1.6,158.0,M,8.3,M,,0000*63,1
1777416932387854592,$GPGSA,M,3,29,24,12,11,15,,,,,,,,2.7,1.6,2.1*35,1
1777416932548259533,$GPGSV,3,1,12,29,64,270,31,24,60,063,21,12,31,154,20,11,22,120,14*75,1
1777416932699587920,$GPGSV,3,2,12,15,14,009,17,44,42,284,34,14,53,287,,09,38,261,*73,1
1777416932841621207,$GPGSV,3,3,12,04,15,342,,20,03,330,,05,03,051,,10,00,307,*79,1
1777416933006651808,$GPRMC,225532.000,A,1206.2595,S,07701.1956,W,0.89,150.04,280426,,,A*6F,1
1777416933275571632,$GPGGA,225533.000,1206.2591,S,07701.1956,W,1,05,1.6,158.1,M,8.3,M,,0000*67,1
1777416933387841164,$GPGSA,M,3,29,24,12,11,15,,,,,,,,2.7,1.6,2.1*35,1
1777416933552835461,$GPRMC,225533.000,A,1206.2591,S,07701.1956,W,0.73,150.04,280426,,,A*6F,1
1777416934275350162,$GPGGA,225534.000,1206.2589,S,07701.1958,W,1,05,1.6,157.7,M,8.3,M,,0000*6E,1
1777416934387648962,$GPGSA,M,3,29,24,12,11,15,,,,,,,,2.7,1.6,2.1*35,1
1777416934552621232,$GPRMC,225534.000,A,1206.2589,S,07701.1958,W,1.07,150.04,280426,,,A*6D,1
1777416935275756986,$GPGGA,225535.000,1206.2588,S,07701.1957,W,1,05,1.6,158.7,M,8.3,M,,0000*6E,1
1777416935388092794,$GPGSA,M,3,29,24,12,11,15,,,,,,,,2.7,1.6,2.1*35,1
1777416935553031038,$GPRMC,225535.000,A,1206.2588,S,07701.1957,W,1.50,170.23,280426,,,A*67,1
1777416936276380034,$GPGGA,225536.000,1206.2586,S,07701.1959,W,1,05,1.6,158.9,M,8.3,M,,0000*63,1
1777416936388652439,$GPGSA,M,3,29,24,12,11,15,,,,,,,,2.7,1.6,2.1*35,1
1777416936553647567,$GPRMC,225536.000,A,1206.2586,S,07701.1959,W,1.53,179.11,280426,,,A*6F,1
1777416937276794308,$GPGGA,225537.000,1206.2585,S,07701.1957,W,1,05,1.6,159.9,M,8.3,M,,0000*6E,1
1777416937389073035,$GPGSA,M,3,29,24,12,11,15,,,,,,,,2.7,1.6,2.1*35,1
1777416937549495375,$GPGSV,3,1,12,29,64,270,31,24,60,063,21,12,31,154,20,11,22,120,15*74,1
1777416937700722038,$GPGSV,3,2,12,15,14,009,18,44,42,284,34,14,53,287,,09,38,261,*7C,1
1777416937842810897,$GPGSV,3,3,12,04,15,342,,20,03,330,,05,03,051,,10,00,307,*79,1
1777416938007814592,$GPRMC,225537.000,A,1206.2585,S,07701.1957,W,1.31,178.90,280426,,,A*6F,1
1777416938304495754,$GPGGA,225538.000,1206.2583,S,07701.1954,W,1,05,1.6,161.5,M,8.3,M,,0000*63,1
1777416938416777712,$GPGSA,M,3,29,24,12,11,15,,,,,,,,2.7,1.6,2.1*35,1
1777416938581763327,$GPRMC,225538.000,A,1206.2583,S,07701.1954,W,1.10,178.90,280426,,,A*66,1
1777416939276348370,$GPGGA,225539.000,1206.2579,S,07701.1953,W,1,05,1.6,162.1,M,8.3,M,,0000*67,1
1777416939388634854,$GPGSA,M,3,29,24,12,11,15,,,,,,,,2.7,1.6,2.1*35,1
1777416939553619184,$GPRMC,225539.000,A,1206.2579,S,07701.1953,W,1.07,178.90,280426,,,A*63,1
1777416940276749929,$GPGGA,225540.000,1206.2574,S,07701.1949,W,1,05,1.6,163.1,M,8.3,M,,0000*6E,1
1777416940389039254,$GPGSA,M,3,29,24,12,11,15,,,,,,,,2.7,1.6,2.1*35,1
1777416940554046913,$GPRMC,225540.000,A,1206.2574,S,07701.1949,W,0.45,178.90,280426,,,A*6C,1
1777416941276539816,$GPGGA,225541.000,1206.2567,S,07701.1948,W,1,05,1.6,164.1,M,8.3,M,,0000*6B,1
1777416941388819575,$GPGSA,M,3,29,24,12,11,15,,,,,,,,2.7,1.6,2.1*35,1
1777416941553819764,$GPRMC,225541.000,A,1206.2567,S,07701.1948,W,0.24,178.90,280426,,,A*69,1
1777416942275297166,$GPGGA,225542.000,1206.2561,S,07701.1946,W,1,04,1.8,165.1,M,8.3,M,,0000*6E,1
1777416942382971099,$GPGSA,M,3,29,24,12,15,,,,,,,,,2.8,1.8,2.2*37,1
1777416942543423416,$GPGSV,3,1,12,29,64,270,32,24,60,063,21,12,31,154,20,15,14,009,18*71,1
1777416942694643844,$GPGSV,3,2,12,11,22,120,15,44,42,284,34,14,53,287,,09,38,261,*7A,1
1777416942836722536,$GPGSV,3,3,12,04,15,342,,20,03,330,,05,03,051,,10,00,307,*79,1
1777416943001725868,$GPRMC,225542.000,A,1206.2561,S,07701.1946,W,0.92,178.90,280426,,,A*6F,1
1777416943299839789,$GPGGA,225543.000,1206.2558,S,07701.1943,W,1,04,1.8,166.0,M,8.3,M,,0000*62,1
1777416943407580327,$GPGSA,M,3,29,24,12,15,,,,,,,,,2.8,1.8,2.2*37,1
1777416943572608451,$GPRMC,225543.000,A,1206.2558,S,07701.1943,W,0.35,178.90,280426,,,A*6C,1
1777416944300745582,$GPGGA,225544.000,1206.2556,S,07701.1940,W,1,04,1.8,166.5,M,8.3,M,,0000*6D,1
1777416944408390089,$GPGSA,M,3,29,24,12,15,,,,,,,,,2.8,1.8,2.2*37,1
1777416944573376002,$GPRMC,225544.000,A,1206.2556,S,07701.1940,W,0.59,178.90,280426,,,A*6C,1
1777416945275063143,$GPGGA,225545.000,1206.2551,S,07701.1936,W,1,04,1.8,167.9,M,8.3,M,,0000*67,1
1777416945382742383,$GPGSA,M,3,29,24,12,15,,,,,,,,,2.8,1.8,2.2*37,1
1777416945547775830,$GPRMC,225545.000,A,1206.2551,S,07701.1936,W,0.43,178.90,280426,,,A*60,1
1777416946275659566,$GPGGA,225546.000,1206.2549,S,07701.1936,W,1,04,1.8,167.7,M,8.3,M,,0000*63,1
1777416946383361669,$GPGSA,M,3,29,24,12,15,,,,,,,,,2.8,1.8,2.2*37,1
1777416946548345553,$GPRMC,225546.000,A,1206.2549,S,07701.1936,W,0.41,178.90,280426,,,A*68,1
1777416947275649343,$GPGGA,225547.000,1206.2549,S,07701.1940,W,1,04,1.8,166.1,M,8.3,M,,0000*64,1
1777416947383349474,$GPGSA,M,3,29,24,12,15,,,,,,,,,2.8,1.8,2.2*37,1
1777416947543756916,$GPGSV,3,1,12,29,64,270,32,24,60,063,21,12,31,154,20,15,14,009,19*70,1
1777416947699599738,$GPGSV,3,2,12,05,03,051,10,11,22,120,16,44,42,284,34,14,53,287,*7D,1
1777416947841663562,$GPGSV,3,3,12,09,38,261,,04,15,342,,20,03,330,,10,00,307,*7C,1
1777416948006669201,$GPRMC,225547.000,A,1206.2549,S,07701.1940,W,0.26,178.90,280426,,,A*69,1
1777416948276667216,$GPGGA,225548.000,1206.2550,S,07701.1940,W,1,04,1.8,166.1,M,8.3,M,,0000*63,1
1777416948384369800,$GPGSA,M,3,29,24,12,15,,,,,,,,,2.8,1.8,2.2*37,1
1777416948549383454,$GPRMC,225548.000,A,1206.2550,S,07701.1940,W,0.41,178.90,280426,,,A*6F,1
1777416949275837031,$GPGGA,225549.000,1206.2553,S,07701.1935,W,1,04,1.8,166.4,M,8.3,M,,0000*66,1
1777416949383560497,$GPGSA,M,3,29,24,12,15,,,,,,,,,2.8,1.8,2.2*37,1
1777416949548521033,$GPRMC,225549.000,A,1206.2553,S,07701.1935,W,1.08,178.90,280426,,,A*63,1
1777416950276450312,$GPGGA,225550.000,1206.2556,S,07701.1932,W,1,04,1.8,166.4,M,8.3,M,,0000*6C,1
1777416950384151435,$GPGSA,M,3,29,24,12,15,,,,,,,,,2.8,1.8,2.2*37,1
1777416950549138301,$GPRMC,225550.000,A,1206.2556,S,07701.1932,W,0.60,178.90,280426,,,A*66,1
1777416951302054647,$GPGGA,225551.000,1206.2562,S,07701.1933,W,1,04,1.8,165.7,M,8.3,M,,0000*6B,1
1777416951409747335,$GPGSA,M,3,29,24,12,15,,,,,,,,,2.8,1.8,2.2*37,1
1777416951574760679,$GPRMC,225551.000,A,1206.2562,S,07701.1933,W,0.78,178.90,280426,,,A*68,1
1777416952276406725,$GPGGA,225552.000,1206.2566,S,07701.1933,W,1,04,1.8,165.4,M,8.3,M,,0000*6F,1
1777416952384128925,$GPGSA,M,3,29,24,12,15,,,,,,,,,2.8,1.8,2.2*37,1
1777416952544542166,$GPGSV,3,1,12,29,64,270,33,24,60,063,22,12,31,154,21,15,14,009,20*79,1
1777416952700364643,$GPGSV,3,2,12,05,03,051,11,11,22,120,16,44,42,284,34,14,53,287,*7C,1
1777416952842446475,$GPGSV,3,3,12,09,38,261,,04,15,342,,20,03,330,,10,00,307,*7C,1
1777416953007459425,$GPRMC,225552.000,A,1206.2566,S,07701.1933,W,0.22,178.90,280426,,,A*60,1
1777416953276402197,$GPGGA,225553.000,1206.2566,S,07701.1934,W,1,04,1.8,165.4,M,8.3,M,,0000*69,1
1777416953384103721,$GPGSA,M,3,29,24,12,15,,,,,,,,,2.8,1.8,2.2*37,1
1777416953549101390,$GPRMC,225553.000,A,1206.2566,S,07701.1934,W,0.67,178.90,280426,,,A*67,1
1777416954276408477,$GPGGA,225554.000,1206.2567,S,07701.1933,W,1,04,1.8,166.4,M,8.3,M,,0000*6B,1
1777416954384094956,$GPGSA,M,3,29,24,12,15,,,,,,,,,2.8,1.8,2.2*37,1
1777416954549097455,$GPRMC,225554.000,A,1206.2567,S,07701.1933,W,0.58,178.90,280426,,,A*6A,1
1777416955275966904,$GPGGA,225555.000,1206.2568,S,07701.1933,W,1,04,1.8,166.6,M,8.3,M,,0000*67,0
1777416955383664078,$GPGSA,M,3,29,24,12,15,,,,,,,,,2.8,1.8,2.2*37,0
1777416955548671944,$GPRMC,225555.000,A,1206.2568,S,07701.1933,W,0.40,178.90,280426,,,A*6D,0
1777416956274929176,$GPGGA,225556.000,1206.2570,S,07701.1933,W,1,04,1.8,167.3,M,8.3,M,,0000*69,0
1777416956382608638,$GPGSA,M,3,29,24,12,15,,,,,,,,,2.8,1.8,2.2*37,0
1777416956547602852,$GPRMC,225556.000,A,1206.2570,S,07701.1933,W,0.19,178.90,280426,,,A*6B,0
1777416957275332380,$GPGGA,225557.000,1206.2570,S,07701.1931,W,1,04,1.8,168.2,M,8.3,M,,0000*64,0
1777416957383014742,$GPGSA,M,3,29,24,12,15,,,,,,,,,2.8,1.8,2.2*37,0
1777416957543425563,$GPGSV,3,1,12,29,64,270,38,24,60,063,28,12,31,154,21,15,14,009,20*78,0
1777416957694684442,$GPGSV,3,2,12,05,03,051,09,11,22,120,11,48,33,280,,14,53,287,*7B,0
1777416957836758320,$GPGSV,3,3,12,09,38,261,,04,15,342,,20,03,330,,10,00,307,*7C,0
1777416958001743586,$GPRMC,225557.000,A,1206.2570,S,07701.1931,W,0.53,178.90,280426,,,A*66,0
1777416958274290921,$GPGGA,225558.000,1206.2573,S,07701.1932,W,1,04,1.8,167.9,M,8.3,M,,0000*6F,0
1777416958381950497,$GPGSA,M,3,29,24,12,15,,,,,,,,,2.8,1.8,2.2*37,0
1777416958546958464,$GPRMC,225558.000,A,1206.2573,S,07701.1932,W,0.29,178.90,280426,,,A*64,0
1777416959275923713,$GPGGA,225559.000,1206.2576,S,07701.1934,W,1,04,1.8,168.2,M,8.3,M,,0000*69,0
1777416959383617394,$GPGSA,M,3,29,24,12,15,,,,,,,,,2.8,1.8,2.2*37,0
1777416959548604598,$GPRMC,225559.000,A,1206.2576,S,07701.1934,W,1.22,214.78,280426,,,A*63,0
1777416960277360628,$GPGGA,225600.000,1206.2579,S,07701.1942,W,1,04,1.8,168.1,M,8.3,M,,0000*6B,0
1777416960385061060,$GPGSA,M,3,29,24,12,15,,,,,,,,,2.8,1.8,2.2*37,0
1777416960550068095,$GPRMC,225600.000,A,1206.2579,S,07701.1942,W,1.83,245.06,280426,,,A*64,0
1777416961276521599,$GPGGA,225601.000,1206.2580,S,07701.1947,W,1,04,1.8,168.2,M,8.3,M,,0000*6A,0
1777416961384204579,$GPGSA,M,3,29,24,12,15,,,,,,,,,2.8,1.8,2.2*37,0
1777416961549203352,$GPRMC,225601.000,A,1206.2580,S,07701.1947,W,0.62,245.06,280426,,,A*68,0
1777416962300884910,$GPGGA,225602.000,1206.2584,S,07701.1953,W,1,04,1.8,167.4,M,8.3,M,,0000*61,0
1777416962408565142,$GPGSA,M,3,29,24,12,15,,,,,,,,,2.8,1.8,2.2*37,0
1777416962569057069,$GPGSV,3,1,12,29,64,270,43,24,60,063,29,12,31,154,29,15,14,009,19*77,0
1777416962724825330,$GPGSV,3,2,12,05,03,051,17,11,22,120,15,48,33,280,31,14,53,287,*72,0
1777416962866887296,$GPGSV,3,3,12,09,38,261,,04,15,342,,20,03,330,,10,00,307,*7C,0
1777416963031900042,$GPRMC,225602.000,A,1206.2584,S,07701.1953,W,0.83,245.06,280426,,,A*65,0
1777416963277308121,$GPGGA,225603.000,1206.2593,S,07701.1955,W,1,05,1.6,166.0,M,8.3,M,,0000*6A,0
1777416963389580635,$GPGSA,M,3,29,24,12,11,15,,,,,,,,2.7,1.6,2.1*35,0
1777416963554608700,$GPRMC,225603.000,A,1206.2593,S,07701.1955,W,1.20,262.94,280426,,,A*62,0
1777416964302502282,$GPGGA,225604.000,1206.2602,S,07701.1962,W,1,05,1.6,164.5,M,8.3,M,,0000*65,0
1777416964414780529,$GPGSA,M,3,29,24,12,11,15,,,,,,,,2.7,1.6,2.1*35,0
1777416964579791999,$GPRMC,225604.000,A,1206.2602,S,07701.1962,W,1.71,251.05,280426,,,A*66,0
1777416965276456175,$GPGGA,225605.000,1206.2604,S,07701.1965,W,1,05,1.6,164.1,M,8.3,M,,0000*61,0
1777416965388723284,$GPGSA,M,3,29,24,12,11,15,,,,,,,,2.7,1.6,2.1*35,0
1777416965553727308,$GPRMC,225605.000,A,1206.2604,S,07701.1965,W,0.46,251.05,280426,,,A*63,0
1777416966275807183,$GPGGA,225606.000,1206.2606,S,07701.1962,W,1,04,1.8,164.2,M,8.3,M,,0000*6B,0
1777416966383501424,$GPGSA,M,3,29,24,12,15,,,,,,,,,2.8,1.8,2.2*37,0
1777416966548519668,$GPRMC,225606.000,A,1206.2606,S,07701.1962,W,0.59,251.05,280426,,,A*6B,0
1777416967277448782,$GPGGA,225607.000,1206.2604,S,07701.1960,W,1,05,1.6,164.5,M,8.3,M,,0000*62,0
1777416967389743191,$GPGSA,M,3,29,24,12,11,15,,,,,,,,2.7,1.6,2.1*35,0
1777416967550140851,$GPGSV,3,1,12,29,64,270,42,24,60,063,28,12,31,154,28,11,22,120,18*7C,0
1777416967701398109,$GPGSV,3,2,12,15,14,009,17,48,33,280,26,14,53,287,,09,38,261,*7E,0
1777416967843490241,$GPGSV,3,3,12,04,15,342,,20,03,330,,05,03,051,,10,00,307,*79,0
1777416968008483870,$GPRMC,225607.000,A,1206.2604,S,07701.1960,W,1.48,271.28,280426,,,A*66,0
1777416968277846221,$GPGGA,225608.000,1206.2601,S,07701.1962,W,1,05,1.6,164.5,M,8.3,M,,0000*6A,0
1777416968390145381,$GPGSA,M,3,29,24,12,11,15,,,,,,,,2.7,1.6,2.1*35,0
1777416968555129788,$GPRMC,225608.000,A,1206.2601,S,07701.1962,W,1.22,276.77,280426,,,A*6F,0
1777416969277842192,$GPGGA,225609.000,1206.2596,S,07701.1961,W,1,05,1.6,164.3,M,8.3,M,,0000*63,0
1777416969390117307,$GPGSA,M,3,29,24,12,11,15,,,,,,,,2.7,1.6,2.1*35,0
1777416969555124676,$GPRMC,225609.000,A,1206.2596,S,07701.1961,W,1.34,282.36,280426,,,A*69,0
1777416969600960653,$PSRF156,23,1,0*09,0
1777416970277618295,$GPGGA,225610.000,1206.2591,S,07701.1960,W,1,05,1.6,163.9,M,8.3,M,,0000*60,0
1777416970389896384,$GPGSA,M,3,29,24,12,11,15,,,,,,,,2.7,1.6,2.1*35,0
1777416970554907252,$GPRMC,225610.000,A,1206.2591,S,07701.1960,W,1.43,294.85,280426,,,A*68,0
1777416971305522832,$GPGGA,225611.000,1206.2588,S,07701.1958,W,1,05,1.6,164.1,M,8.3,M,,0000*6D,0
1777416971417792061,$GPGSA,M,3,29,24,12,11,15,,,,,,,,2.7,1.6,2.1*35,0
1777416971582802020,$GPRMC,225611.000,A,1206.2588,S,07701.1958,W,0.55,294.85,280426,,,A*6C,0
1777416972279040230,$GPGGA,225612.000,1206.2585,S,07701.1958,W,1,05,1.6,163.8,M,8.3,M,,0000*6D,0
1777416972391317841,$GPGSA,M,3,29,24,12,11,15,,,,,,,,2.7,1.6,2.1*35,0
1777416972551732167,$GPGSV,3,1,12,29,64,270,29,24,60,063,26,12,31,154,28,11,22,120,17*70,0
1777416972702988675,$GPGSV,3,2,12,15,14,009,16,48,33,280,21,14,53,287,,09,38,261,*78,0
1777416972845074105,$GPGSV,3,3,12,04,15,342,,20,03,330,,05,03,051,,10,00,307,*79,0
1777416973010077025,$GPRMC,225612.000,A,1206.2585,S,07701.1958,W,0.41,294.85,280426,,,A*67,0
1777416973278381700,$GPGGA,225613.000,1206.2583,S,07701.1958,W,1,05,1.6,163.5,M,8.3,M,,0000*67,0
1777416973390681675,$GPGSA,M,3,29,24,12,11,15,,,,,,,,2.7,1.6,2.1*35,0
1777416973555665891,$GPRMC,225613.000,A,1206.2583,S,07701.1958,W,0.31,294.85,280426,,,A*67,0
1777416974278392201,$GPGGA,225614.000,1206.2582,S,07701.1961,W,1,05,1.6,163.1,M,8.3,M,,0000*6F,0
1777416974390650260,$GPGSA,M,3,29,24,12,11,15,,,,,,,,2.7,1.6,2.1*35,0
1777416974555670736,$GPRMC,225614.000,A,1206.2582,S,07701.1961,W,0.66,294.85,280426,,,A*69,0
1777416975278571627,$GPGGA,225615.000,1206.2578,S,07701.1962,W,1,05,1.6,162.5,M,8.3,M,,0000*6D,0
1777416975390845347,$GPGSA,M,3,29,24,12,11,15,,,,,,,,2.7,1.6,2.1*35,0
1777416975555863969,$GPRMC,225615.000,A,1206.2578,S,07701.1962,W,0.96,294.85,280426,,,A*61,0
1777416976278557543,$GPGGA,225616.000,1206.2568,S,07701.1962,W,1,05,1.6,162.0,M,8.3,M,,0000*6A,0
1777416976390824737,$GPGSA,M,3,29,24,12,11,15,,,,,,,,2.7,1.6,2.1*35,0
1777416976555823822,$GPRMC,225616.000,A,1206.2568,S,07701.1962,W,1.31,300.96,280426,,,A*61,0
1777416977278742034,$GPGGA,225617.000,1206.2557,S,07701.1963,W,1,05,1.6,161.6,M,8.3,M,,0000*63,0
1777416977391035240,$GPGSA,M,3,29,24,12,11,15,,,,,,,,2.7,1.6,2.1*35,0
1777416977551455328,$GPGSV,3,1,12,29,64,270,30,24,60,063,25,12,31,154,28,11,22,120,16*7A,0
1777416977702753961,$GPGSV,3,2,12,15,14,009,15,48,33,280,28,14,53,287,,09,38,261,*72,0
1777416977844792246,$GPGSV,3,3,12,04,15,342,,20,03,330,,05,03,051,,10,00,307,*79,0
1777416978009799645,$GPRMC,225617.000,A,1206.2557,S,07701.1963,W,0.81,300.96,280426,,,A*67,0
1777416978278305651,$GPGGA,225618.000,1206.2550,S,07701.1960,W,1,05,1.6,161.1,M,8.3,M,,0000*6F,0
1777416978390601295,$GPGSA,M,3,29,24,12,11,15,,,,,,,,2.7,1.6,2.1*35,0
1777416978555605176,$GPRMC,225618.000,A,1206.2550,S,07701.1960,W,0.12,300.96,280426,,,A*66,0
1777416979277672631,$GPGGA,225619.000,1206.2546,S,07701.1953,W,1,05,1.6,160.2,M,8.3,M,,0000*6B,0
1777416979389947027,$GPGSA,M,3,29,24,12,11,15,,,,,,,,2.7,1.6,2.1*35,0
1777416979554948779,$GPRMC,225619.000,A,1206.2546,S,07701.1953,W,0.97,300.96,280426,,,A*6D,0
1777416980277892466,$GPGGA,225620.000,1206.2542,S,07701.1949,W,1,05,1.6,159.2,M,8.3,M,,0000*64,0
1777416980390130503,$GPGSA,M,3,29,24,12,11,15,,,,,,,,2.7,1.6,2.1*35,0
1777416980555140847,$GPRMC,225620.000,A,1206.2542,S,07701.1949,W,1.67,315.11,280426,,,A*6D,0
1777416981305411029,$GPGGA,225621.000,1206.2536,S,07701.1947,W,1,05,1.6,158.4,M,8.3,M,,0000*6F,0
1777416981417646022,$GPGSA,M,3,29,24,12,11,15,,,,,,,,2.7,1.6,2.1*35,0
1777416981582615143,$GPRMC,225621.000,A,1206.2536,S,07701.1947,W,1.04,315.11,280426,,,A*64,0
1777416982277191755,$GPGGA,225622.000,1206.2530,S,07701.1943,W,1,05,1.6,157.9,M,8.3,M,,0000*6C,0
1777416982389468798,$GPGSA,M,3,29,24,12,11,15,,,,,,,,2.7,1.6,2.1*35,0
1777416982549890503,$GPGSV,3,1,12,29,64,270,40,24,60,063,32,12,31,154,27,11,22,120,17*75,0
1777416982701133225,$GPGSV,3,2,12,15,14,009,15,48,33,280,34,14,53,287,,09,38,261,*7F,0
1777416982843225946,$GPGSV,3,3,12,04,15,342,,20,03,330,,05,03,051,,10,00,307,*79,0
1777416983008219197,$GPRMC,225622.000,A,1206.2530,S,07701.1943,W,1.20,331.24,280426,,,A*63,0
1777416983277593502,$GPGGA,225623.000,1206.2523,S,07701.1935,W,1,05,1.6,157.7,M,8.3,M,,0000*60,0
1777416983389879132,$GPGSA,M,3,29,24,12,11,15,,,,,,,,2.7,1.6,2.1*35,0
1777416983554881144,$GPRMC,225623.000,A,1206.2523,S,07701.1935,W,0.29,331.24,280426,,,A*69,0
1777416984278209683,$GPGGA,225624.000,1206.2520,S,07701.1936,W,1,05,1.6,157.1,M,8.3,M,,0000*61,0
1777416984390477343,$GPGSA,M,3,29,24,12,11,15,,,,,,,,2.7,1.6,2.1*35,0
1777416984555473801,$GPRMC,225624.000,A,1206.2520,S,07701.1936,W,0.20,331.24,280426,,,A*67,0
1777416985277571501,$GPGGA,225625.000,1206.2520,S,07701.1936,W,1,05,1.6,157.2,M,8.3,M,,0000*63,0
1777416985389844840,$GPGSA,M,3,29,24,12,11,15,,,,,,,,2.7,1.6,2.1*35,1
1777416985554827946,$GPRMC,225625.000,A,1206.2520,S,07701.1936,W,0.00,331.24,280426,,,A*64,1
1777416986274408646,$GPGGA,225626.000,1206.2514,S,07701.1938,W,1,05,1.6,156.8,M,8.3,M,,0000*62,1
1777416986386687035,$GPGSA,M,3,29,24,12,11,15,,,,,,,,2.7,1.6,2.1*35,1
1777416986551681327,$GPRMC,225626.000,A,1206.2514,S,07701.1938,W,0.17,331.24,280426,,,A*68,1
1777416987277308099,$GPGGA,225627.000,1206.2508,S,07701.1939,W,1,05,1.6,156.4,M,8.3,M,,0000*63,1
1777416987389586537,$GPGSA,M,3,29,24,12,11,15,,,,,,,,2.7,1.6,2.1*35,1
1777416987549987715,$GPGSV,3,1,12,29,64,270,43,24,60,063,35,12,31,154,39,11,22,120,26*7C,1
1777416987701244438,$GPGSV,3,2,12,15,14,009,17,46,29,279,37,14,53,287,,09,38,261,*7D,1
