Unix_time,GPS_data,flagStop
1777416713376475012,$GPGSA,M,3,29,24,12,11,15,,,,,,,,2.7,1.6,2.1*35,0
1777416742977743040,$GPRMC,225153.000,A,1206.2488,S,07701.1983,W,0.08,341.82,280426,,,A*6C,0
1777416742978401326,$GPGGA,225154.000,1206.2488,S,07701.1983,W,1,05,1.6,158.9,M,8.3,M,,0000*6B,0
1777416742979140905,$GPGSA,M,3,29,24,12,11,15,,,,,,,,2.7,1.6,2.1*35,0
1777416742979623532,$GPRMC,225154.000,A,1206.2488,S,07701.1983,W,0.00,341.82,280426,,,A*63,0
1777416742980192211,$GPGGA,225155.000,1206.2488,S,07701.1983,W,1,05,1.6,158.9,M,8.3,M,,0000*6A,0
1777416742980911920,$GPGSA,M,3,29,24,12,11,15,,,,,,,,2.7,1.6,2.1*35,0
1777416742981376455,$GPRMC,225155.000,A,1206.2488,S,07701.1983,W,0.00,341.82,280426,,,A*62,0
1777416742982058333,$GPGGA,225156.000,1206.2487,S,07701.1980,W,1,05,1.6,158.7,M,8.3,M,,0000*6B,0
1777416742982775709,$GPGSA,M,3,29,24,12,11,15,,,,,,,,2.7,1.6,2.1*35,0
1777416742983238911,$GPRMC,225156.000,A,1206.2487,S,07701.1980,W,0.15,341.82,280426,,,A*69,0
1777416742983934676,$GPGGA,225157.000,1206.2486,S,07701.1979,W,1,05,1.6,158.4,M,8.3,M,,0000*6E,0
1777416742984614295,$GPGSA,M,3,29,24,12,11,15,,,,,,,,2.7,1.6,2.1*35,0
1777416742985077941,$GPGSV,3,1,12,29,63,277,43,24,61,069,43,12,32,157,41,11,23,117,25*7F,0
1777416742985738912,$GPGSV,3,2,12,15,16,008,27,44,42,284,44,14,54,282,,09,37,257,*7C,0
1777416742986362718,$GPGSV,3,3,12,04,13,341,,20,03,328,,05,02,049,,10,00,305,*7F,0
1777416742986896473,$GPRMC,225157.000,A,1206.2486,S,07701.1979,W,0.13,341.82,280426,,,A*69,0
1777416742987583628,$GPGGA,225158.000,1206.2485,S,07701.1978,W,1,05,1.6,158.1,M,8.3,M,,0000*66,0
1777416742987895855,$GPGSA,M,3,29,24,12,11,15,,,,,,,,2.7,1.6,2.1*35,0
1777416742987988036,$GPRMC,225158.000,A,1206.2485,S,07701.1978,W,0.23,341.82,280426,,,A*67,0
1777416742988122808,$GPGGA,225159.000,1206.2485,S,07701.1977,W,1,05,1.6,157.8,M,8.3,M,,0000*6E,0
1777416742988265061,$GPGSA,M,3,29,24,12,11,15,,,,,,,,2.7,1.6,2.1*35,0
1777416742988357039,$GPRMC,225159.000,A,1206.2485,S,07701.1977,W,0.22,341.82,280426,,,A*68,0
1777416742988490736,$GPGGA,225200.000,1206.2483,S,07701.1977,W,1,05,1.6,157.2,M,8.3,M,,0000*6D,0
1777416742988631934,$GPGSA,M,3,29,24,12,11,15,,,,,,,,2.7,1.6,2.1*35,0
1777416742988723263,$GPRMC,225200.000,A,1206.2483,S,07701.1977,W,0.13,341.82,280426,,,A*63,0
1777416742988857072,$GPGGA,225201.000,1206.2483,S,07701.1977,W,1,05,1.6,157.1,M,8.3,M,,0000*6F,0
1777416742988998511,$GPGSA,M,3,29,24,12,11,15,,,,,,,,2.7,1.6,2.1*35,0
1777416742989090432,$GPRMC,225201.000,A,1206.2483,S,07701.1977,W,0.10,341.82,280426,,,A*61,0
1777416742989225075,$GPGGA,225202.000,1206.2483,S,07701.1976,W,1,05,1.6,156.9,M,8.3,M,,0000*64,0
1777416742989367439,$GPGSA,M,3,29,24,12,11,15,,,,,,,,2.7,1.6,2.1*35,0
1777416742989459435,$GPGSV,3,1,12,29,63,277,43,24,61,069,44,12,32,157,43,11,23,117,25*7A,0
1777416742989590688,$GPGSV,3,2,12,15,16,008,26,44,42,284,44,14,54,282,,09,37,257,*7D,0
1777416742989714350,$GPGSV,3,3,12,04,13,341,,20,03,328,,05,02,049,,10,00,305,*7F,0
1777416742989830789,$GPRMC,225202.000,A,1206.2483,S,07701.1976,W,0.21,341.82,280426,,,A*61,0
1777416742989965839,$GPGGA,225203.000,1206.2482,S,07701.1976,W,1,05,1.6,156.5,M,8.3,M,,0000*68,0
1777416742990108332,$GPGSA,M,3,29,24,12,11,15,,,,,,,,2.7,1.6,2.1*35,0
1777416742990200328,$GPRMC,225203.000,A,1206.2482,S,07701.1976,W,0.21,341.82,280426,,,A*61,0
1777416742990335526,$GPGGA,225204.000,1206.2482,S,07701.1976,W,1,05,1.6,156.4,M,8.3,M,,0000*6E,0
1777416742990478057,$GPGSA,M,3,29,24,12,11,15,,,,,,,,2.7,1.6,2.1*35,0
1777416742990570275,$GPRMC,225204.000,A,1206.2482,S,07701.1976,W,0.12,341.82,280426,,,A*66,0
1777416742990705325,$GPGGA,225205.000,1206.2482,S,07701.1976,W,1,05,1.6,156.2,M,8.3,M,,0000*69,0
1777416742990848244,$GPGSA,M,3,29,24,12,11,15,,,,,,,,2.7,1.6,2.1*35,0
1777416742990940629,$GPRMC,225205.000,A,1206.2482,S,07701.1976,W,0.23,341.82,280426,,,A*65,0
1777416742991075716,$GPGGA,225206.000,1206.2482,S,07701.1976,W,1,05,1.6,156.1,M,8.3,M,,0000*69,0
1777416742991218302,$GPGSA,M,3,29,24,12,11,15,,,,,,,,2.7,1.6,2.1*35,0
1777416742992029489,$GPRMC,225206.000,A,1206.2482,S,07701.1976,W,0.14,341.82,280426,,,A*62,0
1777416742992163076,$GPGGA,225207.000,1206.2481,S,07701.1975,W,1,05,1.6,155.9,M,8.3,M,,0000*63,0
1777416742992469914,$GPGSA,M,3,29,24,12,11,15,,,,,,,,2.7,1.6,2.1*35,0
1777416742992562706,$GPGSV,3,1,12,29,63,277,43,24,61,069,44,12,32,157,43,11,23,117,25*7A,0
1777416742992693738,$GPGSV,3,2,12,15,16,008,26,44,42,284,44,14,54,282,,09,37,257,*7D,0
1777416742992817547,$GPGSV,3,3,12,04,13,341,,20,03,328,,05,02,049,,10,00,305,*7F,0
1777416742992934153,$GPRMC,225207.000,A,1206.2481,S,07701.1975,W,0.14,341.82,280426,,,A*63,0
1777416742993069555,$GPGGA,225208.000,1206.2481,S,07701.1975,W,1,05,1.6,155.4,M,8.3,M,,0000*61,0
1777416742993212919,$GPGSA,M,3,29,24,12,11,15,,,,,,,,2.7,1.6,2.1*35,0
1777416742993305989,$GPRMC,225208.000,A,1206.2481,S,07701.1975,W,0.27,341.82,280426,,,A*6C,0
1777416742993441779,$GPGGA,225209.000,1206.2480,S,07701.1975,W,1,05,1.6,155.2,M,8.3,M,,0000*67,0
1777416742993585180,$GPGSA,M,3,29,24,12,11,15,,,,,,,,2.7,1.6,2.1*35,0
1777416742993677843,$GPRMC,225209.000,A,1206.2480,S,07701.1975,W,0.24,341.82,280426,,,A*6F,0
1777416742993813985,$GPGGA,225210.000,1206.2479,S,07701.1974,W,1,05,1.6,155.0,M,8.3,M,,0000*6A,0
1777416742993957460,$GPGSA,M,3,29,24,12,11,15,,,,,,,,2.7,1.6,2.1*35,0
1777416742994050104,$GPRMC,225210.000,A,1206.2479,S,07701.1974,W,0.50,341.82,280426,,,A*63,0
1777416742994184913,$GPGGA,225211.000,1206.2478,S,07701.1974,W,1,05,1.6,154.8,M,8.3,M,,0000*63,0
1777416742994327203,$GPGSA,M,3,29,24,12,11,15,,,,,,,,2.7,1.6,2.1*35,0
1777416742994419051,$GPRMC,225211.000,A,1206.2478,S,07701.1974,W,0.08,341.82,280426,,,A*6E,0
1777416742994553823,$GPGGA,225212.000,1206.2478,S,07701.1974,W,1,05,1.6,154.8,M,8.3,M,,0000*60,0
1777416742994696095,$GPGSA,M,3,29,24,12,11,15,,,,,,,,2.7,1.6,2.1*35,0
1777416742994788220,$GPGSV,3,1,12,29,63,277,43,24,61,069,41,12,32,157,36,11,23,117,20*78,0
1777416742994919344,$GPGSV,3,2,12,15,16,008,20,05,02,049,,44,42,284,43,14,54,282,*7B,0
1777416742995043394,$GPGSV,3,3,12,09,37,257,,04,13,341,,20,03,328,,10,00,305,*78,0
1777416742995160167,$GPRMC,225212.000,A,1206.2478,S,07701.1974,W,0.17,341.82,280426,,,A*63,0
1777416742995306475,$GPGGA,225213.000,1206.2477,S,07701.1974,W,1,05,1.6,154.7,M,8.3,M,,0000*61,0
1777416742995450525,$GPGSA,M,3,29,24,12,11,15,,,,,,,,2.7,1.6,2.1*35,0
1777416742995543687,$GPRMC,225213.000,A,1206.2477,S,07701.1974,W,0.24,341.82,280426,,,A*6D,0
1777416742995680422,$GPGGA,225214.000,1206.2477,S,07701.1973,W,1,05,1.6,154.7,M,8.3,M,,0000*61,0
1777416742995824601,$GPGSA,M,3,29,24,12,11,15,,,,,,,,2.7,1.6,2.1*35,0
1777416742995917800,$GPRMC,225214.000,A,1206.2477,S,07701.1973,W,0.19,341.82,280426,,,A*63,0
1777416742996054239,$GPGGA,225215.000,1206.2477,S,07701.1973,W,1,05,1.6,154.7,M,8.3,M,,0000*60,0
1777416742996197807,$GPGSA,M,3,29,24,12,11,15,,,,,,,,2.7,1.6,2.1*35,0
1777416742996291192,$GPRMC,225215.000,A,1206.2477,S,07701.1973,W,0.19,341.82,280426,,,A*62,0
1777416742996426945,$GPGGA,225216.000,1206.2476,S,07701.1973,W,1,04,3.6,154.7,M,8.3,M,,0000*61,0
1777416742996569235,$GPGSA,M,3,29,24,12,11,,,,,,,,,7.8,3.6,6.9*35,0
1777416742996657564,$GPRMC,225216.000,A,1206.2476,S,07701.1973,W,0.19,341.82,280426,,,A*60,0
1777416742996792392,$GPGGA,225217.000,1206.2476,S,07701.1973,W,1,05,1.6,154.7,M,8.3,M,,0000*63,0
1777416742996934774,$GPGSA,M,3,29,24,12,11,15,,,,,,,,2.7,1.6,2.1*35,0
1777416742997026493,$GPGSV,3,1,12,29,63,277,41,24,61,069,40,12,32,157,34,11,23,117,22*7B,0
1777416742997158042,$GPGSV,3,2,12,15,16,008,11,44,42,284,43,14,54,282,,09,37,257,*7E,0
1777416742997282167,$GPGSV,3,3,12,04,13,341,,20,03,328,,05,02,049,,10,00,305,*7F,0
1777416742997398828,$GPRMC,225217.000,A,1206.2476,S,07701.1973,W,0.14,341.82,280426,,,A*6C,0
1777416742997534174,$GPGGA,225218.000,1206.2476,S,07701.1972,W,1,05,1.6,154.8,M,8.3,M,,0000*62,0
1777416742997677075,$GPGSA,M,3,29,24,12,11,15,,,,,,,,2.7,1.6,2.1*35,0
1777416742997769423,$GPRMC,225218.000,A,1206.2476,S,07701.1972,W,0.16,341.82,280426,,,A*60,0
1777416742997904843,$GPGGA,225219.000,1206.2476,S,07701.1972,W,1,05,1.6,154.9,M,8.3,M,,0000*62,0
1777416742998047726,$GPGSA,M,3,29,24,12,11,15,,,,,,,,2.7,1.6,2.1*35,0
1777416742998139981,$GPRMC,225219.000,A,1206.2476,S,07701.1972,W,0.13,341.82,280426,,,A*64,0
1777416742998293345,$GPGGA,225220.000,1206.2476,S,07701.1972,W,1,05,1.6,155.0,M,8.3,M,,0000*60,0
1777416742998435987,$GPGSA,M,3,29,24,12,11,15,,,,,,,,2.7,1.6,2.1*35,0
1777416742998527464,$GPRMC,225220.000,A,1206.2476,S,07701.1972,W,0.22,341.82,280426,,,A*6C,0
1777416742998661273,$GPGGA,225221.000,1206.2476,S,07701.1971,W,1,05,1.6,155.2,M,8.3,M,,0000*60,0
1777416742998804045,$GPGSA,M,3,29,24,12,11,15,,,,,,,,2.7,1.6,2.1*35,0
1777416742998896411,$GPRMC,225221.000,A,1206.2476,S,07701.1971,W,0.10,341.82,280426,,,A*6F,0
1777416742999031720,$GPGGA,225222.000,1206.2476,S,07701.1971,W,1,05,1.6,155.4,M,8.3,M,,0000*65,0
1777416742999174510,$GPGSA,M,3,29,24,12,11,15,,,,,,,,2.7,1.6,2.1*35,0
1777416742999274561,$GPGSV,3,1,12,29,64,274,41,24,60,066,40,12,32,155,34,11,23,119,23*7C,0
1777416742999404852,$GPGSV,3,2,12,15,15,009,19,44,42,284,44,14,53,285,,09,38,259,*72,0
1777416742999528309,$GPGSV,3,3,12,04,14,342,,20,03,329,,05,02,050,,10,00,306,*71,0
1777416742999647841,$GPRMC,225222.000,A,1206.2476,S,07701.1971,W,0.05,341.82,280426,,,A*68,0
1777416743268123369,$GPGGA,225223.000,1206.2476,S,07701.1971,W,1,05,1.6,155.5,M,8.3,M,,0000*65,0
1777416743380385826,$GPGSA,M,3,29,24,12,11,15,,,,,,,,2.7,1.6,2.1*35,0
1777416743545416993,$GPRMC,225223.000,A,1206.2476,S,07701.1971,W,0.17,341.82,280426,,,A*6A,0
1777416744267698358,$GPGGA,225224.000,1206.2476,S,07701.1970,W,1,05,1.6,155.6,M,8.3,M,,0000*60,0
1777416744379890002,$GPGSA,M,3,29,24,12,11,15,,,,,,,,2.7,1.6,2.1*35,0
1777416744544911221,$GPRMC,225224.000,A,1206.2476,S,07701.1970,W,0.22,341.82,280426,,,A*6A,0
1777416745268981049,$GPGGA,225225.000,1206.2476,S,07701.1970,W,1,05,1.6,155.6,M,8.3,M,,0000*61,0
1777416745381298481,$GPGSA,M,3,29,24,12,11,15,,,,,,,,2.7,1.6,2.1*35,0
1777416745546256421,$GPRMC,225225.000,A,1206.2476,S,07701.1970,W,0.01,341.82,280426,,,A*6A,0
1777416746267642112,$GPGGA,225226.000,1206.2476,S,07701.1970,W,1,05,1.6,155.4,M,8.3,M,,0000*60,0
1777416746379918228,$GPGSA,M,3,29,24,12,11,15,,,,,,,,2.7,1.6,2.1*35,0
1777416746544924812,$GPRMC,225226.000,A,1206.2476,S,07701.1970,W,0.14,341.82,280426,,,A*6D,0
1777416747266316432,$GPGGA,225227.000,1206.2475,S,07701.1970,W,1,05,1.6,155.3,M,8.3,M,,0000*65,0
1777416747378568121,$GPGSA,M,3,29,24,12,11,15,,,,,,,,2.7,1.6,2.1*35,0
1777416747539036845,$GPGSV,3,1,12,29,64,274,47,24,60,066,40,12,32,155,34,11,23,119,22*7B,0
1777416747690226512,$GPGSV,3,2,12,15,15,009,25,44,42,284,42,14,53,285,,09,38,259,*7B,0
1777416747832306468,$GPGSV,3,3,12,04,14,342,,20,03,329,,05,02,050,,10,00,306,*71,0
1777416747997267920,$GPRMC,225227.000,A,1206.2475,S,07701.1970,W,0.15,341.82,280426,,,A*6E,0
1777416748266646215,$GPGGA,225228.000,1206.2475,S,07701.1970,W,1,05,1.6,155.3,M,8.3,M,,0000*6A,0
1777416748378906939,$GPGSA,M,3,29,24,12,11,15,,,,,,,,2.7,1.6,2.1*35,0
1777416748543918534,$GPRMC,225228.000,A,1206.2475,S,07701.1970,W,0.13,341.82,280426,,,A*67,0
1777416749293692991,$GPGGA,225229.000,1206.2475,S,07701.1970,W,1,05,1.6,155.4,M,8.3,M,,0000*6C,1
1777416749405950602,$GPGSA,M,3,29,24,12,11,15,,,,,,,,2.7,1.6,2.1*35,1
1777416749570961861,$GPRMC,225229.000,A,1206.2475,S,07701.1970,W,0.12,341.82,280426,,,A*67,1
1777416750263375284,$GPGGA,225230.000,1206.2475,S,07701.1970,W,1,05,1.6,155.5,M,8.3,M,,0000*65,1
1777416750375688742,$GPGSA,M,3,29,24,12,11,15,,,,,,,,2.7,1.6,2.1*35,1
1777416750540642592,$GPRMC,225230.000,A,1206.2475,S,07701.1970,W,0.17,341.82,280426,,,A*6A,1
1777416751266848741,$GPGGA,225231.000,1206.2475,S,07701.1969,W,1,05,1.6,155.6,M,8.3,M,,0000*6F,1
1777416751379090200,$GPGSA,M,3,29,24,12,11,15,,,,,,,,2.7,1.6,2.1*35,1
1777416751544105822,$GPRMC,225231.000,A,1206.2475,S,07701.1969,W,0.18,341.82,280426,,,A*6C,1
1777416752266959715,$GPGGA,225232.000,1206.2477,S,07701.1969,W,1,05,1.6,156.2,M,8.3,M,,0000*69,1
1777416752379192987,$GPGSA,M,3,29,24,12,11,15,,,,,,,,2.7,1.6,2.1*35,1
1777416752539598753,$GPGSV,3,1,12,29,64,274,47,24,60,066,40,12,32,155,34,11,23,119,22*7B,1
1777416752690857680,$GPGSV,3,2,12,15,15,009,24,44,42,284,42,14,53,285,,09,38,259,*7A,1
1777416752832940104,$GPGSV,3,3,12,04,14,342,,20,03,329,,05,02,050,,10,00,306,*71,1
1777416752997903855,$GPRMC,225232.000,A,1206.2477,S,07701.1969,W,0.10,341.82,280426,,,A*65,1
1777416753267290438,$GPGGA,225233.000,1206.2478,S,07701.1969,W,1,05,1.6,156.7,M,8.3,M,,0000*62,1
1777416753379550725,$GPGSA,M,3,29,24,12,11,15,,,,,,,,2.7,1.6,2.1*35,1
1777416753544507955,$GPRMC,225233.000,A,1206.2478,S,07701.1969,W,0.02,341.82,280426,,,A*68,1
1777416754267390856,$GPGGA,225234.000,1206.2478,S,07701.1969,W,1,05,1.6,156.9,M,8.3,M,,0000*6B,1
1777416754379651659,$GPGSA,M,3,29,24,12,11,15,,,,,,,,2.7,1.6,2.1*35,1
1777416754544668550,$GPRMC,225234.000,A,1206.2478,S,07701.1969,W,0.13,341.82,280426,,,A*6F,1
1777416755267081329,$GPGGA,225235.000,1206.2478,S,07701.1969,W,1,05,1.6,157.1,M,8.3,M,,0000*63,1
1777416755379354426,$GPGSA,M,3,29,24,12,11,15,,,,,,,,2.7,1.6,2.1*35,1
1777416755544326686,$GPRMC,225235.000,A,1206.2478,S,07701.1969,W,0.05,341.82,280426,,,A*69,1
1777416756264699985,$GPGGA,225236.000,1206.2479,S,07701.1969,W,1,05,1.6,157.2,M,8.3,M,,0000*62,1
1777416756376996320,$GPGSA,M,3,29,24,12,11,15,,,,,,,,2.7,1.6,2.1*35,1
1777416756542015797,$GPRMC,225236.000,A,1206.2479,S,07701.1969,W,0.09,341.82,280426,,,A*67,1
1777416757263354355,$GPGGA,225237.000,1206.2479,S,07701.1969,W,1,05,1.6,157.3,M,8.3,M,,0000*62,1
1777416757375623152,$GPGSA,M,3,29,24,12,11,15,,,,,,,,2.7,1.6,2.1*35,1
1777416757536025551,$GPGSV,3,1,12,29,64,274,46,24,60,066,42,12,32,155,33,11,23,119,22*7F,1
1777416757687291631,$GPGSV,3,2,12,15,15,009,21,44,42,284,43,14,53,285,,09,38,259,*7E,0
1777416757829324080,$GPGSV,3,3,12,04,14,342,,20,03,329,,05,02,050,,10,00,306,*71,0
1777416757994325277,$GPRMC,225237.000,A,1206.2479,S,07701.1969,W,0.12,341.82,280426,,,A*6C,0
1777416758267010246,$GPGGA,225238.000,1206.2479,S,07701.1969,W,1,05,1.6,157.5,M,8.3,M,,0000*6B,0
1777416758379290040,$GPGSA,M,3,29,24,12,11,15,,,,,,,,2.7,1.6,2.1*35,0
1777416758544266216,$GPRMC,225238.000,A,1206.2479,S,07701.1969,W,0.06,341.82,280426,,,A*66,0
1777416759267125922,$GPGGA,225239.000,1206.2479,S,07701.1969,W,1,05,1.6,157.5,M,8.3,M,,0000*6A,0
1777416759379401788,$GPGSA,M,3,29,24,12,11,15,,,,,,,,2.7,1.6,2.1*35,0
1777416759544393072,$GPRMC,225239.000,A,1206.2479,S,07701.1969,W,0.37,341.82,280426,,,A*65,0
1777416760293098922,$GPGGA,225240.000,1206.2479,S,07701.1968,W,1,05,1.6,157.5,M,8.3,M,,0000*65,0
1777416760405416358,$GPGSA,M,3,29,24,12,11,15,,,,,,,,2.7,1.6,2.1*35,0
1777416760570333124,$GPRMC,225240.000,A,1206.2479,S,07701.1968,W,0.58,341.82,280426,,,A*63,0
1777416761267379312,$GPGGA,225241.000,1206.2482,S,07701.1967,W,1,05,1.6,157.6,M,8.3,M,,0000*6C,0
1777416761379643083,$GPGSA,M,3,29,24,12,11,15,,,,,,,,2.7,1.6,2.1*35,0
1777416761544624009,$GPRMC,225241.000,A,1206.2482,S,07701.1967,W,1.30,191.73,280426,,,A*67,0
1777416762293930842,$GPGGA,225242.000,1206.2489,S,07701.1968,W,1,05,1.6,157.6,M,8.3,M,,0000*6B,0
1777416762406209332,$GPGSA,M,3,29,24,12,11,15,,,,,,,,2.7,1.6,2.1*35,0
1777416762566637920,$GPGSV,3,1,12,29,64,274,39,24,60,066,29,12,32,155,42,11,23,119,23*7D,0
1777416762717853470,$GPGSV,3,2,12,15,15,009,20,44,42,284,38,14,53,285,,09,38,259,*73,0
1777416762859931348,$GPGSV,3,3,12,04,14,342,,20,03,329,,05,02,050,,10,00,306,*71,0
1777416763024932845,$GPRMC,225242.000,A,1206.2489,S,07701.1968,W,2.31,191.52,280426,,,A*61,0
1777416763267198391,$GPGGA,225243.000,1206.2496,S,07701.1969,W,1,05,1.6,157.5,M,8.3,M,,0000*66,0
1777416763379472546,$GPGSA,M,3,29,24,12,11,15,,,,,,,,2.7,1.6,2.1*35,0
1777416763544445949,$GPRMC,225243.000,A,1206.2496,S,07701.1969,W,1.80,179.13,280426,,,A*65,0
1777416764263839335,$GPGGA,225244.000,1206.2503,S,07701.1969,W,1,05,1.6,157.4,M,8.3,M,,0000*6D,0
1777416764376047399,$GPGSA,M,3,29,24,12,11,15,,,,,,,,2.7,1.6,2.1*35,0
1777416764541024743,$GPRMC,225244.000,A,1206.2503,S,07701.1969,W,2.52,179.49,280426,,,A*6C,0
1777416765264086048,$GPGGA,225245.000,1206.2509,S,07701.1968,W,1,05,1.6,157.0,M,8.3,M,,0000*63,0
1777416765376365421,$GPGSA,M,3,29,24,12,11,15,,,,,,,,2.7,1.6,2.1*35,0
1777416765541349891,$GPRMC,225245.000,A,1206.2509,S,07701.1968,W,1.64,164.30,280426,,,A*62,0
1777416766291295495,$GPGGA,225246.000,1206.2514,S,07701.1965,W,1,05,1.6,156.7,M,8.3,M,,0000*67,0
1777416766403576311,$GPGSA,M,3,29,24,12,11,15,,,,,,,,2.7,1.6,2.1*35,0
1777416766568567612,$GPRMC,225246.000,A,1206.2514,S,07701.1965,W,2.22,162.56,280426,,,A*67,0
1777416767261826136,$GPGGA,225247.000,1206.2520,S,07701.1962,W,1,04,1.8,156.5,M,8.3,M,,0000*6B,0
1777416767369548243,$GPGSA,M,3,29,24,12,15,,,,,,,,,2.8,1.8,2.2*37,0
1777416767529924381,$GPGSV,3,1,12,29,64,274,28,24,60,066,25,12,32,155,44,15,15,009,19*7F,0
1777416767681191440,$GPGSV,3,2,12,11,23,119,19,44,42,284,31,14,53,285,,09,38,259,*71,0
1777416767823247274,$GPGSV,3,3,12,04,14,342,,20,03,329,,05,02,050,,10,00,306,*71,0
1777416767988220561,$GPRMC,225247.000,A,1206.2520,S,07701.1962,W,2.21,162.20,280426,,,A*64,0
1777416768265537191,$GPGGA,225248.000,1206.2528,S,07701.1960,W,1,04,1.8,156.4,M,8.3,M,,0000*6F,0
1777416768373325356,$GPGSA,M,3,29,24,12,15,,,,,,,,,2.8,1.8,2.2*37,0
1777416768538260764,$GPRMC,225248.000,A,1206.2528,S,07701.1960,W,2.66,160.07,280426,,,A*65,0
1777416769259556638,$GPGGA,225249.000,1206.2535,S,07701.1957,W,1,04,1.8,156.4,M,8.3,M,,0000*66,0
1777416769367254795,$GPGSA,M,3,29,24,12,15,,,,,,,,,2.8,1.8,2.2*37,0
1777416769532275739,$GPRMC,225249.000,A,1206.2535,S,07701.1957,W,2.26,157.99,280426,,,A*6B,0
1777416770259817462,$GPGGA,225250.000,1206.2542,S,07701.1955,W,1,04,1.8,156.5,M,8.3,M,,0000*6D,0
1777416770367518638,$GPGSA,M,3,29,24,12,15,,,,,,,,,2.8,1.8,2.2*37,0
1777416770532530183,$GPRMC,225250.000,A,1206.2542,S,07701.1955,W,2.46,161.80,280426,,,A*6A,0
1777416771260491117,$GPGGA,225251.000,1206.2548,S,07701.1953,W,1,04,1.8,156.6,M,8.3,M,,0000*63,0
1777416771368191628,$GPGSA,M,3,29,24,12,15,,,,,,,,,2.8,1.8,2.2*37,0
1777416771533222609,$GPRMC,225251.000,A,1206.2548,S,07701.1953,W,2.85,169.21,280426,,,A*6B,0
1777416772259916922,$GPGGA,225252.000,1206.2556,S,07701.1952,W,1,04,1.8,156.7,M,8.3,M,,0000*6F,0
1777416772367628046,$GPGSA,M,3,29,24,12,15,,,,,,,,,2.8,1.8,2.2*37,0
1777416772528054083,$GPGSV,3,1,12,29,64,274,35,24,60,066,26,12,32,155,45,15,15,009,18*70,0
1777416772670137833,$GPGSV,3,2,12,48,33,280,,14,53,285,,09,38,259,,11,23,119,*75,0
1777416772812239010,$GPGSV,3,3,12,04,14,342,,20,03,329,,05,02,050,,10,00,306,*71,0
1777416772977246239,$GPRMC,225252.000,A,1206.2556,S,07701.1952,W,2.66,169.71,280426,,,A*6E,0
1777416773259978174,$GPGGA,225253.000,1206.2564,S,07701.1951,W,1,04,1.8,156.7,M,8.3,M,,0000*6C,0
1777416773367675706,$GPGSA,M,3,29,24,12,15,,,,,,,,,2.8,1.8,2.2*37,0
1777416773532679426,$GPRMC,225253.000,A,1206.2564,S,07701.1951,W,2.48,169.21,280426,,,A*64,0
1777416774260232664,$GPGGA,225254.000,1206.2571,S,07701.1948,W,1,04,1.8,156.7,M,8.3,M,,0000*67,0
1777416774367924846,$GPGSA,M,3,29,24,12,15,,,,,,,,,2.8,1.8,2.2*37,0
1777416774532960671,$GPRMC,225254.000,A,1206.2571,S,07701.1948,W,2.38,164.94,280426,,,A*6B,0
1777416775285910527,$GPGGA,225255.000,1206.2575,S,07701.1943,W,1,04,1.8,156.7,M,8.3,M,,0000*69,0
1777416775393617489,$GPGSA,M,3,29,24,12,15,,,,,,,,,2.8,1.8,2.2*37,0
1777416775558621378,$GPRMC,225255.000,A,1206.2575,S,07701.1943,W,2.22,160.12,280426,,,A*64,0
1777416776260142888,$GPGGA,225256.000,1206.2581,S,07701.1939,W,1,04,1.8,156.7,M,8.3,M,,0000*6C,0
1777416776367840833,$GPGSA,M,3,29,24,12,15,,,,,,,,,2.8,1.8,2.2*37,0
1777416776532840769,$GPRMC,225256.000,A,1206.2581,S,07701.1939,W,2.32,156.33,280426,,,A*66,0
1777416777260165288,$GPGGA,225257.000,1206.2588,S,07701.1936,W,1,04,1.8,156.8,M,8.3,M,,0000*64,0
1777416777367903999,$GPGSA,M,3,29,24,12,15,,,,,,,,,2.8,1.8,2.2*37,0
1777416777528301930,$GPGSV,3,1,12,29,64,274,42,24,60,066,29,12,32,155,38,15,15,009,17*7A,0
1777416777670392382,$GPGSV,3,2,12,48,33,280,,14,53,285,,09,38,259,,11,23,119,*75,0
1777416777812477019,$GPGSV,3,3,12,04,14,342,,20,03,329,,05,02,050,,10,00,306,*71,0
1777416777977503691,$GPRMC,225257.000,A,1206.2588,S,07701.1936,W,1.12,156.33,280426,,,A*60,0
1777416778262751293,$GPGGA,225258.000,1206.2592,S,07701.1936,W,1,04,1.8,157.1,M,8.3,M,,0000*68,0
1777416778370418907,$GPGSA,M,3,29,24,12,15,,,,,,,,,2.8,1.8,2.2*37,0
1777416778535435293,$GPRMC,225258.000,A,1206.2592,S,07701.1936,W,0.69,156.33,280426,,,A*69,0
1777416779260685491,$GPGGA,225259.000,1206.2594,S,07701.1934,W,1,04,1.8,157.4,M,8.3,M,,0000*68,0
1777416779368393444,$GPGSA,M,3,29,24,12,15,,,,,,,,,2.8,1.8,2.2*37,0
1777416779533412639,$GPRMC,225259.000,A,1206.2594,S,07701.1934,W,1.13,156.33,280426,,,A*60,0
1777416780264500481,$GPGGA,225300.000,1206.2592,S,07701.1928,W,1,05,1.6,157.7,M,8.3,M,,0000*62,0
1777416780376766257,$GPGSA,M,3,29,24,12,11,15,,,,,,,,2.7,1.6,2.1*35,0
1777416780541795761,$GPRMC,225300.000,A,1206.2592,S,07701.1928,W,1.62,127.38,280426,,,A*6D,0
1777416781263701767,$GPGGA,225301.000,1206.2592,S,07701.1924,W,1,05,1.6,157.8,M,8.3,M,,0000*60,0
1777416781376009215,$GPGSA,M,3,29,24,12,11,15,,,,,,,,2.7,1.6,2.1*35,0
1777416781541008913,$GPRMC,225301.000,A,1206.2592,S,07701.1924,W,1.72,106.98,280426,,,A*68,0
1777416782264794745,$GPGGA,225302.000,1206.2591,S,07701.1920,W,1,05,1.6,158.0,M,8.3,M,,0000*63,0
1777416782377086563,$GPGSA,M,3,29,24,12,11,15,,,,,,,,2.7,1.6,2.1*35,0
1777416782537494437,$GPGSV,3,1,12,29,64,274,42,24,60,066,36,12,32,155,36,11,23,119,18*74,0
1777416782688828999,$GPGSV,3,2,12,15,15,009,18,48,33,280,27,14,53,285,,09,38,259,*78,0
1777416782830855987,$GPGSV,3,3,12,04,14,342,,20,03,329,,05,02,050,,10,00,306,*71,0
1777416782993577873,$GPRMC,225302.000,A,1206.2591,S,07701.1920,W,1.88,83.57,280426,,,A*56,0
1777416783268790377,$GPGGA,225303.000,1206.2586,S,07701.1916,W,1,05,1.6,158.2,M,8.3,M,,0000*63,0
1777416783381100235,$GPGSA,M,3,29,24,12,11,15,,,,,,,,2.7,1.6,2.1*35,0
1777416783543806227,$GPRMC,225303.000,A,1206.2586,S,07701.1916,W,2.81,64.29,280426,,,A*5E,0
1777416784264692014,$GPGGA,225304.000,1206.2582,S,07701.1913,W,1,05,1.6,158.5,M,8.3,M,,0000*62,0
1777416784376983668,$GPGSA,M,3,29,24,12,11,15,,,,,,,,2.7,1.6,2.1*35,0
1777416784539684118,$GPRMC,225304.000,A,1206.2582,S,07701.1913,W,1.36,64.15,280426,,,A*58,0
1777416785264945410,$GPGGA,225305.000,1206.2583,S,07701.1913,W,1,05,1.6,158.8,M,8.3,M,,0000*6F,0
1777416785377215712,$GPGSA,M,3,29,24,12,11,15,,,,,,,,2.7,1.6,2.1*35,0
1777416785539928381,$GPRMC,225305.000,A,1206.2583,S,07701.1913,W,0.01,64.15,280426,,,A*5D,0
1777416786266846516,$GPGGA,225306.000,1206.2584,S,07701.1913,W,1,05,1.6,158.9,M,8.3,M,,0000*6A,0
1777416786379135062,$GPGSA,M,3,29,24,12,11,15,,,,,,,,2.7,1.6,2.1*35,0
1777416786541855933,$GPRMC,225306.000,A,1206.2584,S,07701.1913,W,0.58,64.15,280426,,,A*55,0
1777416787295050651,$GPGGA,225307.000,1206.2584,S,07701.1913,W,1,05,1.6,158.9,M,8.3,M,,0000*6B,0
1777416787407340626,$GPGSA,M,3,29,24,12,11,15,,,,,,,,2.7,1.6,2.1*35,0
1777416787567753950,$GPGSV,3,1,12,29,64,274,33,24,60,066,30,12,32,155,25,11,23,119,18*76,0
1777416787723596894,$GPGSV,3,2,12,15,15,009,18,05,02,050,13,48,33,280,27,14,53,285,*74,0
1777416787865695381,$GPGSV,3,3,12,09,38,259,,04,14,342,,20,03,329,,10,00,306,*7F,0
1777416788028411365,$GPRMC,225307.000,A,1206.2584,S,07701.1913,W,0.54,64.15,280426,,,A*58,0
1777416788267990401,$GPGGA,225308.000,1206.2583,S,07701.1917,W,1,05,1.6,158.6,M,8.3,M,,0000*68,0
1777416788380293379,$GPGSA,M,3,29,24,12,11,15,,,,,,,,2.7,1.6,2.1*35,0
1777416788542995927,$GPRMC,225308.000,A,1206.2583,S,07701.1917,W,1.11,64.15,280426,,,A*54,0
1777416789266428338,$GPGGA,225309.000,1206.2578,S,07701.1920,W,1,05,1.6,158.5,M,8.3,M,,0000*6A,1
1777416789378666739,$GPGSA,M,3,29,24,12,11,15,,,,,,,,2.7,1.6,2.1*35,1
1777416789541384915,$GPRMC,225309.000,A,1206.2578,S,07701.1920,W,1.88,36.51,280426,,,A*52,1
1777416790266018222,$GPGGA,225310.000,1206.2575,S,07701.1921,W,1,05,1.6,158.3,M,8.3,M,,0000*68,1
1777416790378283443,$GPGSA,M,3,29,24,12,11,15,,,,,,,,2.7,1.6,2.1*35,1
1777416790540999561,$GPRMC,225310.000,A,1206.2575,S,07701.1921,W,0.54,36.51,280426,,,A*56,1
1777416791293330264,$GPGGA,225311.000,1206.2575,S,07701.1922,W,1,05,1.6,158.3,M,8.3,M,,0000*6A,1
1777416791405608026,$GPGSA,M,3,29,24,12,11,15,,,,,,,,2.7,1.6,2.1*35,1
1777416791568330383,$GPRMC,225311.000,A,1206.2575,S,07701.1922,W,0.84,36.51,280426,,,A*59,1
1777416792290891389,$GPGGA,225312.000,1206.2575,S,07701.1921,W,1,05,1.6,158.1,M,8.3,M,,0000*68,1
1777416792403152931,$GPGSA,M,3,29,24,12,11,15,,,,,,,,2.7,1.6,2.1*35,1
1777416792563584380,$GPGSV,3,1,12,29,64,274,35,24,60,066,22,12,32,155,18,11,23,119,17*72,1
1777416792710253476,$GPGSV,3,2,12,15,15,009,18,48,33,280,,14,53,285,,09,38,259,*7D,1
1777416792852380818,$GPGSV,3,3,12,04,14,342,,20,03,329,,05,02,050,,10,00,306,*71,1
1777416793015065702,$GPRMC,225312.000,A,1206.2575,S,07701.1921,W,0.34,36.51,280426,,,A*52,1
1777416793265070802,$GPGGA,225313.000,1206.2574,S,07701.1920,W,1,05,1.6,158.0,M,8.3,M,,0000*68,1
1777416793377387445,$GPGSA,M,3,29,24,12,11,15,,,,,,,,2.7,1.6,2.1*35,1
1777416793540093761,$GPRMC,225313.000,A,1206.2574,S,07701.1920,W,0.57,36.51,280426,,,A*56,1
1777416794266162029,$GPGGA,225314.000,1206.2572,S,07701.1919,W,1,05,1.6,158.0,M,8.3,M,,0000*63,1
1777416794378445746,$GPGSA,M,3,29,24,12,11,15,,,,,,,,2.7,1.6,2.1*35,1
1777416794541180933,$GPRMC,225314.000,A,1206.2572,S,07701.1919,W,1.07,36.51,280426,,,A*59,1
1777416795266000889,$GPGGA,225315.000,1206.2570,S,07701.1917,W,1,05,1.6,158.0,M,8.3,M,,0000*6E,1
1777416795378308038,$GPGSA,M,3,29,24,12,11,15,,,,,,,,2.7,1.6,2.1*35,1
1777416795541025353,$GPRMC,225315.000,A,1206.2570,S,07701.1917,W,0.75,36.51,280426,,,A*50,1
1777416796266464748,$GPGGA,225316.000,1206.2569,S,07701.1917,W,1,05,1.6,157.9,M,8.3,M,,0000*63,1
1777416796378749362,$GPGSA,M,3,29,24,12,11,15,,,,,,,,2.7,1.6,2.1*35,1
1777416796541466269,$GPRMC,225316.000,A,1206.2569,S,07701.1917,W,0.82,36.51,280426,,,A*53,1
1777416797265675191,$GPGGA,225317.000,1206.2570,S,07701.1919,W,1,05,1.6,157.8,M,8.3,M,,0000*65,1
1777416797377949476,$GPGSA,M,3,29,24,12,11,15,,,,,,,,2.7,1.6,2.1*35,1
1777416797538380795,$GPGSV,3,1,12,29,64,274,35,24,60,066,22,12,32,155,20,11,23,119,17*79,1
1777416797685055462,$GPGSV,3,2,12,15,15,009,17,48,33,280,,14,53,285,,09,38,259,*72,1
1777416797827148437,$GPGSV,3,3,12,04,14,342,,20,03,329,,05,02,050,,10,00,306,*71,1
1777416797989857213,$GPRMC,225317.000,A,1206.2570,S,07701.1919,W,0.83,36.51,280426,,,A*55,1
1777416798266542004,$GPGGA,225318.000,1206.2566,S,07701.1921,W,1,05,1.6,157.6,M,8.3,M,,0000*68,1
1777416798378822830,$GPGSA,M,3,29,24,12,11,15,,,,,,,,2.7,1.6,2.1*35,1
1777416798541597482,$GPRMC,225318.000,A,1206.2566,S,07701.1921,W,1.56,16.67,280426,,,A*58,1
1777416799266361402,$GPGGA,225319.000,1206.2561,S,07701.1922,W,1,05,1.6,157.4,M,8.3,M,,0000*6F,1
1777416799378669568,$GPGSA,M,3,29,24,12,11,15,,,,,,,,2.7,1.6,2.1*35,1
1777416799539078722,$GPRMC,225319.000,A,1206.2561,S,07701.1922,W,1.73,6.27,280426,,,A*6F,1
1777416800292044121,$GPGGA,225320.000,1206.2557,S,07701.1921,W,1,05,1.6,157.1,M,8.3,M,,0000*66,1
1777416800404330976,$GPGSA,M,3,29,24,12,11,15,,,,,,,,2.7,1.6,2.1*35,1
1777416800564753818,$GPRMC,225320.000,A,1206.2557,S,07701.1921,W,0.59,6.27,280426,,,A*6A,1
1777416801265623532,$GPGGA,225321.000,1206.2555,S,07701.1919,W,1,05,1.6,156.9,M,8.3,M,,0000*67,1
1777416801377905114,$GPGSA,M,3,29,24,12,11,15,,,,,,,,2.7,1.6,2.1*35,1
1777416801538317734,$GPRMC,225321.000,A,1206.2555,S,07701.1919,W,0.37,6.27,280426,,,A*6A,1
1777416802266061851,$GPGGA,225322.000,1206.2553,S,07701.1919,W,1,05,1.6,156.8,M,8.3,M,,0000*63,1
1777416802378373941,$GPGSA,M,3,29,24,12,11,15,,,,,,,,2.7,1.6,2.1*35,1
1777416802538785989,$GPGSV,3,1,12,29,64,274,34,24,60,066,22,12,32,155,22,11,23,119,18*75,1
1777416802685451898,$GPGSV,3,2,12,15,15,009,17,46,29,279,,14,53,285,,09,38,259,*71,1
1777416802827617261,$GPGSV,3,3,12,04,14,342,,20,03,329,,05,02,050,,10,00,306,*71,1
1777416802987961526,$GPRMC,225322.000,A,1206.2553,S,07701.1919,W,1.05,6.27,280426,,,A*6F,1
1777416803266332654,$GPGGA,225323.000,1206.2552,S,07701.1919,W,1,05,1.6,156.8,M,8.3,M,,0000*63,1
1777416803378612987,$GPGSA,M,3,29,24,12,11,15,,,,,,,,2.7,1.6,2.1*35,1
1777416803539036224,$GPRMC,225323.000,A,1206.2552,S,07701.1919,W,0.82,6.27,280426,,,A*61,1
1777416804266569820,$GPGGA,225324.000,1206.2549,S,07701.1919,W,1,05,1.6,156.8,M,8.3,M,,0000*6E,1
1777416804378850548,$GPGSA,M,3,29,24,12,11,15,,,,,,,,2.7,1.6,2.1*35,1
1777416804539281510,$GPRMC,225324.000,A,1206.2549,S,07701.1919,W,1.60,8.34,280426,,,A*6D,1
1777416805266395064,$GPGGA,225325.000,1206.2546,S,07701.1919,W,1,05,1.6,156.8,M,8.3,M,,0000*60,1
1777416805378691614,$GPGSA,M,3,29,24,12,11,15,,,,,,,,2.7,1.6,2.1*35,1
1777416805539105282,$GPRMC,225325.000,A,1206.2546,S,07701.1919,W,0.54,8.34,280426,,,A*65,1
1777416806266438254,$GPGGA,225326.000,1206.2547,S,07701.1919,W,1,05,1.6,156.7,M,8.3,M,,0000*6D,1
1777416806378722605,$GPGSA,M,3,29,24,12,11,15,,,,,,,,2.7,1.6,2.1*35,1
1777416806539137499,$GPRMC,225326.000,A,1206.2547,S,07701.1919,W,0.57,8.34,280426,,,A*64,1
1777416807266683745,$GPGGA,225327.000,1206.2547,S,07701.1919,W,1,05,1.6,156.7,M,8.3,M,,0000*6C,1
1777416807378965361,$GPGSA,M,3,29,24,12,11,15,,,,,,,,2.7,1.6,2.1*35,1
1777416807539390740,$GPGSV,3,1,12,29,64,274,34,24,60,066,23,12,32,155,22,11,23,119,18*74,1
1777416807686068103,$GPGSV,3,2,12,15,15,009,16,46,29,279,,14,53,285,,09,38,259,*70,1
1777416807828161053,$GPGSV,3,3,12,04,14,342,,20,03,329,,05,02,050,,10,00,306,*71,1
1777416807988589785,$GPRMC,225327.000,A,1206.2547,S,07701.1919,W,0.19,8.34,280426,,,A*6F,1
1777416808267131440,$GPGGA,225328.000,1206.2545,S,07701.1917,W,1,05,1.6,156.9,M,8.3,M,,0000*61,1
1777416808379421378,$GPGSA,M,3,29,24,12,11,15,,,,,,,,2.7,1.6,2.1*35,1
1777416808539846520,$GPRMC,225328.000,A,1206.2545,S,07701.1917,W,1.03,8.34,280426,,,A*66,1
1777416809266975205,$GPGGA,225329.000,1206.2544,S,07701.1916,W,1,05,1.6,156.9,M,8.3,M,,0000*60,1
1777416809379243018,$GPGSA,M,3,29,24,12,11,15,,,,,,,,2.7,1.6,2.1*35,1
1777416809539670609,$GPRMC,225329.000,A,1206.2544,S,07701.1916,W,0.17,8.34,280426,,,A*63,1
1777416810267632136,$GPGGA,225330.000,1206.2544,S,07701.1915,W,1,05,1.6,156.9,M,8.3,M,,0000*6B,1
1777416810379903715,$GPGSA,M,3,29,24,12,11,15,,,,,,,,2.7,1.6,2.1*35,1
1777416810540384741,$GPRMC,225330.000,A,1206.2544,S,07701.1915,W,0.43,8.34,280426,,,A*69,1
1777416811292870386,$GPGGA,225331.000,1206.2546,S,07701.1914,W,1,05,1.6,156.8,M,8.3,M,,0000*68,1
1777416811405154604,$GPGSA,M,3,29,24,12,11,15,,,,,,,,2.7,1.6,2.1*35,1
1777416811565623337,$GPRMC,225331.000,A,1206.2546,S,07701.1914,W,0.38,8.34,280426,,,A*67,1
1777416812267492843,$GPGGA,225332.000,1206.2550,S,07701.1916,W,1,05,1.6,156.4,M,8.3,M,,0000*62,1
1777416812379803847,$GPGSA,M,3,29,24,12,11,15,,,,,,,,2.7,1.6,2.1*35,1
1777416812540200153,$GPGSV,3,1,12,29,64,274,33,24,60,066,23,12,32,155,22,11,23,119,17*7C,1
1777416812686877716,$GPGSV,3,2,12,15,15,009,16,46,29,279,,14,53,285,,09,38,259,*70,1
1777416812828949578,$GPGSV,3,3,12,04,14,342,,20,03,329,,05,02,050,,10,00,306,*71,1
1777416812989365979,$GPRMC,225332.000,A,1206.2550,S,07701.1916,W,0.57,8.34,280426,,,A*68,1
1777416813292518765,$GPGGA,225333.000,1206.2551,S,07701.1915,W,1,05,1.6,156.4,M,8.3,M,,0000*61,1
1777416813404819831,$GPGSA,M,3,29,24,12,11,15,,,,,,,,2.7,1.6,2.1*35,1
1777416813565229440,$GPRMC,225333.000,A,1206.2551,S,07701.1915,W,0.09,8.34,280426,,,A*60,1
1777416814268252416,$GPGGA,225334.000,1206.2553,S,07701.1914,W,1,05,1.6,156.1,M,8.3,M,,0000*60,1
1777416814380466428,$GPGSA,M,3,29,24,12,11,15,,,,,,,,2.7,1.6,2.1*35,1
1777416814540892396,$GPRMC,225334.000,A,1206.2553,S,07701.1914,W,0.55,8.34,280426,,,A*6D,1
1777416815268629338,$GPGGA,225335.000,1206.2558,S,07701.1916,W,1,05,1.6,155.6,M,8.3,M,,0000*6C,1
1777416815380921715,$GPGSA,M,3,29,24,12,11,15,,,,,,,,2.7,1.6,2.1*35,1
1777416815541340484,$GPRMC,225335.000,A,1206.2558,S,07701.1916,W,0.87,8.34,280426,,,A*6A,1
1777416816268454846,$GPGGA,225336.000,1206.2563,S,07701.1917,W,1,05,1.6,155.2,M,8.3,M,,0000*62,1
1777416816380745009,$GPGSA,M,3,29,24,12,11,15,,,,,,,,2.7,1.6,2.1*35,1
1777416816541167599,$GPRMC,225336.000,A,1206.2563,S,07701.1917,W,0.70,8.34,280426,,,A*68,1
1777416817268062490,$GPGGA,225337.000,1206.2565,S,07701.1916,W,1,05,1.6,154.9,M,8.3,M,,0000*6E,1
1777416817380349883,$GPGSA,M,3,29,24,12,11,15,,,,,,,,2.7,1.6,2.1*35,1
1777416817540773572,$GPGSV,3,1,12,29,64,274,33,24,60,066,24,12,32,155,22,11,23,119,16*7A,1
1777416817692026049,$GPGSV,3,2,12,15,15,009,15,05,02,050,09,46,29,279,,14,53,285,*74,1
1777416817834108294,$GPGSV,3,3,12,09,38,259,,04,14,342,,20,03,329,,10,00,306,*7F,1
1777416817994534428,$GPRMC,225337.000,A,1206.2565,S,07701.1916,W,0.80,8.34,280426,,,A*61,1
1777416818268304482,$GPGGA,225338.000,1206.2567,S,07701.1916,W,1,05,1.6,154.7,M,8.3,M,,0000*6D,1
1777416818380584197,$GPGSA,M,3,29,24,12,11,15,,,,,,,,2.7,1.6,2.1*35,1
1777416818541010023,$GPRMC,225338.000,A,1206.2567,S,07701.1916,W,0.51,8.34,280426,,,A*60,1
1777416819296457013,$GPGGA,225339.000,1206.2569,S,07701.1915,W,1,05,1.6,154.6,M,8.3,M,,0000*60,1
1777416819408759183,$GPGSA,M,3,29,24,12,11,15,,,,,,,,2.7,1.6,2.1*35,1
1777416819569186849,$GPRMC,225339.000,A,1206.2569,S,07701.1915,W,0.54,8.34,280426,,,A*69,1
1777416820268161341,$GPGGA,225340.000,1206.2571,S,07701.1918,W,1,05,1.6,154.2,M,8.3,M,,0000*6E,1
1777416820380449222,$GPGSA,M,3,29,24,12,11,15,,,,,,,,2.7,1.6,2.1*35,1
1777416820540861839,$GPRMC,225340.000,A,1206.2571,S,07701.1918,W,0.29,8.34,280426,,,A*69,1
1777416821267984991,$GPGGA,225341.000,1206.2572,S,07701.1919,W,1,05,1.6,154.2,M,8.3,M,,0000*6D,1
1777416821380265992,$GPGSA,M,3,29,24,12,11,15,,,,,,,,2.7,1.6,2.1*35,1
1777416821540685394,$GPRMC,225341.000,A,1206.2572,S,07701.1919,W,0.36,8.34,280426,,,A*64,1
1777416822268658121,$GPGGA,225342.000,1206.2573,S,07701.1923,W,1,05,1.6,154.2,M,8.3,M,,0000*66,1
1777416822380932074,$GPGSA,M,3,29,24,12,11,15,,,,,,,,2.7,1.6,2.1*35,1
1777416822541351484,$GPGSV,3,1,12,29,64,274,33,24,60,066,25,12,32,155,21,11,23,119,15*7B,1
1777416822692597866,$GPGSV,3,2,12,15,15,009,16,05,02,050,11,46,29,279,,14,53,285,*7E,1
1777416822834690038,$GPGSV,3,3,12,09,38,259,,04,14,342,,20,03,329,,10,00,306,*7F,1
1777416822995097854,$GPRMC,225342.000,A,1206.2573,S,07701.1923,W,1.15,8.34,280426,,,A*6F,1
1777416823268666027,$GPGGA,225343.000,1206.2574,S,07701.1926,W,1,05,1.6,154.2,M,8.3,M,,0000*65,1
1777416823380961733,$GPGSA,M,3,29,24,12,11,15,,,,,,,,2.7,1.6,2.1*35,1
1777416823541371649,$GPRMC,225343.000,A,1206.2574,S,07701.1926,W,0.34,8.34,280426,,,A*6E,1
1777416824267031509,$GPGGA,225344.000,1206.2576,S,07701.1927,W,1,04,1.8,154.0,M,8.3,M,,0000*6C,1
1777416824374731843,$GPGSA,M,3,29,24,12,15,,,,,,,,,2.8,1.8,2.2*37,1
1777416824535170047,$GPRMC,225344.000,A,1206.2576,S,07701.1927,W,0.54,8.34,280426,,,A*6C,1
1777416825264968623,$GPGGA,225345.000,1206.2579,S,07701.1931,W,1,04,1.8,153.7,M,8.3,M,,0000*65,1
1777416825372742288,$GPGSA,M,3,29,24,12,15,,,,,,,,,2.8,1.8,2.2*37,1
1777416825533105551,$GPRMC,225345.000,A,1206.2579,S,07701.1931,W,0.48,8.34,280426,,,A*68,1
1777416826265632902,$GPGGA,225346.000,1206.2580,S,07701.1933,W,1,04,1.8,153.3,M,8.3,M,,0000*66,1
1777416826373332129,$GPGSA,M,3,29,24,12,15,,,,,,,,,2.8,1.8,2.2*37,1
1777416826533745942,$GPRMC,225346.000,A,1206.2580,S,07701.1933,W,0.30,8.34,280426,,,A*60,1
1777416827265868003,$GPGGA,225347.000,1206.2580,S,07701.1933,W,1,04,1.8,153.1,M,8.3,M,,0000*65,1
1777416827373573964,$GPGSA,M,3,29,24,12,15,,,,,,,,,2.8,1.8,2.2*37,1
1777416827533991156,$GPGSV,3,1,12,29,64,274,33,24,60,066,25,12,32,155,21,15,15,009,16*79,1
1777416827680671152,$GPGSV,3,2,12,11,23,119,04,46,29,279,,14,53,285,,09,38,259,*72,1
1777416827822765644,$GPGSV,3,3,12,04,14,342,,20,03,329,,05,02,050,,10,00,306,*71,1
1777416827983185559,$GPRMC,225347.000,A,1206.2580,S,07701.1933,W,0.75,8.34,280426,,,A*60,1
1777416828266371326,$GPGGA,225348.000,1206.2580,S,07701.1932,W,1,04,1.8,152.7,M,8.3,M,,0000*6C,0
1777416828374007369,$GPGSA,M,3,29,24,12,15,,,,,,,,,2.8,1.8,2.2*37,0
1777416828536726664,$GPRMC,225348.000,A,1206.2580,S,07701.1932,W,1.28,22.45,280426,,,A*59,0
1777416829290921717,$GPGGA,225349.000,1206.2580,S,07701.1929,W,1,04,1.8,152.4,M,8.3,M,,0000*64,0
1777416829398634352,$GPGSA,M,3,29,24,12,15,,,,,,,,,2.8,1.8,2.2*37,0
1777416829561322153,$GPRMC,225349.000,A,1206.2580,S,07701.1929,W,1.07,22.45,280426,,,A*5F,0
1777416830266352390,$GPGGA,225350.000,1206.2578,S,07701.1926,W,1,04,1.8,152.4,M,8.3,M,,0000*64,0
1777416830374056184,$GPGSA,M,3,29,24,12,15,,,,,,,,,2.8,1.8,2.2*37,0
1777416830536775811,$GPRMC,225350.000,A,1206.2578,S,07701.1926,W,0.77,22.45,280426,,,A*59,0
1777416831267428066,$GPGGA,225351.000,1206.2572,S,07701.1925,W,1,04,1.8,152.3,M,8.3,M,,0000*6B,0
1777416831375122687,$GPGSA,M,3,29,24,12,15,,,,,,,,,2.8,1.8,2.2*37,0
1777416831535544214,$GPRMC,225351.000,A,1206.2572,S,07701.1925,W,1.81,1.66,280426,,,A*69,0
1777416832266624576,$GPGGA,225352.000,1206.2569,S,07701.1926,W,1,04,1.8,151.9,M,8.3,M,,0000*68,0
1777416832374327655,$GPGSA,M,3,29,24,12,15,,,,,,,,,2.8,1.8,2.2*37,0
1777416832534729023,$GPGSV,3,1,12,29,64,274,33,24,60,066,29,12,32,155,22,15,15,009,16*76,0
1777416832681410595,$GPGSV,3,2,12,11,23,119,07,33,19,083,,14,53,285,,09,38,259,*77,0
1777416832823517840,$GPGSV,3,3,12,04,14,342,,20,03,329,,05,02,050,,10,00,306,*71,0
1777416832983927357,$GPRMC,225352.000,A,1206.2569,S,07701.1926,W,1.48,7.29,280426,,,A*6B,0
1777416833266230885,$GPGGA,225353.000,1206.2567,S,07701.1924,W,1,04,1.8,152.0,M,8.3,M,,0000*6F,0
1777416833373926532,$GPGSA,M,3,29,24,12,15,,,,,,,,,2.8,1.8,2.2*37,0
1777416833534349060,$GPRMC,225353.000,A,1206.2567,S,07701.1924,W,0.29,7.29,280426,,,A*60,0
1777416834268952536,$GPGGA,225354.000,1206.2571,S,07701.1929,W,1,05,1.6,151.9,M,8.3,M,,0000*67,0
1777416834381255466,$GPGSA,M,3,29,24,12,11,15,,,,,,,,2.7,1.6,2.1*35,0
1777416834541668041,$GPRMC,225354.000,A,1206.2571,S,07701.1929,W,1.05,7.29,280426,,,A*62,0
1777416835268985677,$GPGGA,225355.000,1206.2574,S,07701.1934,W,1,05,1.6,151.8,M,8.3,M,,0000*6E,0
1777416835381281488,$GPGSA,M,3,29,24,12,11,15,,,,,,,,2.7,1.6,2.1*35,0
1777416835541693815,$GPRMC,225355.000,A,1206.2574,S,07701.1934,W,0.29,7.29,280426,,,A*65,0
1777416836273406340,$GPGGA,225356.000,1206.2577,S,07701.1939,W,1,05,1.6,151.8,M,8.3,M,,0000*63,0
1777416836385670604,$GPGSA,M,3,29,24,12,11,15,,,,,,,,2.7,1.6,2.1*35,0
1777416836546094925,$GPRMC,225356.000,A,1206.2577,S,07701.1939,W,1.10,7.29,280426,,,A*63,0
1777416837293814426,$GPGGA,225357.000,1206.2583,S,07701.1944,W,1,05,1.6,151.8,M,8.3,M,,0000*63,0
1777416837406121002,$GPGSA,M,3,29,24,12,11,15,,,,,,,,2.7,1.6,2.1*35,0
1777416837566576095,$GPGSV,3,1,12,29,64,274,43,24,60,066,40,12,32,155,32,11,23,119,11*79,0
1777416837717783730,$GPGSV,3,2,12,15,15,009,17,05,02,050,16,33,19,083,,14,53,285,*7E,0
1777416837859882583,$GPGSV,3,3,12,09,38,259,,04,14,342,,20,03,329,,10,00,306,*7F,0
1777416838024894616,$GPRMC,225357.000,A,1206.2583,S,07701.1944,W,1.95,297.88,280426,,,A*6E,0
1777416838269474969,$GPGGA,225358.000,1206.2587,S,07701.1947,W,1,05,1.6,152.1,M,8.3,M,,0000*61,0
1777416838381759741,$GPGSA,M,3,29,24,12,11,15,,,,,,,,2.7,1.6,2.1*35,0
1777416838546755678,$GPRMC,225358.000,A,1206.2587,S,07701.1947,W,1.39,288.59,280426,,,A*62,0
1777416839270960383,$GPGGA,225359.000,1206.2588,S,07701.1949,W,1,05,1.6,152.3,M,8.3,M,,0000*63,0
1777416839383244388,$GPGSA,M,3,29,24,12,11,15,,,,,,,,2.7,1.6,2.1*35,0
1777416839548254708,$GPRMC,225359.000,A,1206.2588,S,07701.1949,W,0.49,288.59,280426,,,A*64,0
1777416840269522153,$GPGGA,225400.000,1206.2590,S,07701.1950,W,1,05,1.6,152.2,M,8.3,M,,0000*68,0
1777416840381812079,$GPGSA,M,3,29,24,12,11,15,,,,,,,,2.7,1.6,2.1*35,0
1777416840546817371,$GPRMC,225400.000,A,1206.2590,S,07701.1950,W,1.20,290.60,280426,,,A*63,0
1777416841267876598,$GPGGA,225401.000,1206.2589,S,07701.1952,W,1,04,1.8,152.4,M,8.3,M,,0000*6A,0
1777416841375577724,$GPGSA,M,3,29,24,12,15,,,,,,,,,2.8,1.8,2.2*37,0
1777416841540569229,$GPRMC,225401.000,A,1206.2589,S,07701.1952,W,1.81,296.31,280426,,,A*61,0
1777416842291861468,$GPGGA,225402.000,1206.2590,S,07701.1950,W,1,04,1.8,152.4,M,8.3,M,,0000*63,0
1777416842399566367,$GPGSA,M,3,29,24,12,15,,,,,,,,,2.8,1.8,2.2*37,0
1777416842559990538,$GPGSV,3,1,12,29,64,274,37,24,60,066,25,12,32,155,42,15,15,009,17*79,0
1777416842706638406,$GPGSV,3,2,12,11,23,119,14,33,19,083,,14,53,285,,09,38,259,*75,0
1777416842848772024,$GPGSV,3,3,12,04,14,342,,20,03,329,,05,02,050,,10,00,306,*71,0
1777416843013742258,$GPRMC,225402.000,A,1206.2590,S,07701.1950,W,2.33,307.85,280426,,,A*64,0
1777416843292704713,$GPGGA,225403.000,1206.2585,S,07701.1951,W,1,04,1.8,152.9,M,8.3,M,,0000*6A,0
1777416843400424239,$GPGSA,M,3,29,24,12,15,,,,,,,,,2.8,1.8,2.2*37,0
1777416843565426509,$GPRMC,225403.000,A,1206.2585,S,07701.1951,W,2.47,314.21,280426,,,A*6F,0
1777416844265657323,$GPGGA,225404.000,1206.2580,S,07701.1956,W,1,04,1.8,153.1,M,8.3,M,,0000*66,0
1777416844373357733,$GPGSA,M,3,29,24,12,15,,,,,,,,,2.8,1.8,2.2*37,0
1777416844538350661,$GPRMC,225404.000,A,1206.2580,S,07701.1956,W,2.69,312.33,280426,,,A*63,0
1777416845266722239,$GPGGA,225405.000,1206.2576,S,07701.1961,W,1,04,1.8,153.2,M,8.3,M,,0000*69,0
1777416845374411403,$GPGSA,M,3,29,24,12,15,,,,,,,,,2.8,1.8,2.2*37,0
1777416845539412288,$GPRMC,225405.000,A,1206.2576,S,07701.1961,W,2.12,308.79,280426,,,A*66,0
1777416846266109406,$GPGGA,225406.000,1206.2573,S,07701.1964,W,1,04,1.8,153.6,M,8.3,M,,0000*6E,0
1777416846373832050,$GPGSA,M,3,29,24,12,15,,,,,,,,,2.8,1.8,2.2*37,0
1777416846538815631,$GPRMC,225406.000,A,1206.2573,S,07701.1964,W,1.33,306.76,280426,,,A*64,0
1777416847266540357,$GPGGA,225407.000,1206.2567,S,07701.1969,W,1,04,1.8,153.8,M,8.3,M,,0000*69,0
1777416847374246682,$GPGSA,M,3,29,24,12,15,,,,,,,,,2.8,1.8,2.2*37,0
1777416847534686069,$GPGSV,3,1,12,29,64,274,31,24,60,066,25,12,32,155,29,15,15,009,15*70,0
1777416847676750691,$GPGSV,3,2,12,33,19,083,,14,53,285,,09,38,259,,11,23,119,*70,0
1777416847818841666,$GPGSV,3,3,12,04,14,342,,20,03,329,,05,02,050,,10,00,306,*71,0
1777416847983871669,$GPRMC,225407.000,A,1206.2567,S,07701.1969,W,1.38,308.81,280426,,,A*60,0
1777416848267178631,$GPGGA,225408.000,1206.2558,S,07701.1974,W,1,04,1.8,154.2,M,8.3,M,,0000*6B,0
1777416848374895824,$GPGSA,M,3,29,24,12,15,,,,,,,,,2.8,1.8,2.2*37,0
1777416848539912838,$GPRMC,225408.000,A,1206.2558,S,07701.1974,W,2.02,313.54,280426,,,A*67,0
1777416849267194563,$GPGGA,225409.000,1206.2551,S,07701.1973,W,1,04,1.8,154.5,M,8.3,M,,0000*63,0
1777416849374958608,$GPGSA,M,3,29,24,12,15,,,,,,,,,2.8,1.8,2.2*37,0
1777416849539907797,$GPRMC,225409.000,A,1206.2551,S,07701.1973,W,1.41,314.91,280426,,,A*62,0
1777416850265973416,$GPGGA,225410.000,1206.2546,S,07701.1968,W,1,04,1.8,154.6,M,8.3,M,,0000*64,0
1777416850373679528,$GPGSA,M,3,29,24,12,15,,,,,,,,,2.8,1.8,2.2*37,0
1777416850538682122,$GPRMC,225410.000,A,1206.2546,S,07701.1968,W,0.75,314.91,280426,,,A*60,0
1777416851292465790,$GPGGA,225411.000,1206.2544,S,07701.1969,W,1,04,1.8,154.5,M,8.3,M,,0000*65,0
1777416851400154083,$GPGSA,M,3,29,24,12,15,,,,,,,,,2.8,1.8,2.2*37,0
1777416851565159173,$GPRMC,225411.000,A,1206.2544,S,07701.1969,W,1.05,314.91,280426,,,A*64,0
1777416852268094543,$GPGGA,225412.000,1206.2543,S,07701.1971,W,1,04,1.8,154.6,M,8.3,M,,0000*6B,0
1777416852375812206,$GPGSA,M,3,29,24,12,15,,,,,,,,,2.8,1.8,2.2*37,0
1777416852536225700,$GPGSV,3,1,12,29,64,274,34,24,60,066,27,12,32,155,30,15,15,009,16*7C,0
1777416852682879055,$GPGSV,3,2,12,11,23,119,14,33,19,083,,14,53,285,,09,38,259,*75,0
1777416852824977342,$GPGSV,3,3,12,04,14,342,,20,03,329,,05,02,050,,10,00,306,*71,0
1777416852989985537,$GPRMC,225412.000,A,1206.2543,S,07701.1971,W,0.15,314.91,280426,,,A*69,0
1777416853271238953,$GPGGA,225413.000,1206.2540,S,07701.1974,W,1,05,1.6,154.6,M,8.3,M,,0000*63,0
1777416853383528367,$GPGSA,M,3,29,24,12,11,15,,,,,,,,2.7,1.6,2.1*35,0
1777416853548517982,$GPRMC,225413.000,A,1206.2540,S,07701.1974,W,1.45,325.28,280426,,,A*6A,0
1777416854270015273,$GPGGA,225414.000,1206.2535,S,07701.1977,W,1,05,1.6,154.5,M,8.3,M,,0000*66,0
1777416854382297071,$GPGSA,M,3,29,24,12,11,15,,,,,,,,2.7,1.6,2.1*35,0
1777416854547308442,$GPRMC,225414.000,A,1206.2535,S,07701.1977,W,2.81,348.34,280426,,,A*61,0
1777416855269809682,$GPGGA,225415.000,1206.2532,S,07701.1979,W,1,05,1.6,154.4,M,8.3,M,,0000*6F,0
1777416855382123127,$GPGSA,M,3,29,24,12,11,15,,,,,,,,2.7,1.6,2.1*35,0
1777416855547106621,$GPRMC,225415.000,A,1206.2532,S,07701.1979,W,0.97,348.34,280426,,,A*6C,0
1777416856267130167,$GPGGA,225416.000,1206.2533,S,07701.1988,W,1,04,1.8,153.9,M,8.3,M,,0000*66,0
1777416856374829005,$GPGSA,M,3,29,24,12,15,,,,,,,,,2.8,1.8,2.2*37,0
1777416856539839423,$GPRMC,225416.000,A,1206.2533,S,07701.1988,W,0.51,348.34,280426,,,A*6A,0
1777416857268820507,$GPGGA,225417.000,1206.2534,S,07701.1988,W,1,04,1.8,154.0,M,8.3,M,,0000*6E,0
1777416857376546548,$GPGSA,M,3,29,24,12,15,,,,,,,,,2.8,1.8,2.2*37,0
1777416857536947379,$GPGSV,3,1,12,29,64,274,43,24,60,066,36,12,32,155,36,15,15,009,16*7A,0
1777416857683616338,$GPGSV,3,2,12,11,23,119,16,33,19,083,,14,53,285,,09,38,259,*77,0
1777416857825748887,$GPGSV,3,3,12,04,14,342,,20,03,329,,05,02,050,,10,00,306,*71,0
1777416857990687722,$GPRMC,225417.000,A,1206.2534,S,07701.1988,W,0.00,348.34,280426,,,A*68,0
1777416858267150998,$GPGGA,225418.000,1206.2531,S,07701.1989,W,1,04,1.8,154.0,M,8.3,M,,0000*65,1
1777416858374881538,$GPGSA,M,3,29,24,12,15,,,,,,,,,2.8,1.8,2.2*37,1
1777416858539924209,$GPRMC,225418.000,A,1206.2531,S,07701.1989,W,0.14,348.34,280426,,,A*66,1
1777416859266778451,$GPGGA,225419.000,1206.2528,S,07701.1990,W,1,04,1.8,154.1,M,8.3,M,,0000*65,1
1777416859374456782,$GPGSA,M,3,29,24,12,15,,,,,,,,,2.8,1.8,2.2*37,1
1777416859539468244,$GPRMC,225419.000,A,1206.2528,S,07701.1990,W,0.21,348.34,280426,,,A*61,1
1777416860267412868,$GPGGA,225420.000,1206.2525,S,07701.1990,W,1,04,1.8,154.1,M,8.3,M,,0000*62,1
1777416860375100532,$GPGSA,M,3,29,24,12,15,,,,,,,,,2.8,1.8,2.2*37,1
1777416860540115843,$GPRMC,225420.000,A,1206.2525,S,07701.1990,W,0.13,348.34,280426,,,A*67,1
1777416861293068038,$GPGGA,225421.000,1206.2523,S,07701.1989,W,1,04,3.7,154.2,M,8.3,M,,0000*63,1
1777416861400743515,$GPGSA,M,3,29,24,12,11,,,,,,,,,8.2,3.7,7.3*3A,1
1777416861565755211,$GPRMC,225421.000,A,1206.2523,S,07701.1989,W,0.28,348.34,280426,,,A*60,1
1777416862256195898,$GPGGA,225422.000,1206.2522,S,07701.1989,W,0,00,,154.2,M,8.3,M,,0000*4E,1
1777416862324921469,$GPGSA,M,1,,,,,,,,,,,,,,,*12,1
1777416862485367849,$GPGSV,3,1,12,11,23,119,11,12,32,155,35,24,60,066,36,29,64,274,45*79,1
1777416862627440936,$GPGSV,3,2,12,37,00,094,,14,53,285,,09,38,259,,15,15,009,*7B,1
1777416862769527561,$GPGSV,3,3,12,04,14,342,,20,03,329,,05,02,050,,10,00,306,*71,1
1777416862911618168,$GPRMC,225422.000,V,1206.2522,S,07701.1989,W,,,280426,,,N*78,1
1777416863255995813,$GPGGA,225423.000,1206.2521,S,07701.1988,W,0,00,,154.2,M,8.3,M,,0000*4D,1
1777416863324740546,$GPGSA,M,1,,,,,,,,,,,,,,,*12,1
1777416863466835658,$GPRMC,225423.000,V,1206.2521,S,07701.1988,W,,,280426,,,N*7B,1
1777416864291869878,$GPGGA,225424.092,1206.2517,S,07701.1986,W,1,04,3.7,154.3,M,8.3,M,,0000*64,1
1777416864399553297,$GPGSA,M,3,29,24,12,11,,,,,,,,,8.2,3.7,7.3*3A,1
1777416864564553651,$GPRMC,225424.092,A,1206.2517,S,07701.1986,W,0.40,348.34,280426,,,A*68,1
1777416865266658798,$GPGGA,225425.092,1206.2516,S,07701.1985,W,1,04,3.7,154.2,M,8.3,M,,0000*66,1
