Unix_time,GPS_data,flagStop
1777416197263140297,$GPGGA,224317.000,1206.2585,S,07701.1954,W,1,05,1.6,152.8,M,8.3,M,,0000*62,0
1777416250136414590,$GPGSA,M,3,24,29,12,11,15,,,,,,,,2.7,1.6,2.2*36,0
1777416250136920167,$GPGSV,3,1,12,24,63,078,40,29,62,287,25,12,33,161,17,11,24,113,15*77,0
1777416250137643297,$GPGSV,3,2,12,15,19,006,23,33,19,083,,14,54,274,,09,36,252,*7F,0
1777416250138310202,$GPGSV,3,3,12,04,10,340,,20,03,324,,05,02,045,,10,01,301,*78,0
1777416250138835872,$GPRMC,224317.000,A,1206.2585,S,07701.1954,W,0.12,245.39,280426,,,A*67,0
1777416250139580134,$GPGGA,224318.000,1206.2584,S,07701.1954,W,1,05,1.6,152.7,M,8.3,M,,0000*63,0
1777416250140348713,$GPGSA,M,3,24,29,12,11,15,,,,,,,,2.7,1.6,2.2*36,0
1777416250140796211,$GPRMC,224318.000,A,1206.2584,S,07701.1954,W,0.04,245.39,280426,,,A*6E,0
1777416250141527509,$GPGGA,224319.000,1206.2582,S,07701.1954,W,1,05,1.6,152.4,M,8.3,M,,0000*67,0
1777416250142292514,$GPGSA,M,3,24,29,12,11,15,,,,,,,,2.7,1.6,2.2*36,0
1777416250142786904,$GPRMC,224319.000,A,1206.2582,S,07701.1954,W,0.70,245.39,280426,,,A*6A,0
1777416250143491793,$GPGGA,224320.000,1206.2580,S,07701.1953,W,1,05,1.6,152.3,M,8.3,M,,0000*6F,0
1777416250144257686,$GPGSA,M,3,24,29,12,11,15,,,,,,,,2.7,1.6,2.2*36,0
1777416250144752077,$GPRMC,224320.000,A,1206.2580,S,07701.1953,W,0.76,245.39,280426,,,A*63,0
1777416250145478893,$GPGGA,224321.000,1206.2581,S,07701.1953,W,1,05,1.6,152.2,M,8.3,M,,0000*6E,0
1777416250146244787,$GPGSA,M,3,24,29,12,11,15,,,,,,,,2.7,1.6,2.2*36,0
1777416250146737751,$GPRMC,224321.000,A,1206.2581,S,07701.1953,W,0.00,245.39,280426,,,A*62,0
1777416250147467438,$GPGGA,224322.000,1206.2581,S,07701.1953,W,1,05,1.6,152.2,M,8.3,M,,0000*6D,0
1777416250148108655,$GPGSA,M,3,24,29,12,11,15,,,,,,,,2.7,1.6,2.2*36,0
1777416250148600545,$GPGSV,3,1,12,24,63,075,39,29,62,284,32,12,32,159,15,11,24,114,15*7E,0
1777416250149304934,$GPGSV,3,2,12,15,18,006,25,33,19,083,,14,54,277,,09,37,253,*7B,0
1777416250149949003,$GPGSV,3,3,12,04,11,340,,20,03,325,,05,02,046,,10,01,302,*78,0
1777416250150571126,$GPRMC,224322.000,A,1206.2581,S,07701.1953,W,0.00,245.39,280426,,,A*61,0
1777416250151301979,$GPGGA,224323.000,1206.2581,S,07701.1953,W,1,05,1.6,152.2,M,8.3,M,,0000*6C,0
1777416250152062206,$GPGSA,M,3,24,29,12,11,15,,,,,,,,2.7,1.6,2.2*36,0
1777416250152464848,$GPRMC,224323.000,A,1206.2581,S,07701.1953,W,0.00,245.39,280426,,,A*60,0
1777416250153158958,$GPGGA,224324.000,1206.2581,S,07701.1953,W,1,05,1.6,152.2,M,8.3,M,,0000*6B,0
1777416250153890423,$GPGSA,M,3,24,29,12,11,15,,,,,,,,2.7,1.6,2.2*36,0
1777416250154364053,$GPRMC,224324.000,A,1206.2581,S,07701.1953,W,0.00,245.39,280426,,,A*67,0
1777416250154985379,$GPGGA,224325.000,1206.2581,S,07701.1953,W,1,05,1.6,152.2,M,8.3,M,,0000*6A,0
1777416250155724567,$GPGSA,M,3,24,29,12,11,15,,,,,,,,2.7,1.6,2.2*36,0
1777416250156198530,$GPRMC,224325.000,A,1206.2581,S,07701.1953,W,0.00,245.39,280426,,,A*66,0
1777416250156850507,$GPGGA,224326.000,1206.2582,S,07701.1957,W,1,05,1.6,152.3,M,8.3,M,,0000*6F,0
1777416250157575212,$GPGSA,M,3,24,29,12,11,15,,,,,,,,2.7,1.6,2.2*36,0
1777416250158045526,$GPRMC,224326.000,A,1206.2582,S,07701.1957,W,0.16,245.39,280426,,,A*65,0
1777416250158735469,$GPGGA,224327.000,1206.2585,S,07701.1959,W,1,05,1.6,152.3,M,8.3,M,,0000*67,0
1777416250159473824,$GPGSA,M,3,24,29,12,11,15,,,,,,,,2.7,1.6,2.2*36,0
1777416250159945194,$GPGSV,3,1,12,24,63,075,39,29,62,284,26,12,32,159,18,11,24,114,14*77,0
1777416250160619562,$GPGSV,3,2,12,15,18,006,26,33,19,083,,14,54,277,,09,37,253,*78,0
1777416250161235017,$GPGSV,3,3,12,04,11,340,,20,03,325,,05,02,046,,10,01,302,*78,0
1777416250161769392,$GPRMC,224327.000,A,1206.2585,S,07701.1959,W,0.65,245.39,280426,,,A*69,0
1777416250162457761,$GPGGA,224328.000,1206.2587,S,07701.1959,W,1,05,1.6,152.4,M,8.3,M,,0000*6D,0
1777416250163184151,$GPGSA,M,3,24,29,12,11,15,,,,,,,,2.7,1.6,2.2*36,0
1777416250163660893,$GPRMC,224328.000,A,1206.2587,S,07701.1959,W,0.14,245.39,280426,,,A*62,0
1777416250163904986,$GPGGA,224329.000,1206.2590,S,07701.1959,W,1,05,1.6,152.1,M,8.3,M,,0000*6F,0
1777416250164109372,$GPGSA,M,3,24,29,12,11,15,,,,,,,,2.7,1.6,2.2*36,0
1777416250164402543,$GPRMC,224329.000,A,1206.2590,S,07701.1959,W,0.21,245.39,280426,,,A*63,0
1777416250165232534,$GPGGA,224330.000,1206.2590,S,07701.1959,W,1,05,1.6,152.1,M,8.3,M,,0000*67,0
1777416250165968018,$GPGSA,M,3,24,29,12,11,15,,,,,,,,2.7,1.6,2.2*36,0
1777416250166431721,$GPRMC,224330.000,A,1206.2590,S,07701.1959,W,0.00,245.39,280426,,,A*68,0
1777416250167111848,$GPGGA,224331.000,1206.2590,S,07701.1959,W,1,05,1.6,152.1,M,8.3,M,,0000*66,0
1777416250167385129,$GPGSA,M,3,24,29,12,11,15,,,,,,,,2.7,1.6,2.2*36,0
1777416250167476340,$GPRMC,224331.000,A,1206.2590,S,07701.1959,W,0.00,245.39,280426,,,A*69,0
1777416250167609258,$GPGGA,224332.000,1206.2589,S,07701.1959,W,1,05,1.6,151.9,M,8.3,M,,0000*66,0
1777416250167750658,$GPGSA,M,3,24,29,12,11,15,,,,,,,,2.7,1.6,2.2*36,0
1777416250167842461,$GPGSV,3,1,12,24,63,075,35,29,62,284,28,12,32,159,19,11,24,114,15*75,0
1777416250167974064,$GPGSV,3,2,12,15,18,006,26,33,19,083,,14,54,277,,09,37,253,*78,0
1777416250168093944,$GPGSV,3,3,12,04,11,340,,20,03,325,,05,02,046,,10,01,302,*78,0
1777416250168210101,$GPRMC,224332.000,A,1206.2589,S,07701.1959,W,0.19,245.39,280426,,,A*6A,0
1777416250168344834,$GPGGA,224333.000,1206.2590,S,07701.1960,W,1,05,1.6,152.1,M,8.3,M,,0000*6E,0
1777416250168486826,$GPGSA,M,3,24,29,12,11,15,,,,,,,,2.7,1.6,2.2*36,0
1777416250168578667,$GPRMC,224333.000,A,1206.2590,S,07701.1960,W,1.33,239.27,280426,,,A*64,0
1777416250168713177,$GPGGA,224334.000,1206.2589,S,07701.1959,W,1,05,1.6,152.2,M,8.3,M,,0000*68,0
1777416250168854244,$GPGSA,M,3,24,29,12,11,15,,,,,,,,2.7,1.6,2.2*36,0
1777416250168945936,$GPRMC,224334.000,A,1206.2589,S,07701.1959,W,0.10,239.27,280426,,,A*61,0
1777416250169079614,$GPGGA,224335.000,1206.2589,S,07701.1959,W,1,05,1.6,152.2,M,8.3,M,,0000*69,0
1777416250169220236,$GPGSA,M,3,24,29,12,11,15,,,,,,,,2.7,1.6,2.2*36,0
1777416250169311484,$GPRMC,224335.000,A,1206.2589,S,07701.1959,W,0.00,239.27,280426,,,A*61,0
1777416250169444624,$GPGGA,224336.000,1206.2589,S,07701.1959,W,1,05,1.6,152.2,M,8.3,M,,0000*6A,0
1777416250169585450,$GPGSA,M,3,24,29,12,11,15,,,,,,,,2.7,1.6,2.2*36,0
1777416250169676420,$GPRMC,224336.000,A,1206.2589,S,07701.1959,W,0.00,239.27,280426,,,A*62,0
1777416250169809486,$GPGGA,224337.000,1206.2589,S,07701.1959,W,1,05,1.6,152.2,M,8.3,M,,0000*6B,0
1777416250169949108,$GPGSA,M,3,24,29,12,11,15,,,,,,,,2.7,1.6,2.2*36,0
1777416250170039967,$GPGSV,3,1,12,24,63,075,41,29,62,284,29,12,32,159,21,11,24,114,14*7D,0
1777416250170169199,$GPGSV,3,2,12,15,18,006,20,33,19,083,,14,54,277,,09,37,253,*7E,0
1777416250170287486,$GPGSV,3,3,12,04,11,340,,20,03,325,,05,02,046,,10,01,302,*78,0
1777416250170401717,$GPRMC,224337.000,A,1206.2589,S,07701.1959,W,0.00,239.27,280426,,,A*63,0
1777416250170534561,$GPGGA,224338.000,1206.2589,S,07701.1959,W,1,05,1.6,152.2,M,8.3,M,,0000*64,0
1777416250170674405,$GPGSA,M,3,24,29,12,11,15,,,,,,,,2.7,1.6,2.2*36,0
1777416250170765079,$GPRMC,224338.000,A,1206.2589,S,07701.1959,W,0.00,239.27,280426,,,A*6C,0
1777416250170898830,$GPGGA,224339.000,1206.2589,S,07701.1959,W,1,05,1.6,152.2,M,8.3,M,,0000*65,0
1777416250171039489,$GPGSA,M,3,24,29,12,11,15,,,,,,,,2.7,1.6,2.2*36,0
1777416250171129885,$GPRMC,224339.000,A,1206.2589,S,07701.1959,W,0.00,239.27,280426,,,A*6D,0
1777416250171864239,$GPGGA,224340.000,1206.2589,S,07701.1959,W,1,05,1.6,152.2,M,8.3,M,,0000*6B,0
1777416250172568758,$GPGSA,M,3,24,29,12,11,15,,,,,,,,2.7,1.6,2.2*36,0
1777416250173025201,$GPRMC,224340.000,A,1206.2589,S,07701.1959,W,0.00,239.27,280426,,,A*63,0
1777416250173691697,$GPGGA,224341.000,1206.2589,S,07701.1959,W,1,05,1.6,152.2,M,8.3,M,,0000*6A,0
1777416250174394845,$GPGSA,M,3,24,29,12,11,15,,,,,,,,2.7,1.6,2.2*36,0
1777416250174849010,$GPRMC,224341.000,A,1206.2589,S,07701.1959,W,0.00,239.27,280426,,,A*62,0
1777416250175524471,$GPGGA,224342.000,1206.2589,S,07701.1959,W,1,05,1.6,152.2,M,8.3,M,,0000*69,0
1777416250176232452,$GPGSA,M,3,24,29,12,11,15,,,,,,,,2.7,1.6,2.2*36,0
1777416250176690747,$GPGSV,3,1,12,24,63,075,40,29,62,284,30,12,32,159,21,11,24,114,15*75,0
1777416250177341187,$GPGSV,3,2,12,15,18,006,20,33,19,083,,14,54,277,,09,37,253,*7E,0
1777416250177865858,$GPGSV,3,3,12,04,11,340,,20,03,325,,05,02,046,,10,01,302,*78,0
1777416250178461923,$GPRMC,224342.000,A,1206.2589,S,07701.1959,W,0.00,239.27,280426,,,A*61,0
1777416250179127401,$GPGGA,224343.000,1206.2589,S,07701.1959,W,1,04,2.2,152.2,M,8.3,M,,0000*6E,0
1777416250179816715,$GPGSA,M,3,24,29,11,15,,,,,,,,,3.5,2.2,2.7*34,0
1777416250179903981,$GPRMC,224343.000,A,1206.2589,S,07701.1959,W,0.00,239.27,280426,,,A*60,0
1777416250180037454,$GPGGA,224344.000,1206.2589,S,07701.1959,W,1,04,2.2,152.2,M,8.3,M,,0000*69,0
1777416250180178169,$GPGSA,M,3,24,29,11,15,,,,,,,,,3.5,2.2,2.7*34,0
1777416250180265361,$GPRMC,224344.000,A,1206.2589,S,07701.1959,W,0.00,239.27,280426,,,A*67,0
1777416250180399316,$GPGGA,224345.000,1206.2589,S,07701.1959,W,1,04,2.2,152.2,M,8.3,M,,0000*68,0
1777416250180540179,$GPGSA,M,3,24,29,11,15,,,,,,,,,3.4,2.2,2.7*35,0
1777416250180628223,$GPRMC,224345.000,A,1206.2589,S,07701.1959,W,0.00,239.27,280426,,,A*66,0
1777416250180762492,$GPGGA,224346.000,1206.2589,S,07701.1959,W,1,04,2.2,152.2,M,8.3,M,,0000*6B,0
1777416250180903337,$GPGSA,M,3,24,29,11,15,,,,,,,,,3.4,2.2,2.7*35,0
1777416250180991251,$GPRMC,224346.000,A,1206.2589,S,07701.1959,W,0.00,239.27,280426,,,A*65,0
1777416250181125484,$GPGGA,224347.000,1206.2589,S,07701.1959,W,1,04,2.2,152.3,M,8.3,M,,0000*6B,0
1777416250181266217,$GPGSA,M,3,24,29,11,15,,,,,,,,,3.4,2.2,2.7*35,0
1777416250181353594,$GPGSV,3,1,12,24,63,075,40,29,62,284,31,11,24,114,16,15,18,006,20*72,0
1777416250181483160,$GPGSV,3,2,12,12,32,159,04,37,00,094,,14,54,277,,09,37,253,*76,0
1777416250181601762,$GPGSV,3,3,12,04,11,340,,20,03,325,,05,02,046,,10,01,302,*78,0
1777416250181716697,$GPRMC,224347.000,A,1206.2589,S,07701.1959,W,0.00,239.27,280426,,,A*64,0
1777416250181849578,$GPGGA,224348.000,1206.2589,S,07701.1959,W,1,04,2.2,152.3,M,8.3,M,,0000*64,0
1777416250181989959,$GPGSA,M,3,24,29,11,15,,,,,,,,,3.4,2.2,2.7*35,0
1777416250182077114,$GPRMC,224348.000,A,1206.2589,S,07701.1959,W,0.00,239.27,280426,,,A*6B,0
1777416250182210143,$GPGGA,224349.000,1206.2589,S,07701.1959,W,1,04,2.2,152.3,M,8.3,M,,0000*65,0
1777416250182351432,$GPGSA,M,3,24,29,11,15,,,,,,,,,3.4,2.2,2.7*35,0
1777416250182439513,$GPRMC,224349.000,A,1206.2589,S,07701.1959,W,0.00,239.27,280426,,,A*6A,0
1777416250182573208,$GPGGA,224350.000,1206.2589,S,07701.1959,W,1,04,2.2,152.3,M,8.3,M,,0000*6D,0
1777416250182714460,$GPGSA,M,3,24,29,11,15,,,,,,,,,3.4,2.2,2.7*35,0
1777416250182801949,$GPRMC,224350.000,A,1206.2589,S,07701.1959,W,0.00,239.27,280426,,,A*62,0
1777416250182935718,$GPGGA,224351.000,1206.2589,S,07701.1959,W,1,04,2.2,152.3,M,8.3,M,,0000*6C,0
1777416250183077100,$GPGSA,M,3,24,29,11,15,,,,,,,,,3.4,2.2,2.7*35,0
1777416250183164625,$GPRMC,224351.000,A,1206.2589,S,07701.1959,W,0.00,239.27,280426,,,A*63,0
1777416250183632569,$GPGGA,224352.000,1206.2589,S,07701.1959,W,1,04,2.2,152.3,M,8.3,M,,0000*6F,0
1777416250184332032,$GPGSA,M,3,24,29,11,15,,,,,,,,,3.4,2.2,2.7*35,0
1777416250184737119,$GPGSV,3,1,12,24,63,075,39,29,62,284,30,11,24,114,16,15,18,006,21*7C,0
1777416250185381077,$GPGSV,3,2,12,12,32,159,04,37,00,094,,14,54,277,,09,37,253,*76,0
1777416250185823500,$GPGSV,3,3,12,04,11,340,,20,03,325,,05,02,046,,10,01,302,*78,0
1777416250185939287,$GPRMC,224352.000,A,1206.2589,S,07701.1959,W,0.00,239.27,280426,,,A*60,0
1777416250186073538,$GPGGA,224353.000,1206.2589,S,07701.1957,W,1,04,2.2,152.4,M,8.3,M,,0000*67,0
1777416250186215124,$GPGSA,M,3,24,29,11,15,,,,,,,,,3.4,2.2,2.7*35,0
1777416250186302853,$GPRMC,224353.000,A,1206.2589,S,07701.1957,W,0.59,239.27,280426,,,A*63,0
1777416250186436845,$GPGGA,224354.000,1206.2590,S,07701.1955,W,1,04,2.2,152.7,M,8.3,M,,0000*69,0
1777416250186578634,$GPGSA,M,3,24,29,11,15,,,,,,,,,3.4,2.2,2.7*35,0
1777416250186666548,$GPRMC,224354.000,A,1206.2590,S,07701.1955,W,0.40,239.27,280426,,,A*66,0
1777416250186801077,$GPGGA,224355.000,1206.2591,S,07701.1954,W,0,00,,152.7,M,8.3,M,,0000*43,0
1777416250186937365,$GPGSA,M,1,,,,,,,,,,,,,,,*12,0
1777416250186993685,$GPRMC,224355.000,V,1206.2591,S,07701.1954,W,,,280426,,,N*76,0
1777416250187109712,$GPGGA,224356.000,1206.2587,S,07701.1952,W,1,05,1.6,153.0,M,8.3,M,,0000*6A,0
1777416250187251186,$GPGSA,M,3,24,29,12,11,15,,,,,,,,2.7,1.6,2.2*36,0
1777416250187364732,$GPRMC,224356.000,A,1206.2587,S,07701.1952,W,0.72,239.27,280426,,,A*64,0
1777416250187497113,$GPGGA,224357.098,1206.2585,S,07701.1951,W,1,05,1.6,153.3,M,8.3,M,,0000*68,0
1777416250187636531,$GPGSA,M,3,24,29,12,11,15,,,,,,,,2.7,1.6,2.2*36,0
1777416250187726538,$GPGSV,3,1,12,24,63,075,40,29,62,284,18,12,32,159,19,11,24,114,17*76,0
1777416250187854567,$GPGSV,3,2,12,15,18,006,22,37,00,094,,14,54,277,,09,37,253,*76,0
1777416250187971687,$GPGSV,3,3,12,04,11,340,,20,03,325,,05,02,046,,10,01,302,*78,0
1777416250188085122,$GPRMC,224357.098,A,1206.2585,S,07701.1951,W,0.70,239.27,280426,,,A*67,0
1777416250188216799,$GPGGA,224358.000,1206.2583,S,07701.1952,W,1,05,1.6,153.5,M,8.3,M,,0000*65,0
1777416250188355921,$GPGSA,M,3,24,29,12,11,15,,,,,,,,2.7,1.6,2.2*36,0
1777416250188445780,$GPRMC,224358.000,A,1206.2583,S,07701.1952,W,0.97,239.27,280426,,,A*65,0
1777416250188577587,$GPGGA,224359.000,1206.2584,S,07701.1952,W,1,05,1.6,154.0,M,8.3,M,,0000*61,0
1777416250188717079,$GPGSA,M,3,24,29,12,11,15,,,,,,,,2.7,1.6,2.2*36,0
1777416250188807012,$GPRMC,224359.000,A,1206.2584,S,07701.1952,W,1.10,239.27,280426,,,A*6D,0
1777416250188939078,$GPGGA,224400.000,1206.2582,S,07701.1955,W,1,05,1.6,154.8,M,8.3,M,,0000*63,0
1777416250189078348,$GPGSA,M,3,24,29,12,11,15,,,,,,,,2.7,1.6,2.2*36,0
1777416250189168281,$GPRMC,224400.000,A,1206.2582,S,07701.1955,W,1.51,252.47,280426,,,A*69,0
1777416250189300088,$GPGGA,224401.000,1206.2572,S,07701.1954,W,1,05,1.6,156.0,M,8.3,M,,0000*66,0
1777416250189439321,$GPGSA,M,3,24,29,12,11,15,,,,,,,,2.7,1.6,2.2*36,0
1777416250189529309,$GPRMC,224401.000,A,1206.2572,S,07701.1954,W,1.12,252.47,280426,,,A*61,0
1777416250189661153,$GPGGA,224402.000,1206.2565,S,07701.1952,W,1,05,1.6,157.0,M,8.3,M,,0000*64,0
1777416250189800405,$GPGSA,M,3,24,29,12,11,15,,,,,,,,2.7,1.6,2.2*36,0
1777416250189890486,$GPGSV,3,1,12,24,63,075,40,29,62,284,18,12,32,159,24,11,24,114,19*76,0
1777416250190019422,$GPGSV,3,2,12,15,18,006,22,37,00,094,,14,54,277,,09,37,253,*76,0
1777416250190137968,$GPGSV,3,3,12,04,11,340,,20,03,325,,05,02,046,,10,01,302,*78,0
1777416250190252848,$GPRMC,224402.000,A,1206.2565,S,07701.1952,W,0.24,252.47,280426,,,A*66,0
1777416250190386228,$GPGGA,224403.000,1206.2563,S,07701.1950,W,1,05,1.6,157.8,M,8.3,M,,0000*69,0
1777416250190526832,$GPGSA,M,3,24,29,12,11,15,,,,,,,,2.7,1.6,2.2*36,0
1777416250190617821,$GPRMC,224403.000,A,1206.2563,S,07701.1950,W,0.98,252.47,280426,,,A*64,0
1777416250190751127,$GPGGA,224404.000,1206.2561,S,07701.1948,W,1,05,1.6,158.1,M,8.3,M,,0000*63,0
1777416250190891786,$GPGSA,M,3,24,29,12,11,15,,,,,,,,2.7,1.6,2.2*36,0
1777416250190982034,$GPRMC,224404.000,A,1206.2561,S,07701.1948,W,0.45,252.47,280426,,,A*68,0
1777416250191114063,$GPGGA,224405.000,1206.2558,S,07701.1947,W,1,05,1.6,158.6,M,8.3,M,,0000*60,0
1777416250191253296,$GPGSA,M,3,24,29,12,11,15,,,,,,,,2.7,1.6,2.2*36,0
1777416250191350989,$GPRMC,224405.000,A,1206.2558,S,07701.1947,W,1.19,261.68,280426,,,A*69,0
1777416250191483648,$GPGGA,224406.000,1206.2555,S,07701.1945,W,1,05,1.6,159.3,M,8.3,M,,0000*68,0
1777416250191623788,$GPGSA,M,3,24,29,12,11,15,,,,,,,,2.7,1.6,2.2*36,0
1777416250191714166,$GPRMC,224406.000,A,1206.2555,S,07701.1945,W,1.28,267.79,280426,,,A*61,0
1777416250191846750,$GPGGA,224407.000,1206.2554,S,07701.1939,W,1,05,1.6,159.4,M,8.3,M,,0000*64,0
1777416250191987706,$GPGSA,M,3,24,29,12,11,15,,,,,,,,2.7,1.6,2.2*36,0
1777416250192079046,$GPGSV,3,1,12,24,63,075,34,29,62,284,33,12,32,159,25,11,24,114,19*7D,0
1777416250192208890,$GPGSV,3,2,12,15,18,006,22,37,00,094,,14,54,277,,09,37,253,*76,0
1777416250192327677,$GPGSV,3,3,12,04,11,340,,20,03,325,,05,02,046,,10,01,302,*78,0
1777416250192443093,$GPRMC,224407.000,A,1206.2554,S,07701.1939,W,0.44,267.79,280426,,,A*61,0
1777416250192576641,$GPGGA,224408.000,1206.2550,S,07701.1931,W,1,05,1.6,160.6,M,8.3,M,,0000*6F,0
1777416250192717652,$GPGSA,M,3,24,29,12,11,15,,,,,,,,2.7,1.6,2.2*36,0
1777416250192808733,$GPRMC,224408.000,A,1206.2550,S,07701.1931,W,0.62,267.79,280426,,,A*66,0
1777416250192941688,$GPGGA,224409.000,1206.2548,S,07701.1933,W,1,05,1.6,162.0,M,8.3,M,,0000*61,0
1777416250193095644,$GPGSA,M,3,24,29,12,11,15,,,,,,,,2.7,1.6,2.2*36,0
1777416250193188948,$GPRMC,224409.000,A,1206.2548,S,07701.1933,W,0.31,267.79,280426,,,A*6A,0
1777416250264611714,$GPGGA,224410.000,1206.2549,S,07701.1936,W,1,05,1.6,163.5,M,8.3,M,,0000*69,0
1777416250376853550,$GPGSA,M,3,24,29,12,11,15,,,,,,,,2.7,1.6,2.2*36,0
1777416250541885950,$GPRMC,224410.000,A,1206.2549,S,07701.1936,W,0.31,267.79,280426,,,A*66,0
1777416251287362669,$GPGGA,224411.000,1206.2549,S,07701.1936,W,1,05,1.6,164.6,M,8.3,M,,0000*6C,0
1777416251399632491,$GPGSA,M,3,24,29,12,11,15,,,,,,,,2.7,1.6,2.2*36,0
1777416251564598706,$GPRMC,224411.000,A,1206.2549,S,07701.1936,W,0.13,267.79,280426,,,A*67,0
1777416252265887470,$GPGGA,224412.000,1206.2550,S,07701.1926,W,1,05,1.6,165.8,M,8.3,M,,0000*69,0
1777416252378175721,$GPGSA,M,3,24,29,12,11,15,,,,,,,,2.7,1.6,2.2*36,0
1777416252538640081,$GPGSV,3,1,12,24,63,075,41,29,62,284,32,12,32,159,26,11,24,114,18*7C,0
1777416252685358483,$GPGSV,3,2,12,15,18,006,24,37,00,094,,14,54,277,,09,37,253,*70,0
1777416252827401120,$GPGSV,3,3,12,04,11,340,,20,03,325,,05,02,046,,10,01,302,*78,0
1777416252992394900,$GPRMC,224412.000,A,1206.2550,S,07701.1926,W,0.19,267.79,280426,,,A*67,0
1777416253288244430,$GPGGA,224413.000,1206.2554,S,07701.1926,W,1,05,1.6,165.7,M,8.3,M,,0000*63,0
1777416253400530091,$GPGSA,M,3,24,29,12,11,15,,,,,,,,2.7,1.6,2.2*36,0
1777416253565506768,$GPRMC,224413.000,A,1206.2554,S,07701.1926,W,0.76,267.79,280426,,,A*6B,0
1777416254266388519,$GPGGA,224414.000,1206.2553,S,07701.1926,W,1,05,1.6,165.6,M,8.3,M,,0000*62,0
1777416254378693483,$GPGSA,M,3,24,29,12,11,15,,,,,,,,2.7,1.6,2.2*36,0
1777416254543715154,$GPRMC,224414.000,A,1206.2553,S,07701.1926,W,0.30,267.79,280426,,,A*69,0
1777416255266834992,$GPGGA,224415.000,1206.2554,S,07701.1928,W,1,05,1.6,164.9,M,8.3,M,,0000*64,0
1777416255379101162,$GPGSA,M,3,24,29,12,11,15,,,,,,,,2.7,1.6,2.2*36,0
1777416255544136307,$GPRMC,224415.000,A,1206.2554,S,07701.1928,W,0.32,267.79,280426,,,A*63,0
1777416256288729863,$GPGGA,224416.000,1206.2552,S,07701.1929,W,1,05,1.6,164.8,M,8.3,M,,0000*61,0
1777416256401080119,$GPGSA,M,3,24,29,12,11,15,,,,,,,,2.7,1.6,2.2*36,0
1777416256566117888,$GPRMC,224416.000,A,1206.2552,S,07701.1929,W,0.28,267.79,280426,,,A*6C,0
1777416257266325094,$GPGGA,224417.000,1206.2552,S,07701.1930,W,1,05,1.6,164.8,M,8.3,M,,0000*68,0
1777416257378581498,$GPGSA,M,3,24,29,12,11,15,,,,,,,,2.7,1.6,2.2*36,0
1777416257538984966,$GPGSV,3,1,12,24,63,075,41,29,62,284,34,12,32,159,22,11,24,114,18*7E,0
1777416257685647801,$GPGSV,3,2,12,15,18,006,19,39,00,000,,14,54,277,,09,37,253,*7D,0
1777416257827743067,$GPGSV,3,3,12,04,11,340,,20,03,325,,05,02,046,,10,01,302,*78,0
1777416257992775127,$GPRMC,224417.000,A,1206.2552,S,07701.1930,W,0.10,267.79,280426,,,A*6E,0
1777416258267600429,$GPGGA,224418.000,1206.2551,S,07701.1930,W,1,05,1.6,164.4,M,8.3,M,,0000*68,0
1777416258379863877,$GPGSA,M,3,24,29,12,11,15,,,,,,,,2.7,1.6,2.2*36,0
1777416258544836225,$GPRMC,224418.000,A,1206.2551,S,07701.1930,W,0.00,267.79,280426,,,A*63,0
1777416259266119390,$GPGGA,224419.000,1206.2552,S,07701.1930,W,1,05,1.6,164.2,M,8.3,M,,0000*6C,0
1777416259378439203,$GPGSA,M,3,24,29,12,11,15,,,,,,,,2.7,1.6,2.2*36,0
1777416259543423400,$GPRMC,224419.000,A,1206.2552,S,07701.1930,W,0.48,267.79,280426,,,A*6D,0
1777416260266339556,$GPGGA,224420.000,1206.2551,S,07701.1931,W,1,05,1.6,163.8,M,8.3,M,,0000*69,0
1777416260378678324,$GPGSA,M,3,24,29,12,11,15,,,,,,,,2.7,1.6,2.2*36,0
1777416260543642592,$GPRMC,224420.000,A,1206.2551,S,07701.1931,W,0.40,267.79,280426,,,A*6D,0
1777416261266373379,$GPGGA,224421.000,1206.2554,S,07701.1932,W,1,05,1.6,163.4,M,8.3,M,,0000*62,0
1777416261378707619,$GPGSA,M,3,24,29,12,11,15,,,,,,,,2.7,1.6,2.2*36,0
1777416261543676128,$GPRMC,224421.000,A,1206.2554,S,07701.1932,W,0.55,267.79,280426,,,A*6E,0
1777416262271589445,$GPGGA,224422.000,1206.2549,S,07701.1934,W,1,05,1.6,163.3,M,8.3,M,,0000*6C,0
1777416262383907287,$GPGSA,M,3,24,29,12,11,15,,,,,,,,2.7,1.6,2.2*36,0
1777416262544321120,$GPGSV,3,1,12,24,63,075,33,29,62,284,34,12,32,159,28,11,24,114,18*71,0
1777416262695559115,$GPGSV,3,2,12,15,18,006,22,05,02,046,16,39,00,000,,14,54,277,*7E,0
1777416262837650124,$GPGSV,3,3,12,09,37,253,,04,11,340,,20,03,325,,10,01,302,*74,0
1777416263002687268,$GPRMC,224422.000,A,1206.2549,S,07701.1934,W,1.76,324.51,280426,,,A*6B,0
1777416263267286663,$GPGGA,224423.000,1206.2545,S,07701.1935,W,1,05,1.6,162.6,M,8.3,M,,0000*64,0
1777416263379637427,$GPGSA,M,3,24,29,12,11,15,,,,,,,,2.7,1.6,2.2*36,0
1777416263544577325,$GPRMC,224423.000,A,1206.2545,S,07701.1935,W,2.65,338.68,280426,,,A*61,0
1777416264267524345,$GPGGA,224424.000,1206.2541,S,07701.1937,W,1,05,1.6,162.2,M,8.3,M,,0000*61,0
1777416264379862843,$GPGSA,M,3,24,29,12,11,15,,,,,,,,2.7,1.6,2.2*36,0
1777416264544792428,$GPRMC,224424.000,A,1206.2541,S,07701.1937,W,2.65,339.50,280426,,,A*6A,0
1777416265266053571,$GPGGA,224425.000,1206.2535,S,07701.1939,W,1,05,1.6,161.8,M,8.3,M,,0000*64,0
1777416265378317891,$GPGSA,M,3,24,29,12,11,15,,,,,,,,2.7,1.6,2.2*36,0
1777416265543394824,$GPRMC,224425.000,A,1206.2535,S,07701.1939,W,2.62,341.50,280426,,,A*6E,0
1777416266265445387,$GPGGA,224426.000,1206.2532,S,07701.1940,W,1,05,1.6,160.9,M,8.3,M,,0000*6E,0
1777416266377709777,$GPGSA,M,3,24,29,12,11,15,,,,,,,,2.7,1.6,2.2*36,0
1777416266542748416,$GPRMC,224426.000,A,1206.2532,S,07701.1940,W,2.48,339.82,280426,,,A*6C,0
1777416267267543216,$GPGGA,224427.000,1206.2529,S,07701.1943,W,1,05,1.6,160.2,M,8.3,M,,0000*6D,0
1777416267379858919,$GPGSA,M,3,24,29,12,11,15,,,,,,,,2.7,1.6,2.2*36,0
1777416267540260921,$GPGSV,3,1,12,24,63,075,28,29,62,284,29,12,32,159,39,11,24,114,17*78,0
1777416267686915116,$GPGSV,3,2,12,15,18,006,21,39,00,000,,14,54,277,,09,37,253,*76,0
1777416267829023358,$GPGSV,3,3,12,04,11,340,,20,03,325,,05,02,046,,10,01,302,*78,0
1777416267994032112,$GPRMC,224427.000,A,1206.2529,S,07701.1943,W,2.28,340.86,280426,,,A*68,0
1777416268267745608,$GPGGA,224428.000,1206.2525,S,07701.1945,W,1,05,1.6,159.8,M,8.3,M,,0000*68,0
1777416268380074106,$GPGSA,M,3,24,29,12,11,15,,,,,,,,2.7,1.6,2.2*36,0
1777416268545042273,$GPRMC,224428.000,A,1206.2525,S,07701.1945,W,1.62,340.36,280426,,,A*6B,0
1777416269267150299,$GPGGA,224429.000,1206.2519,S,07701.1947,W,1,05,1.6,159.2,M,8.3,M,,0000*6E,0
1777416269379470775,$GPGSA,M,3,24,29,12,11,15,,,,,,,,2.7,1.6,2.2*36,0
1777416269544447006,$GPRMC,224429.000,A,1206.2519,S,07701.1947,W,2.19,341.63,280426,,,A*69,0
1777416270290726711,$GPGGA,224430.000,1206.2515,S,07701.1951,W,1,05,1.6,158.6,M,8.3,M,,0000*68,0
1777416270402992108,$GPGSA,M,3,24,29,12,11,15,,,,,,,,2.7,1.6,2.2*36,0
1777416270568004092,$GPRMC,224430.000,A,1206.2515,S,07701.1951,W,2.14,340.17,280426,,,A*65,0
1777416271268327312,$GPGGA,224431.000,1206.2511,S,07701.1954,W,1,05,1.6,158.1,M,8.3,M,,0000*6F,0
1777416271380517852,$GPGSA,M,3,24,29,12,11,15,,,,,,,,2.7,1.6,2.2*36,0
1777416271545554515,$GPRMC,224431.000,A,1206.2511,S,07701.1954,W,1.41,341.20,280426,,,A*63,0
1777416272268019208,$GPGGA,224432.000,1206.2508,S,07701.1955,W,1,05,1.6,157.8,M,8.3,M,,0000*63,0
1777416272380341199,$GPGSA,M,3,24,29,12,11,15,,,,,,,,2.7,1.6,2.2*36,0
1777416272540757325,$GPGSV,3,1,12,24,63,075,28,29,62,284,31,12,32,159,36,11,24,114,16*7F,0
1777416272687390051,$GPGSV,3,2,12,15,18,006,22,39,00,000,,14,54,277,,09,37,253,*75,0
1777416272829497048,$GPGSV,3,3,12,04,11,340,,20,03,325,,05,02,046,,10,01,302,*78,0
1777416272994519795,$GPRMC,224432.000,A,1206.2508,S,07701.1955,W,2.37,342.98,280426,,,A*6B,0
1777416273267855546,$GPGGA,224433.000,1206.2504,S,07701.1957,W,1,05,1.6,157.6,M,8.3,M,,0000*62,0
1777416273380122202,$GPGSA,M,3,24,29,12,11,15,,,,,,,,2.7,1.6,2.2*36,0
1777416273545154389,$GPRMC,224433.000,A,1206.2504,S,07701.1957,W,2.32,341.75,280426,,,A*61,0
1777416274268254264,$GPGGA,224434.000,1206.2497,S,07701.1959,W,1,05,1.6,156.3,M,8.3,M,,0000*64,0
1777416274380566442,$GPGSA,M,3,24,29,12,11,15,,,,,,,,2.7,1.6,2.2*36,0
1777416274545596383,$GPRMC,224434.000,A,1206.2497,S,07701.1959,W,1.77,343.35,280426,,,A*67,0
1777416275268514961,$GPGGA,224435.000,1206.2488,S,07701.1961,W,1,05,1.6,154.1,M,8.3,M,,0000*60,0
1777416275380771656,$GPGSA,M,3,24,29,12,11,15,,,,,,,,2.7,1.6,2.2*36,0
1777416275545804113,$GPRMC,224435.000,A,1206.2488,S,07701.1961,W,2.07,346.99,280426,,,A*64,0
1777416276268532633,$GPGGA,224436.000,1206.2483,S,07701.1965,W,1,05,1.6,153.6,M,8.3,M,,0000*6C,0
1777416276380795627,$GPGSA,M,3,24,29,12,11,15,,,,,,,,2.7,1.6,2.2*36,0
1777416276545816229,$GPRMC,224436.000,A,1206.2483,S,07701.1965,W,1.46,346.57,280426,,,A*6C,0
1777416277267289716,$GPGGA,224437.000,1206.2477,S,07701.1972,W,1,05,1.6,153.7,M,8.3,M,,0000*61,0
1777416277379567826,$GPGSA,M,3,24,29,12,11,15,,,,,,,,2.7,1.6,2.2*36,0
1777416277539973544,$GPGSV,3,1,12,24,63,075,28,29,62,284,40,12,32,159,37,11,24,114,21*7C,0
1777416277686633345,$GPGSV,3,2,12,15,18,006,23,39,00,000,,14,54,277,,09,37,253,*74,0
1777416277828716304,$GPGSV,3,3,12,04,11,340,,20,03,325,,05,02,046,,10,01,302,*78,0
1777416277993695013,$GPRMC,224437.000,A,1206.2477,S,07701.1972,W,1.64,346.38,280426,,,A*69,0
1777416278267918143,$GPGGA,224438.000,1206.2472,S,07701.1975,W,1,05,1.6,153.7,M,8.3,M,,0000*6C,0
1777416278380206110,$GPGSA,M,3,24,29,12,11,15,,,,,,,,2.7,1.6,2.2*36,0
1777416278545181114,$GPRMC,224438.000,A,1206.2472,S,07701.1975,W,1.11,346.38,280426,,,A*66,0
1777416279290209429,$GPGGA,224439.000,1206.2471,S,07701.1980,W,1,05,1.6,153.3,M,8.3,M,,0000*60,0
1777416279402467788,$GPGSA,M,3,24,29,12,11,15,,,,,,,,2.7,1.6,2.2*36,0
1777416279567504240,$GPRMC,224439.000,A,1206.2471,S,07701.1980,W,0.16,346.38,280426,,,A*68,1
1777416280289352971,$GPGGA,224440.000,1206.2472,S,07701.1984,W,1,05,1.6,152.9,M,8.3,M,,0000*62,1
1777416280401665689,$GPGSA,M,3,24,29,12,11,15,,,,,,,,2.7,1.6,2.2*36,1
1777416280566639955,$GPRMC,224440.000,A,1206.2472,S,07701.1984,W,0.19,346.38,280426,,,A*6E,1
1777416281289364767,$GPGGA,224441.000,1206.2472,S,07701.1987,W,1,05,1.6,152.3,M,8.3,M,,0000*6A,1
1777416281401685455,$GPGSA,M,3,24,29,12,11,15,,,,,,,,2.7,1.6,2.2*36,1
1777416281566657649,$GPRMC,224441.000,A,1206.2472,S,07701.1987,W,0.19,346.38,280426,,,A*6C,1
1777416282267555945,$GPGGA,224442.000,1206.2473,S,07701.1991,W,1,05,1.6,151.8,M,8.3,M,,0000*67,1
1777416282379801673,$GPGSA,M,3,24,29,12,11,15,,,,,,,,2.7,1.6,2.2*36,1
1777416282540234344,$GPGSV,3,1,12,24,63,075,35,29,62,284,46,12,32,159,37,11,24,114,20*77,1
1777416282686883797,$GPGSV,3,2,12,15,18,006,27,39,00,000,,14,54,277,,09,37,253,*70,1
1777416282828976465,$GPGSV,3,3,12,04,11,340,,20,03,325,,05,02,046,,10,01,302,*78,1
1777416282993925642,$GPRMC,224442.000,A,1206.2473,S,07701.1991,W,0.14,346.38,280426,,,A*64,1
1777416283268538365,$GPGGA,224443.000,1206.2474,S,07701.1996,W,1,05,1.6,151.1,M,8.3,M,,0000*6F,1
1777416283380837029,$GPGSA,M,3,24,29,12,11,15,,,,,,,,2.7,1.6,2.2*36,1
1777416283545813380,$GPRMC,224443.000,A,1206.2474,S,07701.1996,W,0.36,346.38,280426,,,A*65,1
1777416284268574479,$GPGGA,224444.000,1206.2475,S,07701.2000,W,1,05,1.6,150.6,M,8.3,M,,0000*6A,1
1777416284380839483,$GPGSA,M,3,24,29,12,11,15,,,,,,,,2.7,1.6,2.2*36,1
1777416284545866378,$GPRMC,224444.000,A,1206.2475,S,07701.2000,W,0.06,346.38,280426,,,A*65,1
1777416285272911925,$GPGGA,224445.000,1206.2475,S,07701.2000,W,1,05,1.6,150.6,M,8.3,M,,0000*6B,1
1777416285385196939,$GPGSA,M,3,24,29,12,11,15,,,,,,,,2.7,1.6,2.2*36,1
1777416285550220044,$GPRMC,224445.000,A,1206.2475,S,07701.2000,W,0.00,346.38,280426,,,A*62,1
1777416286268739525,$GPGGA,224446.000,1206.2475,S,07701.2003,W,1,05,1.6,149.7,M,8.3,M,,0000*62,1
1777416286381013196,$GPGSA,M,3,24,29,12,11,15,,,,,,,,2.7,1.6,2.2*36,1
1777416286546018178,$GPRMC,224446.000,A,1206.2475,S,07701.2003,W,0.04,346.38,280426,,,A*66,1
1777416287269784325,$GPGGA,224447.000,1206.2474,S,07701.2005,W,1,05,1.6,149.1,M,8.3,M,,0000*62,1
1777416287382058468,$GPGSA,M,3,24,29,12,11,15,,,,,,,,2.7,1.6,2.2*36,1
1777416287542477447,$GPGSV,3,1,12,24,63,075,36,29,62,284,45,12,32,159,28,11,24,114,20*79,1
1777416287689142429,$GPGSV,3,2,12,15,18,006,31,42,00,000,,14,54,277,,09,37,253,*7B,1
1777416287831217564,$GPGSV,3,3,12,04,11,340,,20,03,325,,05,02,046,,10,01,302,*78,1
1777416287996232630,$GPRMC,224447.000,A,1206.2474,S,07701.2005,W,0.35,346.38,280426,,,A*62,1
1777416288270387349,$GPGGA,224448.000,1206.2474,S,07701.2005,W,1,05,1.6,149.0,M,8.3,M,,0000*6C,1
1777416288382742118,$GPGSA,M,3,24,29,12,11,15,,,,,,,,2.7,1.6,2.2*36,1
1777416288547672800,$GPRMC,224448.000,A,1206.2474,S,07701.2005,W,0.01,346.38,280426,,,A*6A,1
1777416289269354290,$GPGGA,224449.000,1206.2474,S,07701.2005,W,1,05,1.6,149.0,M,8.3,M,,0000*6D,1
1777416289381631234,$GPGSA,M,3,24,29,12,11,15,,,,,,,,2.7,1.6,2.2*36,1
1777416289546641985,$GPRMC,224449.000,A,1206.2474,S,07701.2005,W,0.00,346.38,280426,,,A*6A,1
1777416290294988431,$GPGGA,224450.000,1206.2474,S,07701.2006,W,1,05,1.6,149.0,M,8.3,M,,0000*66,1
1777416290407298573,$GPGSA,M,3,24,29,12,11,15,,,,,,,,2.7,1.6,2.2*36,1
1777416290572260408,$GPRMC,224450.000,A,1206.2474,S,07701.2006,W,0.00,346.38,280426,,,A*61,1
1777416291269559884,$GPGGA,224451.000,1206.2474,S,07701.2006,W,1,05,1.6,149.0,M,8.3,M,,0000*67,0
1777416291381847890,$GPGSA,M,3,24,29,12,11,15,,,,,,,,2.7,1.6,2.2*36,0
1777416291546864813,$GPRMC,224451.000,A,1206.2474,S,07701.2006,W,0.00,346.38,280426,,,A*60,0
1777416292272684621,$GPGGA,224452.000,1206.2473,S,07701.2007,W,1,05,1.6,148.7,M,8.3,M,,0000*64,0
1777416292384972233,$GPGSA,M,3,24,29,12,11,15,,,,,,,,2.7,1.6,2.2*36,0
1777416292545389673,$GPGSV,3,1,12,24,63,075,34,29,62,284,44,12,32,159,31,11,24,114,19*78,0
1777416292696639734,$GPGSV,3,2,12,15,18,006,30,05,02,046,04,42,00,000,,14,54,277,*72,0
1777416292838731990,$GPGSV,3,3,12,09,37,253,,04,11,340,,20,03,325,,10,01,302,*74,0
1777416293003723035,$GPRMC,224452.000,A,1206.2473,S,07701.2007,W,0.06,346.38,280426,,,A*63,0
1777416293269141621,$GPGGA,224453.000,1206.2474,S,07701.2009,W,1,05,1.6,148.3,M,8.3,M,,0000*68,0
1777416293381445247,$GPGSA,M,3,24,29,12,11,15,,,,,,,,2.7,1.6,2.2*36,0
1777416293546419992,$GPRMC,224453.000,A,1206.2474,S,07701.2009,W,0.60,346.38,280426,,,A*6B,0
1777416294270810016,$GPGGA,224454.000,1206.2477,S,07701.2008,W,1,05,1.6,148.3,M,8.3,M,,0000*6D,0
1777416294383090248,$GPGSA,M,3,24,29,12,11,15,,,,,,,,2.7,1.6,2.2*36,0
1777416294548088360,$GPRMC,224454.000,A,1206.2477,S,07701.2008,W,1.57,255.78,280426,,,A*6C,0
1777416295269958373,$GPGGA,224455.000,1206.2481,S,07701.2009,W,1,05,1.6,148.1,M,8.3,M,,0000*66,0
1777416295382258695,$GPGSA,M,3,24,29,12,11,15,,,,,,,,2.7,1.6,2.2*36,0
1777416295547248897,$GPRMC,224455.000,A,1206.2481,S,07701.2009,W,1.30,232.45,280426,,,A*6B,0
1777416296269556949,$GPGGA,224456.000,1206.2485,S,07701.2010,W,1,05,1.6,147.5,M,8.3,M,,0000*62,0
1777416296381829989,$GPGSA,M,3,24,29,12,11,15,,,,,,,,2.7,1.6,2.2*36,0
1777416296546820467,$GPRMC,224456.000,A,1206.2485,S,07701.2010,W,1.47,215.96,280426,,,A*6F,0
1777416297269536430,$GPGGA,224457.000,1206.2489,S,07701.2008,W,1,05,1.6,147.3,M,8.3,M,,0000*60,0
1777416297381826340,$GPGSA,M,3,24,29,12,11,15,,,,,,,,2.7,1.6,2.2*36,0
1777416297542231763,$GPGSV,3,1,12,24,63,075,26,29,62,284,38,12,32,159,38,11,24,114,20*73,0
1777416297688907119,$GPGSV,3,2,12,15,18,006,26,42,00,000,,14,54,277,,09,37,253,*7D,0
1777416297831020867,$GPGSV,3,3,12,04,11,340,,20,03,325,,05,02,046,,10,01,302,*78,0
1777416297995993213,$GPRMC,224457.000,A,1206.2489,S,07701.2008,W,1.65,203.86,280426,,,A*6D,0
1777416298270146609,$GPGGA,224458.000,1206.2492,S,07701.2007,W,1,05,1.6,147.0,M,8.3,M,,0000*69,0
1777416298382431294,$GPGSA,M,3,24,29,12,11,15,,,,,,,,2.7,1.6,2.2*36,0
1777416298547438493,$GPRMC,224458.000,A,1206.2492,S,07701.2007,W,1.67,202.36,280426,,,A*6F,0
1777416299270567351,$GPGGA,224459.000,1206.2497,S,07701.2007,W,1,05,1.6,146.6,M,8.3,M,,0000*6A,0
1777416299382852665,$GPGSA,M,3,24,29,12,11,15,,,,,,,,2.7,1.6,2.2*36,0
1777416299547896625,$GPRMC,224459.000,A,1206.2497,S,07701.2007,W,1.43,198.76,280426,,,A*69,0
1777416300271188653,$GPGGA,224500.000,1206.2502,S,07701.2005,W,1,05,1.6,146.5,M,8.3,M,,0000*6B,0
1777416300383484819,$GPGSA,M,3,24,29,12,11,15,,,,,,,,2.7,1.6,2.2*36,0
1777416300548470223,$GPRMC,224500.000,A,1206.2502,S,07701.2005,W,2.11,183.38,280426,,,A*6F,0
1777416301269516578,$GPGGA,224501.000,1206.2507,S,07701.2001,W,1,05,1.6,146.3,M,8.3,M,,0000*6D,0
1777416301381799502,$GPGSA,M,3,24,29,12,11,15,,,,,,,,2.7,1.6,2.2*36,0
1777416301546796521,$GPRMC,224501.000,A,1206.2507,S,07701.2001,W,2.20,171.94,280426,,,A*66,0
1777416302294908337,$GPGGA,224502.000,1206.2513,S,07701.2000,W,1,05,1.6,146.1,M,8.3,M,,0000*68,0
1777416302407201596,$GPGSA,M,3,24,29,12,11,15,,,,,,,,2.7,1.6,2.2*36,0
1777416302567626191,$GPGSV,3,1,12,24,63,075,29,29,62,284,30,12,32,159,43,11,24,114,18*73,0
1777416302714283819,$GPGSV,3,2,12,15,18,006,26,42,00,000,,14,54,277,,09,37,253,*7D,0
1777416302856375484,$GPGSV,3,3,12,04,11,340,,20,03,325,,05,02,046,,10,01,302,*78,0
1777416303021375049,$GPRMC,224502.000,A,1206.2513,S,07701.2000,W,2.03,169.65,280426,,,A*67,0
1777416303295585855,$GPGGA,224503.000,1206.2519,S,07701.1998,W,1,05,1.6,145.8,M,8.3,M,,0000*62,0
1777416303407821835,$GPGSA,M,3,24,29,12,11,15,,,,,,,,2.7,1.6,2.2*36,0
1777416303572822824,$GPRMC,224503.000,A,1206.2519,S,07701.1998,W,1.92,167.35,280426,,,A*67,0
1777416304270525984,$GPGGA,224504.000,1206.2524,S,07701.1995,W,1,05,1.6,145.7,M,8.3,M,,0000*69,0
1777416304382806931,$GPGSA,M,3,24,29,12,11,15,,,,,,,,2.7,1.6,2.2*36,0
1777416304547819425,$GPRMC,224504.000,A,1206.2524,S,07701.1995,W,2.19,165.02,280426,,,A*65,0
1777416305269480986,$GPGGA,224505.000,1206.2531,S,07701.1993,W,1,05,1.6,145.4,M,8.3,M,,0000*69,0
1777416305381763862,$GPGSA,M,3,24,29,12,11,15,,,,,,,,2.7,1.6,2.2*36,0
1777416305546760250,$GPRMC,224505.000,A,1206.2531,S,07701.1993,W,2.02,165.63,280426,,,A*6B,0
1777416306270133372,$GPGGA,224506.000,1206.2536,S,07701.1990,W,1,05,1.6,145.5,M,8.3,M,,0000*6F,0
1777416306382378286,$GPGSA,M,3,24,29,12,11,15,,,,,,,,2.7,1.6,2.2*36,0
1777416306547368496,$GPRMC,224506.000,A,1206.2536,S,07701.1990,W,1.98,165.75,280426,,,A*6B,0
1777416307295326019,$GPGGA,224507.000,1206.2540,S,07701.1986,W,1,05,1.6,145.6,M,8.3,M,,0000*6B,0
1777416307407583641,$GPGSA,M,3,24,29,12,11,15,,,,,,,,2.7,1.6,2.2*36,0
1777416307567985871,$GPGSV,3,1,12,24,63,075,25,29,62,284,30,12,32,159,40,11,24,114,17*73,0
1777416307714646494,$GPGSV,3,2,12,15,18,006,21,42,00,000,,14,54,277,,09,37,253,*7A,0
1777416307856722427,$GPGSV,3,3,12,04,11,340,,20,03,325,,05,02,046,,10,01,302,*78,0
1777416308021717448,$GPRMC,224507.000,A,1206.2540,S,07701.1986,W,1.90,158.17,280426,,,A*6E,0
1777416308269241436,$GPGGA,224508.000,1206.2546,S,07701.1985,W,1,05,1.6,145.4,M,8.3,M,,0000*63,0
1777416308381514525,$GPGSA,M,3,24,29,12,11,15,,,,,,,,2.7,1.6,2.2*36,0
1777416308546549289,$GPRMC,224508.000,A,1206.2546,S,07701.1985,W,2.05,158.27,280426,,,A*68,0
1777416309269442927,$GPGGA,224509.000,1206.2553,S,07701.1986,W,1,05,1.6,145.0,M,8.3,M,,0000*61,0
1777416309381699428,$GPGSA,M,3,24,29,12,11,15,,,,,,,,2.7,1.6,2.2*36,0
1777416309546731053,$GPRMC,224509.000,A,1206.2553,S,07701.1986,W,2.43,159.35,280426,,,A*6E,0
1777416310269638818,$GPGGA,224510.000,1206.2561,S,07701.1987,W,1,05,1.6,144.8,M,8.3,M,,0000*60,0
1777416310381901917,$GPGSA,M,3,24,29,12,11,15,,,,,,,,2.7,1.6,2.2*36,0
1777416310546901828,$GPRMC,224510.000,A,1206.2561,S,07701.1987,W,2.10,160.98,280426,,,A*6D,0
1777416311269811910,$GPGGA,224511.000,1206.2567,S,07701.1988,W,1,05,1.6,144.8,M,8.3,M,,0000*68,0
1777416311382094663,$GPGSA,M,3,24,29,12,11,15,,,,,,,,2.7,1.6,2.2*36,0
1777416311547088881,$GPRMC,224511.000,A,1206.2567,S,07701.1988,W,2.15,162.81,280426,,,A*6A,0
1777416312270225622,$GPGGA,224512.000,1206.2571,S,07701.1987,W,1,05,1.6,144.6,M,8.3,M,,0000*6D,0
1777416312382506345,$GPGSA,M,3,24,29,12,11,15,,,,,,,,2.7,1.6,2.2*36,0
1777416312542912009,$GPGSV,3,1,12,24,63,075,27,29,62,284,31,12,32,159,35,11,24,114,16*73,0
1777416312689584090,$GPGSV,3,2,12,15,18,006,21,42,00,000,,14,54,277,,09,37,253,*7A,0
1777416312831653883,$GPGSV,3,3,12,04,11,340,,20,03,325,,05,02,046,,10,01,302,*78,0
1777416312996657502,$GPRMC,224512.000,A,1206.2571,S,07701.1987,W,1.26,162.36,280426,,,A*6E,0
1777416313269151246,$GPGGA,224513.000,1206.2571,S,07701.1983,W,1,05,1.6,144.8,M,8.3,M,,0000*66,0
1777416313381434901,$GPGSA,M,3,24,29,12,11,15,,,,,,,,2.7,1.6,2.2*36,0
1777416313546446291,$GPRMC,224513.000,A,1206.2571,S,07701.1983,W,0.73,162.36,280426,,,A*6A,0
1777416314269769709,$GPGGA,224514.000,1206.2569,S,07701.1979,W,1,05,1.6,145.0,M,8.3,M,,0000*64,0
1777416314382045649,$GPGSA,M,3,24,29,12,11,15,,,,,,,,2.7,1.6,2.2*36,0
1777416314547039015,$GPRMC,224514.000,A,1206.2569,S,07701.1979,W,0.66,162.36,280426,,,A*65,0
1777416315270379838,$GPGGA,224515.000,1206.2569,S,07701.1976,W,1,05,1.6,145.2,M,8.3,M,,0000*68,0
1777416315382650304,$GPGSA,M,3,24,29,12,11,15,,,,,,,,2.7,1.6,2.2*36,0
1777416315547666351,$GPRMC,224515.000,A,1206.2569,S,07701.1976,W,0.59,162.36,280426,,,A*67,0
1777416316270164928,$GPGGA,224516.000,1206.2570,S,07701.1972,W,1,05,1.6,145.5,M,8.3,M,,0000*60,0
1777416316382426883,$GPGSA,M,3,24,29,12,11,15,,,,,,,,2.7,1.6,2.2*36,0
1777416316547442871,$GPRMC,224516.000,A,1206.2570,S,07701.1972,W,0.31,162.36,280426,,,A*66,0
1777416317271179818,$GPGGA,224517.000,1206.2572,S,07701.1972,W,1,05,1.6,145.7,M,8.3,M,,0000*61,0
1777416317383452005,$GPGSA,M,3,24,29,12,11,15,,,,,,,,2.7,1.6,2.2*36,0
1777416317543889067,$GPGSV,3,1,12,24,63,075,39,29,62,284,25,12,32,159,29,11,24,114,18*7A,0
1777416317690549345,$GPGSV,3,2,12,15,18,006,21,50,00,000,,14,54,277,,09,37,253,*79,0
1777416317832617811,$GPGSV,3,3,12,04,11,340,,20,03,325,,05,02,046,,10,01,302,*78,1
1777416317997598924,$GPRMC,224517.000,A,1206.2572,S,07701.1972,W,0.98,162.36,280426,,,A*66,1
1777416318271150970,$GPGGA,224518.000,1206.2573,S,07701.1970,W,1,05,1.6,145.8,M,8.3,M,,0000*62,1
1777416318383435389,$GPGSA,M,3,24,29,12,11,15,,,,,,,,2.7,1.6,2.2*36,1
1777416318548442019,$GPRMC,224518.000,A,1206.2573,S,07701.1970,W,0.49,162.36,280426,,,A*66,1
1777416319270502681,$GPGGA,224519.000,1206.2576,S,07701.1969,W,1,05,1.6,145.9,M,8.3,M,,0000*6F,1
1777416319382793499,$GPGSA,M,3,24,29,12,11,15,,,,,,,,2.7,1.6,2.2*36,1
1777416319547784515,$GPRMC,224519.000,A,1206.2576,S,07701.1969,W,0.09,162.36,280426,,,A*6E,1
1777416320270286721,$GPGGA,224520.000,1206.2578,S,07701.1971,W,1,05,1.6,146.1,M,8.3,M,,0000*69,1
1777416320382568012,$GPGSA,M,3,24,29,12,11,15,,,,,,,,2.7,1.6,2.2*36,1
1777416320547569360,$GPRMC,224520.000,A,1206.2578,S,07701.1971,W,0.66,162.36,280426,,,A*6A,1
1777416321294856002,$GPGGA,224521.000,1206.2581,S,07701.1970,W,1,05,1.6,146.3,M,8.3,M,,0000*6D,1
1777416321407120303,$GPGSA,M,3,24,29,12,11,15,,,,,,,,2.7,1.6,2.2*36,1
1777416321572133726,$GPRMC,224521.000,A,1206.2581,S,07701.1970,W,0.14,162.36,280426,,,A*69,1
1777416322271495997,$GPGGA,224522.000,1206.2583,S,07701.1967,W,1,05,1.6,146.3,M,8.3,M,,0000*6A,1
1777416322383771736,$GPGSA,M,3,24,29,12,11,15,,,,,,,,2.7,1.6,2.2*36,1
1777416322544184658,$GPGSV,3,1,12,24,63,075,41,29,62,284,30,12,32,159,29,11,24,114,19*70,1
1777416322690846742,$GPGSV,3,2,12,15,18,006,20,50,00,000,,14,54,277,,09,37,253,*78,1
1777416322832946880,$GPGSV,3,3,12,04,11,340,,20,03,325,,05,02,046,,10,01,302,*78,1
1777416322997926117,$GPRMC,224522.000,A,1206.2583,S,07701.1967,W,0.59,162.36,280426,,,A*67,1
1777416323270027656,$GPGGA,224523.000,1206.2585,S,07701.1966,W,1,05,1.6,146.4,M,8.3,M,,0000*6B,1
1777416323382288351,$GPGSA,M,3,24,29,12,11,15,,,,,,,,2.7,1.6,2.2*36,1
1777416323547282516,$GPRMC,224523.000,A,1206.2585,S,07701.1966,W,0.20,162.36,280426,,,A*6F,1
1777416324269582082,$GPGGA,224524.000,1206.2587,S,07701.1967,W,1,05,1.6,146.5,M,8.3,M,,0000*6E,1
1777416324381851549,$GPGSA,M,3,24,29,12,11,15,,,,,,,,2.7,1.6,2.2*36,1
1777416324546850253,$GPRMC,224524.000,A,1206.2587,S,07701.1967,W,0.18,162.36,280426,,,A*60,1
1777416325269758031,$GPGGA,224525.000,1206.2588,S,07701.1967,W,1,05,1.6,146.8,M,8.3,M,,0000*6D,1
1777416325382046086,$GPGSA,M,3,24,29,12,11,15,,,,,,,,2.7,1.6,2.2*36,1
1777416325547035514,$GPRMC,224525.000,A,1206.2588,S,07701.1967,W,0.41,162.36,280426,,,A*62,1
1777416326269533129,$GPGGA,224526.000,1206.2587,S,07701.1971,W,1,05,1.6,147.2,M,8.3,M,,0000*6D,1
1777416326381851698,$GPGSA,M,3,24,29,12,11,15,,,,,,,,2.7,1.6,2.2*36,1
1777416326546815518,$GPRMC,224526.000,A,1206.2587,S,07701.1971,W,0.24,162.36,280426,,,A*6A,1
1777416327270342913,$GPGGA,224527.000,1206.2587,S,07701.1970,W,1,05,1.6,147.1,M,8.3,M,,0000*6E,1
1777416327382625531,$GPGSA,M,3,24,29,12,11,15,,,,,,,,2.7,1.6,2.2*36,1
1777416327543025774,$GPGSV,3,1,12,24,63,075,44,29,62,284,38,12,32,159,27,11,24,114,19*73,1
1777416327689689032,$GPGSV,3,2,12,15,18,006,20,50,00,000,,14,54,277,,09,37,253,*78,1
1777416327831771097,$GPGSV,3,3,12,04,11,340,,20,03,325,,05,02,046,,10,01,302,*78,1
1777416327996771144,$GPRMC,224527.000,A,1206.2587,S,07701.1970,W,0.00,162.36,280426,,,A*6C,1
1777416328271562241,$GPGGA,224528.000,1206.2587,S,07701.1970,W,1,05,1.6,147.2,M,8.3,M,,0000*62,1
1777416328383848022,$GPGSA,M,3,24,29,12,11,15,,,,,,,,2.7,1.6,2.2*36,1
1777416328548848555,$GPRMC,224528.000,A,1206.2587,S,07701.1970,W,0.00,162.36,280426,,,A*63,1
1777416329269676253,$GPGGA,224529.000,1206.2585,S,07701.1970,W,1,05,1.6,147.6,M,8.3,M,,0000*65,1
1777416329381958678,$GPGSA,M,3,24,29,12,11,15,,,,,,,,2.7,1.6,2.2*36,1
1777416329546939161,$GPRMC,224529.000,A,1206.2585,S,07701.1970,W,0.07,162.36,280426,,,A*67,1
1777416330296106201,$GPGGA,224530.000,1206.2584,S,07701.1970,W,1,05,1.6,148.1,M,8.3,M,,0000*64,1
1777416330408373789,$GPGSA,M,3,24,29,12,11,15,,,,,,,,2.7,1.6,2.2*36,1
1777416330573388907,$GPRMC,224530.000,A,1206.2584,S,07701.1970,W,0.11,162.36,280426,,,A*69,1
1777416331296531398,$GPGGA,224531.000,1206.2582,S,07701.1970,W,1,05,1.6,148.6,M,8.3,M,,0000*64,1
1777416331408770483,$GPGSA,M,3,24,29,12,11,15,,,,,,,,2.7,1.6,2.2*36,1
1777416331573755460,$GPRMC,224531.000,A,1206.2582,S,07701.1970,W,0.07,162.36,280426,,,A*69,1
