Unix_time,GPS_data,motion_flag
1779390942366,$GPGGA,191542.000,1205.9938,S,07701.4549,W,2,06,1.4,139.9,M,8.4,M,5.0,0000*4C,0
1779390997236,$GPGSA,M,3,15,20,12,25,11,29,,,,,,,2.3,1.4,1.9*3B,0
1779390997236,$GPRMC,191542.000,A,1205.9938,S,07701.4549,W,0.00,294.94,210526,,,D*6E,0
1779390997236,$GPGGA,191543.000,1205.9938,S,07701.4549,W,2,06,1.4,139.9,M,8.4,M,2.0,0000*4A,0
1779390997236,$GPGSA,M,3,15,20,12,25,11,29,,,,,,,2.3,1.4,1.9*3B,0
1779390997237,$GPGSV,3,1,12,15,69,326,45,20,51,020,44,12,47,223,44,25,26,264,31*73,0
1779390997237,$GPGSV,3,2,12,11,19,056,41,29,17,332,43,05,10,001,27,06,09,094,30*7C,0
1779390997237,$GPGSV,3,3,12,19,19,138,35,24,45,178,36,48,33,280,38,13,39,037,*7B,0
1779390997237,$GPRMC,191543.000,A,1205.9938,S,07701.4549,W,0.00,294.94,210526,,,D*6F,0
1779390997237,$GPGGA,191544.000,1205.9938,S,07701.4549,W,2,06,1.4,139.9,M,8.4,M,2.0,0000*4D,0
1779390997237,$GPGSA,M,3,15,20,12,25,11,29,,,,,,,2.3,1.4,1.9*3B,0
1779390997237,$GPRMC,191544.000,A,1205.9938,S,07701.4549,W,0.00,294.94,210526,,,D*68,0
1779390997237,$GPGGA,191545.000,1205.9938,S,07701.4549,W,2,06,1.4,139.9,M,8.4,M,2.0,0000*4C,0
1779390997238,$GPGSA,M,3,15,20,12,25,11,29,,,,,,,2.3,1.4,1.9*3B,0
1779390997238,$GPRMC,191545.000,A,1205.9938,S,07701.4549,W,0.00,294.94,210526,,,D*69,0
1779390997238,$GPGGA,191546.000,1205.9938,S,07701.4549,W,2,06,1.4,139.9,M,8.4,M,3.0,0000*4E,0
1779390997238,$GPGSA,M,3,15,20,12,25,11,29,,,,,,,2.3,1.4,1.9*3B,0
1779390997239,$GPRMC,191546.000,A,1205.9938,S,07701.4549,W,0.00,294.94,210526,,,D*6A,0
1779390997240,$GPGGA,191547.000,1205.9938,S,07701.4549,W,2,06,1.4,139.9,M,8.4,M,4.0,0000*48,0
1779390997240,$GPGSA,M,3,15,20,12,25,11,29,,,,,,,2.3,1.4,1.9*3B,0
1779390997241,$GPRMC,191547.000,A,1205.9938,S,07701.4549,W,0.00,294.94,210526,,,D*6B,0
1779390997242,$GPGGA,191548.000,1205.9938,S,07701.4549,W,2,06,1.4,139.9,M,8.4,M,5.0,0000*46,0
1779390997242,$GPGSA,M,3,15,20,12,25,11,29,,,,,,,2.3,1.4,1.9*3B,0
1779390997243,$GPGSV,3,1,12,15,69,326,45,20,51,020,44,12,47,223,44,25,26,264,32*70,0
1779390997244,$GPGSV,3,2,12,11,19,056,40,29,17,332,41,05,10,001,27,06,09,094,30*7F,0
1779390997244,$GPGSV,3,3,12,19,19,138,34,24,45,178,36,48,33,280,39,13,39,037,*7B,0
1779390997245,$GPRMC,191548.000,A,1205.9938,S,07701.4549,W,0.00,294.94,210526,,,D*64,0
1779390997246,$GPGGA,191549.000,1205.9938,S,07701.4549,W,2,06,1.4,139.9,M,8.4,M,2.0,0000*40,0
1779390997246,$GPGSA,M,3,15,20,12,25,11,29,,,,,,,2.3,1.4,1.9*3B,0
1779390997247,$GPRMC,191549.000,A,1205.9938,S,07701.4549,W,0.00,294.94,210526,,,D*65,0
1779390997248,$GPGGA,191550.000,1205.9938,S,07701.4549,W,2,06,1.4,139.9,M,8.4,M,2.0,0000*48,0
1779390997248,$GPGSA,M,3,15,20,12,25,11,29,,,,,,,2.3,1.4,1.9*3B,0
1779390997249,$GPRMC,191550.000,A,1205.9938,S,07701.4549,W,0.00,294.94,210526,,,D*6D,0
1779390997250,$GPGGA,191551.000,1205.9938,S,07701.4549,W,2,06,1.4,139.9,M,8.4,M,2.0,0000*49,0
1779390997250,$GPGSA,M,3,15,20,12,25,11,29,,,,,,,2.3,1.4,1.9*3B,0
1779390997251,$GPRMC,191551.000,A,1205.9938,S,07701.4549,W,0.00,294.94,210526,,,D*6C,0
1779390997252,$GPGGA,191552.000,1205.9938,S,07701.4549,W,2,06,1.4,139.9,M,8.4,M,2.0,0000*4A,0
1779390997252,$GPGSA,M,3,15,20,12,25,11,29,,,,,,,2.3,1.4,1.9*3B,0
1779390997253,$GPRMC,191552.000,A,1205.9938,S,07701.4549,W,0.00,294.94,210526,,,D*6F,0
1779390997254,$GPGGA,191553.000,1205.9938,S,07701.4549,W,2,06,1.4,139.9,M,8.4,M,3.0,0000*4A,0
1779390997254,$GPGSA,M,3,15,20,12,25,11,29,,,,,,,2.3,1.4,1.9*3B,0
1779390997255,$GPGSV,3,1,12,15,69,326,45,20,51,020,43,12,47,223,45,25,26,264,32*76,0
1779390997256,$GPGSV,3,2,12,11,19,056,40,29,17,332,41,05,10,001,27,06,09,094,29*77,0
1779390997256,$GPGSV,3,3,12,19,19,138,34,24,45,178,36,48,33,280,38,13,39,037,*7A,0
1779390997257,$GPRMC,191553.000,A,1205.9938,S,07701.4549,W,0.00,294.94,210526,,,D*6E,0
1779390997258,$GPGGA,191554.000,1205.9938,S,07701.4549,W,2,06,1.4,139.9,M,8.4,M,2.0,0000*4C,0
1779390997258,$GPGSA,M,3,15,20,12,25,11,29,,,,,,,2.3,1.4,1.9*3B,0
1779390997259,$GPRMC,191554.000,A,1205.9938,S,07701.4549,W,0.00,294.94,210526,,,D*69,0
1779390997260,$GPGGA,191555.000,1205.9938,S,07701.4549,W,2,06,1.4,139.9,M,8.4,M,2.0,0000*4D,0
1779390997260,$GPGSA,M,3,15,20,12,25,11,29,,,,,,,2.3,1.4,1.9*3B,0
1779390997261,$GPRMC,191555.000,A,1205.9938,S,07701.4549,W,0.00,294.94,210526,,,D*68,0
1779390997262,$GPGGA,191556.000,1205.9938,S,07701.4549,W,2,06,1.4,139.9,M,8.4,M,2.0,0000*4E,0
1779390997262,$GPGSA,M,3,15,20,12,25,11,29,,,,,,,2.3,1.4,1.9*3B,0
1779390997262,$GPRMC,191556.000,A,1205.9938,S,07701.4549,W,0.00,294.94,210526,,,D*6B,0
1779390997262,$GPGGA,191557.000,1205.9938,S,07701.4549,W,2,06,1.4,139.9,M,8.4,M,2.0,0000*4F,0
1779390997263,$GPGSA,M,3,15,20,12,25,11,29,,,,,,,2.3,1.4,1.9*3B,0
1779390997263,$GPRMC,191557.000,A,1205.9938,S,07701.4549,W,0.00,294.94,210526,,,D*6A,0
1779390997263,$GPGGA,191558.000,1205.9938,S,07701.4549,W,2,06,1.4,139.9,M,8.4,M,3.0,0000*41,0
1779390997263,$GPGSA,M,3,15,20,12,25,11,29,,,,,,,2.3,1.4,1.9*3B,0
1779390997263,$GPGSV,3,1,12,15,69,326,44,20,51,020,43,12,47,223,44,25,26,264,31*75,0
1779390997263,$GPGSV,3,2,12,11,19,056,40,29,17,332,42,05,10,001,26,06,09,094,26*7A,0
1779390997264,$GPGSV,3,3,12,19,19,138,34,24,45,178,38,48,33,280,38,13,39,037,*74,0
1779390997264,$GPRMC,191558.000,A,1205.9938,S,07701.4549,W,0.00,294.94,210526,,,D*65,0
1779390997264,$GPGGA,191559.000,1205.9938,S,07701.4549,W,2,06,1.4,139.8,M,8.4,M,4.0,0000*46,0
1779390997264,$GPGSA,M,3,15,20,12,25,11,29,,,,,,,2.3,1.4,1.9*3B,0
1779390997264,$GPRMC,191559.000,A,1205.9938,S,07701.4549,W,0.00,294.94,210526,,,D*64,0
1779390997264,$GPGGA,191600.000,1205.9938,S,07701.4549,W,2,06,1.4,139.8,M,8.4,M,5.0,0000*48,0
1779390997265,$GPGSA,M,3,15,20,12,25,11,29,,,,,,,2.3,1.4,1.9*3B,0
1779390997265,$GPRMC,191600.000,A,1205.9938,S,07701.4549,W,0.00,294.94,210526,,,D*6B,0
1779390997265,$GPGGA,191601.000,1205.9938,S,07701.4548,W,2,06,1.4,139.7,M,8.4,M,2.0,0000*40,0
1779390997265,$GPGSA,M,3,15,20,12,25,11,29,,,,,,,2.3,1.4,1.9*3B,0
1779390997265,$GPRMC,191601.000,A,1205.9938,S,07701.4548,W,0.08,294.94,210526,,,D*63,0
1779390997265,$GPGGA,191602.000,1205.9938,S,07701.4548,W,2,06,1.4,139.7,M,8.4,M,2.0,0000*43,0
1779390997266,$GPGSA,M,3,15,20,12,25,11,29,,,,,,,2.3,1.4,1.9*3B,0
1779390997266,$GPRMC,191602.000,A,1205.9938,S,07701.4548,W,0.01,294.94,210526,,,D*69,0
1779390997266,$GPGGA,191603.000,1205.9938,S,07701.4548,W,2,06,1.4,139.7,M,8.4,M,2.0,0000*42,0
1779390997266,$GPGSA,M,3,15,20,12,25,11,29,,,,,,,2.3,1.4,1.9*3B,0
1779390997267,$GPGSV,3,1,12,15,69,326,44,20,51,020,43,12,47,223,45,25,26,264,32*77,0
1779390997268,$GPGSV,3,2,12,11,19,056,39,29,17,332,42,05,10,001,26,06,09,094,27*75,0
1779390997268,$GPGSV,3,3,12,19,19,138,35,24,45,178,39,48,33,280,38,13,39,037,*74,0
1779390997269,$GPRMC,191603.000,A,1205.9938,S,07701.4548,W,0.00,294.94,210526,,,D*69,0
1779390997270,$GPGGA,191604.000,1205.9938,S,07701.4548,W,2,06,1.4,139.7,M,8.4,M,3.0,0000*44,0
1779390997270,$GPGSA,M,3,15,20,12,25,11,29,,,,,,,2.3,1.4,1.9*3B,0
1779390997271,$GPRMC,191604.000,A,1205.9938,S,07701.4548,W,0.00,294.94,210526,,,D*6E,0
1779390997272,$GPGGA,191605.000,1205.9938,S,07701.4548,W,2,06,1.4,139.7,M,8.4,M,4.0,0000*42,0
1779390997272,$GPGSA,M,3,15,20,12,25,11,29,,,,,,,2.3,1.4,1.9*3B,0
1779390997273,$GPRMC,191605.000,A,1205.9938,S,07701.4548,W,0.00,294.94,210526,,,D*6F,0
1779390997273,$GPGGA,191606.000,1205.9938,S,07701.4548,W,2,06,1.4,139.7,M,8.4,M,2.0,0000*47,0
1779390997274,$GPGSA,M,3,15,20,12,25,11,29,,,,,,,2.3,1.4,1.9*3B,0
1779390997275,$GPRMC,191606.000,A,1205.9938,S,07701.4548,W,0.00,294.94,210526,,,D*6C,0
1779390997275,$GPGGA,191607.000,1205.9938,S,07701.4548,W,2,06,1.4,139.7,M,8.4,M,2.0,0000*46,0
1779390997276,$GPGSA,M,3,15,20,12,25,11,29,,,,,,,2.3,1.4,1.9*3B,0
1779390997277,$GPRMC,191607.000,A,1205.9938,S,07701.4548,W,0.00,294.94,210526,,,D*6D,0
1779390997277,$GPGGA,191608.000,1205.9938,S,07701.4548,W,2,06,1.4,139.7,M,8.4,M,2.0,0000*49,0
1779390997278,$GPGSA,M,3,15,20,12,25,11,29,,,,,,,2.3,1.4,1.9*3B,0
1779390997278,$GPGSV,3,1,12,15,67,328,44,20,49,020,42,12,47,221,45,25,26,262,37*7E,0
1779390997279,$GPGSV,3,2,12,11,20,058,39,29,18,332,43,05,09,002,25,06,10,095,22*7B,0
1779390997280,$GPGSV,3,3,12,19,18,139,36,24,46,176,40,48,33,280,39,13,38,036,*75,0
1779390997280,$GPRMC,191608.000,A,1205.9938,S,07701.4548,W,0.00,294.94,210526,,,D*62,0
1779390997281,$GPGGA,191609.000,1205.9938,S,07701.4548,W,2,06,1.4,139.7,M,8.4,M,2.0,0000*48,0
1779390997282,$GPGSA,M,3,15,20,12,25,11,29,,,,,,,2.3,1.4,1.9*3B,0
1779390997282,$GPRMC,191609.000,A,1205.9938,S,07701.4548,W,0.00,294.94,210526,,,D*63,0
1779390997283,$GPGGA,191610.000,1205.9938,S,07701.4548,W,2,06,1.4,139.7,M,8.4,M,2.0,0000*40,0
1779390997284,$GPGSA,M,3,15,20,12,25,11,29,,,,,,,2.3,1.4,1.9*3B,0
1779390997284,$GPRMC,191610.000,A,1205.9938,S,07701.4548,W,0.00,294.94,210526,,,D*6B,0
1779390997285,$GPGGA,191611.000,1205.9938,S,07701.4548,W,2,06,1.4,139.7,M,8.4,M,3.0,0000*40,0
1779390997285,$GPGSA,M,3,15,20,12,25,11,29,,,,,,,2.3,1.4,1.9*3B,0
1779390997286,$GPRMC,191611.000,A,1205.9938,S,07701.4548,W,0.00,294.94,210526,,,D*6A,0
1779390997286,$GPGGA,191612.000,1205.9938,S,07701.4548,W,2,06,1.4,139.7,M,8.4,M,2.0,0000*42,0
1779390997287,$GPGSA,M,3,15,20,12,25,11,29,,,,,,,2.3,1.4,1.9*3B,0
1779390997288,$GPRMC,191612.000,A,1205.9938,S,07701.4548,W,0.00,294.94,210526,,,D*69,0
1779390997288,$GPGGA,191613.000,1205.9938,S,07701.4548,W,2,06,1.4,139.7,M,8.4,M,2.0,0000*43,0
1779390997289,$GPGSA,M,3,15,20,12,25,11,29,,,,,,,2.3,1.4,1.9*3B,0
1779390997289,$GPGSV,3,1,12,15,67,328,43,20,49,020,42,12,47,221,45,25,26,262,36*78,0
1779390997290,$GPGSV,3,2,12,11,20,058,40,29,18,332,43,05,09,002,27,06,10,095,23*76,0
1779390997291,$GPGSV,3,3,12,19,18,139,38,24,46,176,40,48,33,280,39,13,38,036,*7B,0
1779390997291,$GPRMC,191613.000,A,1205.9938,S,07701.4548,W,0.00,294.94,210526,,,D*68,0
1779390997292,$GPGGA,191614.000,1205.9938,S,07701.4548,W,2,06,1.4,139.7,M,8.4,M,2.0,0000*44,0
1779390997293,$GPGSA,M,3,15,20,12,25,11,29,,,,,,,2.3,1.4,1.9*3B,0
1779390997293,$GPRMC,191614.000,A,1205.9938,S,07701.4548,W,0.00,294.94,210526,,,D*6F,0
1779390997294,$GPGGA,191615.000,1205.9938,S,07701.4548,W,2,06,1.4,139.7,M,8.4,M,2.0,0000*45,0
1779390997295,$GPGSA,M,3,15,20,12,25,11,29,,,,,,,2.3,1.4,1.9*3B,0
1779390997295,$GPRMC,191615.000,A,1205.9938,S,07701.4548,W,0.00,294.94,210526,,,D*6E,0
1779390997296,$GPGGA,191616.000,1205.9938,S,07701.4548,W,2,06,1.4,139.7,M,8.4,M,3.0,0000*47,0
1779390997296,$GPGSA,M,3,15,20,12,25,11,29,,,,,,,2.3,1.4,1.9*3B,0
1779390997297,$GPRMC,191616.000,A,1205.9938,S,07701.4548,W,0.00,294.94,210526,,,D*6D,0
1779390997298,$GPGGA,191617.000,1205.9938,S,07701.4548,W,2,06,1.4,139.7,M,8.4,M,2.0,0000*47,0
1779390997298,$GPGSA,M,3,15,20,12,25,11,29,,,,,,,2.3,1.4,1.9*3B,0
1779390997299,$GPRMC,191617.000,A,1205.9938,S,07701.4548,W,0.00,294.94,210526,,,D*6C,0
1779390997299,$GPGGA,191618.000,1205.9938,S,07701.4548,W,2,06,1.4,139.7,M,8.4,M,3.0,0000*49,0
1779390997300,$GPGSA,M,3,15,20,12,25,11,29,,,,,,,2.3,1.4,1.9*3B,0
1779390997300,$GPGSV,3,1,12,15,67,328,43,20,49,020,42,12,47,221,45,25,26,262,35*7B,0
1779390997301,$GPGSV,3,2,12,11,20,058,40,29,18,332,43,05,09,002,27,06,10,095,22*77,0
1779390997302,$GPGSV,3,3,12,19,18,139,39,24,46,176,40,48,33,280,38,13,38,036,*7B,0
1779390997302,$GPRMC,191618.000,A,1205.9938,S,07701.4548,W,0.00,294.94,210526,,,D*63,0
1779390997302,$GPGGA,191619.000,1205.9938,S,07701.4548,W,2,06,1.4,139.7,M,8.4,M,2.0,0000*49,0
1779390997303,$GPGSA,M,3,15,20,12,25,11,29,,,,,,,2.3,1.4,1.9*3B,0
1779390997303,$GPRMC,191619.000,A,1205.9938,S,07701.4548,W,0.00,294.94,210526,,,D*62,0
1779390997304,$GPGGA,191620.000,1205.9938,S,07701.4548,W,2,06,1.4,139.7,M,8.4,M,2.0,0000*43,0
1779390997304,$GPGSA,M,3,15,20,12,25,11,29,,,,,,,2.3,1.4,1.9*3B,0
1779390997304,$GPRMC,191620.000,A,1205.9938,S,07701.4548,W,0.00,294.94,210526,,,D*68,0
1779390997305,$GPGGA,191621.000,1205.9938,S,07701.4548,W,2,06,1.4,139.7,M,8.4,M,2.0,0000*42,0
1779390997305,$GPGSA,M,3,15,20,12,25,11,29,,,,,,,2.3,1.4,1.9*3B,0
1779390997305,$GPRMC,191621.000,A,1205.9938,S,07701.4548,W,0.00,294.94,210526,,,D*69,0
1779390997305,$GPGGA,191622.000,1205.9938,S,07701.4548,W,2,06,1.4,139.7,M,8.4,M,3.0,0000*40,0
1779390997305,$GPGSA,M,3,15,20,12,25,11,29,,,,,,,2.3,1.4,1.9*3B,0
1779390997305,$GPRMC,191622.000,A,1205.9938,S,07701.4548,W,0.00,294.94,210526,,,D*6A,0
1779390997305,$GPGGA,191623.000,1205.9938,S,07701.4548,W,2,06,1.4,139.7,M,8.4,M,4.0,0000*46,0
1779390997305,$GPGSA,M,3,15,20,12,25,11,29,,,,,,,2.3,1.4,1.9*3B,0
1779390997306,$GPGSV,3,1,12,15,67,328,43,20,49,020,41,12,47,221,46,25,26,262,35*7B,0
1779390997306,$GPGSV,3,2,12,11,20,058,41,29,18,332,42,05,09,002,27,06,10,095,22*77,0
1779390997306,$GPGSV,3,3,12,19,18,139,40,24,46,176,39,48,33,280,38,13,38,036,*7B,0
1779390997306,$GPRMC,191623.000,A,1205.9938,S,07701.4548,W,0.00,294.94,210526,,,D*6B,0
1779390997306,$GPGGA,191624.000,1205.9938,S,07701.4548,W,2,06,1.4,139.7,M,8.4,M,5.0,0000*40,0
1779390997306,$GPGSA,M,3,15,20,12,25,11,29,,,,,,,2.3,1.4,1.9*3B,0
1779390997306,$GPRMC,191624.000,A,1205.9938,S,07701.4548,W,0.00,294.94,210526,,,D*6C,0
1779390997306,$GPGGA,191625.000,1205.9938,S,07701.4548,W,2,06,1.4,139.7,M,8.4,M,2.0,0000*46,0
1779390997307,$GPGSA,M,3,15,20,12,25,11,29,,,,,,,2.3,1.4,1.9*3B,0
1779390997307,$GPRMC,191625.000,A,1205.9938,S,07701.4548,W,0.00,294.94,210526,,,D*6D,0
1779390997307,$GPGGA,191626.000,1205.9938,S,07701.4548,W,2,06,1.4,139.7,M,8.4,M,2.0,0000*45,0
1779390997307,$GPGSA,M,3,15,20,12,25,11,29,,,,,,,2.3,1.4,1.9*3B,0
1779390997307,$GPRMC,191626.000,A,1205.9938,S,07701.4548,W,0.00,294.94,210526,,,D*6E,0
1779390997307,$GPGGA,191627.000,1205.9938,S,07701.4548,W,2,06,1.4,139.7,M,8.4,M,2.0,0000*44,0
1779390997307,$GPGSA,M,3,15,20,12,25,11,29,,,,,,,2.3,1.4,1.9*3B,0
1779390997308,$GPRMC,191627.000,A,1205.9938,S,07701.4548,W,0.00,294.94,210526,,,D*6F,0
1779390997308,$GPGGA,191628.000,1205.9938,S,07701.4548,W,2,06,1.4,139.7,M,8.4,M,3.0,0000*4A,0
1779390997308,$GPGSA,M,3,15,20,12,25,11,29,,,,,,,2.3,1.4,1.9*3B,0
1779390997308,$GPGSV,3,1,12,15,67,328,43,20,49,020,41,12,47,221,45,25,26,262,34*79,0
1779390997308,$GPGSV,3,2,12,11,20,058,40,29,18,332,40,05,09,002,24,06,10,095,21*74,0
1779390997308,$GPGSV,3,3,12,19,18,139,39,24,46,176,38,48,33,280,37,13,38,036,*7B,0
1779390997308,$GPRMC,191628.000,A,1205.9938,S,07701.4548,W,0.00,294.94,210526,,,D*60,0
1779390997308,$GPGGA,191629.000,1205.9938,S,07701.4548,W,2,06,1.4,139.7,M,8.4,M,4.0,0000*4C,0
1779390997309,$GPGSA,M,3,15,20,12,25,11,29,,,,,,,2.3,1.4,1.9*3B,0
1779390997309,$GPRMC,191629.000,A,1205.9938,S,07701.4548,W,0.00,294.94,210526,,,D*61,0
1779390997309,$GPGGA,191630.000,1205.9938,S,07701.4548,W,2,06,1.4,139.7,M,8.4,M,5.0,0000*45,0
1779390997309,$GPGSA,M,3,15,20,12,25,11,29,,,,,,,2.3,1.4,1.9*3B,0
1779390997309,$GPRMC,191630.000,A,1205.9938,S,07701.4548,W,0.00,294.94,210526,,,D*69,0
1779390997309,$GPGGA,191631.000,1205.9938,S,07701.4548,W,2,06,1.4,139.7,M,8.4,M,2.0,0000*43,0
1779390997309,$GPGSA,M,3,15,20,12,25,11,29,,,,,,,2.3,1.4,1.9*3B,0
1779390997309,$GPRMC,191631.000,A,1205.9938,S,07701.4548,W,0.00,294.94,210526,,,D*68,0
1779390997310,$GPGGA,191632.000,1205.9938,S,07701.4548,W,2,06,1.4,139.7,M,8.4,M,2.0,0000*40,0
1779390997310,$GPGSA,M,3,15,20,12,25,11,29,,,,,,,2.3,1.4,1.9*3B,0
1779390997310,$GPRMC,191632.000,A,1205.9938,S,07701.4548,W,0.00,294.94,210526,,,D*6B,0
1779390997310,$GPGGA,191633.000,1205.9938,S,07701.4548,W,2,06,1.4,139.7,M,8.4,M,3.0,0000*40,0
1779390997310,$GPGSA,M,3,15,20,12,25,11,29,,,,,,,2.3,1.4,1.9*3B,0
1779390997310,$GPGSV,3,1,12,15,67,328,42,20,49,020,40,12,47,221,44,25,26,262,30*7C,0
1779390997310,$GPGSV,3,2,12,11,20,058,39,29,18,332,39,05,09,002,25,06,10,095,27*73,0
1779390997310,$GPGSV,3,3,12,19,18,139,38,24,46,176,37,48,33,280,35,13,38,036,*77,0
1779390997311,$GPRMC,191633.000,A,1205.9938,S,07701.4548,W,0.00,294.94,210526,,,D*6A,0
1779390997311,$GPGGA,191634.000,1205.9938,S,07701.4548,W,2,06,1.4,139.7,M,8.4,M,4.0,0000*40,0
1779390997311,$GPGSA,M,3,15,20,12,25,11,29,,,,,,,2.3,1.4,1.9*3B,0
1779390997311,$GPRMC,191634.000,A,1205.9938,S,07701.4548,W,0.00,294.94,210526,,,D*6D,0
1779390997311,$GPGGA,191635.000,1205.9938,S,07701.4548,W,2,06,1.4,139.7,M,8.4,M,5.0,0000*40,0
1779390997311,$GPGSA,M,3,15,20,12,25,11,29,,,,,,,2.3,1.4,1.9*3B,0
1779390997311,$GPRMC,191635.000,A,1205.9938,S,07701.4548,W,0.00,294.94,210526,,,D*6C,0
1779390997311,$GPGGA,191636.000,1205.9938,S,07701.4548,W,2,06,1.4,139.7,M,8.4,M,6.0,0000*40,0
1779390997312,$GPGSA,M,3,15,20,12,25,11,29,,,,,,,2.3,1.4,1.9*3B,0
1779390997312,$GPRMC,191636.000,A,1205.9938,S,07701.4548,W,0.00,294.94,210526,,,D*6F,0
1779390997371,$GPGGA,191637.000,1205.9938,S,07701.4548,W,2,06,1.4,139.7,M,8.4,M,7.0,0000*40,0
1779390997488,$GPGSA,M,3,15,20,12,25,11,29,,,,,,,2.3,1.4,1.9*3B,0
1779390997653,$GPRMC,191637.000,A,1205.9938,S,07701.4548,W,0.00,294.94,210526,,,D*6E,0
1779390998374,$GPGGA,191638.000,1205.9938,S,07701.4548,W,2,07,1.3,139.7,M,8.4,M,2.0,0000*4C,0
1779390998495,$GPGSA,M,3,15,20,12,25,11,29,05,,,,,,2.2,1.3,1.7*36,0
1779390998656,$GPGSV,3,1,12,15,67,328,43,20,49,020,40,12,47,221,44,25,26,262,30*7D,0
1779390998816,$GPGSV,3,2,12,11,20,058,39,29,18,332,38,05,09,002,23,06,10,095,27*74,0
1779390998972,$GPGSV,3,3,12,19,18,139,38,24,46,176,38,48,33,280,38,13,38,036,*75,0
1779390999137,$GPRMC,191638.000,A,1205.9938,S,07701.4548,W,0.00,294.94,210526,,,D*61,0
1779390999371,$GPGGA,191639.000,1205.9938,S,07701.4548,W,2,06,1.4,139.7,M,8.4,M,2.0,0000*4B,0
1779390999488,$GPGSA,M,3,15,20,12,25,11,29,,,,,,,2.3,1.4,1.9*3B,0
1779390999653,$GPRMC,191639.000,A,1205.9938,S,07701.4548,W,0.00,294.94,210526,,,D*60,0
1779391000375,$GPGGA,191640.000,1205.9938,S,07701.4548,W,2,07,1.3,139.7,M,8.4,M,2.0,0000*43,0
1779391000496,$GPGSA,M,3,15,20,12,25,11,29,05,,,,,,2.2,1.3,1.7*36,0
1779391000661,$GPRMC,191640.000,A,1205.9938,S,07701.4548,W,0.00,294.94,210526,,,D*6E,0
1779391001366,$GPGGA,191641.000,1205.9938,S,07701.4548,W,2,06,1.4,139.7,M,8.4,M,3.0,0000*45,0
1779391001482,$GPGSA,M,3,15,20,12,25,11,29,,,,,,,2.3,1.4,1.9*3B,0
1779391001648,$GPRMC,191641.000,A,1205.9938,S,07701.4548,W,0.00,294.94,210526,,,D*6F,0
1779391002376,$GPGGA,191642.000,1205.9938,S,07701.4548,W,2,07,1.3,139.7,M,8.4,M,4.0,0000*47,0
1779391002497,$GPGSA,M,3,15,20,12,25,11,29,05,,,,,,2.2,1.3,1.7*36,0
1779391002662,$GPRMC,191642.000,A,1205.9938,S,07701.4548,W,0.00,294.94,210526,,,D*6C,0
1779391003368,$GPGGA,191643.000,1205.9938,S,07701.4548,W,2,07,1.3,139.8,M,8.4,M,5.0,0000*48,0
1779391003489,$GPGSA,M,3,15,20,12,25,11,29,05,,,,,,2.2,1.3,1.7*36,0
1779391003650,$GPGSV,3,1,12,15,67,328,43,20,49,020,40,12,47,221,44,25,26,262,31*7C,0
1779391003810,$GPGSV,3,2,12,11,20,058,40,29,18,332,37,05,09,002,23,06,10,095,26*74,0
1779391003966,$GPGSV,3,3,12,19,18,139,39,24,46,176,38,48,33,280,35,13,38,036,*79,0
1779391004131,$GPRMC,191643.000,A,1205.9938,S,07701.4548,W,0.05,294.94,210526,,,D*68,0
1779391004374,$GPGGA,191644.000,1205.9938,S,07701.4548,W,2,07,1.3,139.7,M,8.4,M,2.0,0000*47,0
1779391004495,$GPGSA,M,3,15,20,12,25,11,29,05,,,,,,2.2,1.3,1.7*36,0
1779391004660,$GPRMC,191644.000,A,1205.9938,S,07701.4548,W,0.00,294.94,210526,,,D*6A,0
1779391005374,$GPGGA,191645.000,1205.9938,S,07701.4548,W,2,07,1.3,139.7,M,8.4,M,2.0,0000*46,0
1779391005496,$GPGSA,M,3,15,20,12,25,11,29,05,,,,,,2.2,1.3,1.7*36,0
1779391005661,$GPRMC,191645.000,A,1205.9938,S,07701.4548,W,0.00,294.94,210526,,,D*6B,0
1779391006369,$GPGGA,191646.000,1205.9938,S,07701.4548,W,2,07,1.3,139.7,M,8.4,M,3.0,0000*44,0
1779391006490,$GPGSA,M,3,15,20,12,25,11,29,05,,,,,,2.2,1.3,1.7*36,0
1779391006655,$GPRMC,191646.000,A,1205.9938,S,07701.4548,W,0.00,294.94,210526,,,D*68,0
1779391007374,$GPGGA,191647.000,1205.9938,S,07701.4548,W,2,07,1.3,139.7,M,8.4,M,4.0,0000*42,0
1779391007496,$GPGSA,M,3,15,20,12,25,11,29,05,,,,,,2.2,1.3,1.7*36,0
1779391007661,$GPRMC,191647.000,A,1205.9938,S,07701.4548,W,0.00,294.94,210526,,,D*69,0
1779391008374,$GPGGA,191648.000,1205.9938,S,07701.4548,W,2,07,1.3,139.7,M,8.4,M,5.0,0000*4C,0
1779391008495,$GPGSA,M,3,15,20,12,25,11,29,05,,,,,,2.2,1.3,1.7*36,0
1779391008656,$GPGSV,3,1,12,15,67,328,43,20,49,020,40,12,47,221,44,25,26,262,31*7C,0
1779391008816,$GPGSV,3,2,12,11,20,058,40,29,18,332,35,05,09,002,22,06,10,095,25*74,0
1779391008972,$GPGSV,3,3,12,19,18,139,39,24,46,176,39,48,33,280,35,13,38,036,*78,0
1779391009137,$GPRMC,191648.000,A,1205.9938,S,07701.4548,W,0.00,294.94,210526,,,D*66,0
1779391009375,$GPGGA,191649.000,1205.9938,S,07701.4548,W,2,07,1.3,139.7,M,8.4,M,2.0,0000*4A,0
1779391009496,$GPGSA,M,3,15,20,12,25,11,29,05,,,,,,2.2,1.3,1.7*36,0
1779391009661,$GPRMC,191649.000,A,1205.9938,S,07701.4548,W,0.00,294.94,210526,,,D*67,0
1779391010374,$GPGGA,191650.000,1205.9937,S,07701.4547,W,2,07,1.3,139.8,M,8.4,M,2.0,0000*4D,0
1779391010495,$GPGSA,M,3,15,20,12,25,11,29,05,,,,,,2.2,1.3,1.7*36,0
1779391010660,$GPRMC,191650.000,A,1205.9937,S,07701.4547,W,0.02,294.94,210526,,,D*6D,0
1779391011374,$GPGGA,191651.000,1205.9937,S,07701.4547,W,2,07,1.3,139.8,M,8.4,M,2.0,0000*4C,0
1779391011496,$GPGSA,M,3,15,20,12,25,11,29,05,,,,,,2.2,1.3,1.7*36,0
1779391011661,$GPRMC,191651.000,A,1205.9937,S,07701.4547,W,0.00,294.94,210526,,,D*6E,0
1779391012368,$GPGGA,191652.000,1205.9937,S,07701.4547,W,2,07,1.3,139.8,M,8.4,M,3.0,0000*4E,0
1779391012489,$GPGSA,M,3,15,20,12,25,11,29,05,,,,,,2.2,1.3,1.7*36,0
1779391012654,$GPRMC,191652.000,A,1205.9937,S,07701.4547,W,0.00,294.94,210526,,,D*6D,0
1779391013368,$GPGGA,191653.000,1205.9937,S,07701.4547,W,2,07,1.3,139.8,M,8.4,M,4.0,0000*48,0
1779391013489,$GPGSA,M,3,15,20,12,25,11,29,05,,,,,,2.2,1.3,1.7*36,0
1779391013649,$GPGSV,3,1,12,15,67,328,43,20,49,020,41,12,47,221,44,25,26,262,31*7D,0
1779391013810,$GPGSV,3,2,12,11,20,058,41,29,18,332,36,05,09,002,21,06,10,095,24*74,0
1779391013966,$GPGSV,3,3,12,19,18,139,40,24,46,176,38,48,33,280,37,13,38,036,*75,0
1779391014131,$GPRMC,191653.000,A,1205.9937,S,07701.4547,W,0.00,294.94,210526,,,D*6C,0
1779391014376,$GPGGA,191654.000,1205.9937,S,07701.4547,W,2,07,1.3,139.8,M,8.4,M,2.0,0000*49,0
1779391014497,$GPGSA,M,3,15,20,12,25,11,29,05,,,,,,2.2,1.3,1.7*36,0
1779391014662,$GPRMC,191654.000,A,1205.9937,S,07701.4547,W,0.00,294.94,210526,,,D*6B,0
1779391015375,$GPGGA,191655.000,1205.9937,S,07701.4547,W,2,07,1.3,139.8,M,8.4,M,2.0,0000*48,0
1779391015497,$GPGSA,M,3,15,20,12,25,11,29,05,,,,,,2.2,1.3,1.7*36,0
1779391015661,$GPRMC,191655.000,A,1205.9937,S,07701.4547,W,0.00,294.94,210526,,,D*6A,0
1779391016374,$GPGGA,191656.000,1205.9937,S,07701.4547,W,2,06,1.4,139.8,M,8.4,M,2.0,0000*4D,0
1779391016490,$GPGSA,M,3,15,20,12,25,11,29,,,,,,,2.3,1.4,1.9*3B,0
1779391016655,$GPRMC,191656.000,A,1205.9937,S,07701.4547,W,0.00,294.94,210526,,,D*69,0
1779391017374,$GPGGA,191657.000,1205.9937,S,07701.4547,W,2,06,1.4,139.7,M,8.4,M,2.0,0000*43,0
1779391017490,$GPGSA,M,3,15,20,12,25,11,29,,,,,,,2.3,1.4,1.9*3B,0
1779391017655,$GPRMC,191657.000,A,1205.9937,S,07701.4547,W,0.00,294.94,210526,,,D*68,0
1779391018373,$GPGGA,191658.000,1205.9937,S,07701.4547,W,2,06,1.4,139.7,M,8.4,M,2.0,0000*4C,0
1779391018490,$GPGSA,M,3,15,20,12,25,11,29,,,,,,,2.3,1.4,1.9*3B,0
1779391018650,$GPGSV,3,1,12,15,67,328,43,20,49,020,41,12,47,221,45,25,26,262,23*7F,0
1779391018811,$GPGSV,3,2,12,11,20,058,42,29,18,332,37,05,09,002,27,06,10,095,18*7F,0
1779391018967,$GPGSV,3,3,12,19,18,139,41,24,46,176,37,48,33,280,37,13,38,036,*7B,0
1779391019132,$GPRMC,191658.000,A,1205.9937,S,07701.4547,W,0.00,294.94,210526,,,D*67,0
1779391019374,$GPGGA,191659.000,1205.9937,S,07701.4547,W,2,06,1.4,139.7,M,8.4,M,2.0,0000*4D,0
1779391019490,$GPGSA,M,3,15,20,12,25,11,29,,,,,,,2.3,1.4,1.9*3B,0
1779391019655,$GPRMC,191659.000,A,1205.9937,S,07701.4547,W,0.00,294.94,210526,,,D*66,0
1779391020369,$GPGGA,191700.000,1205.9938,S,07701.4547,W,2,06,1.4,139.6,M,8.4,M,3.0,0000*4F,0
1779391020485,$GPGSA,M,3,15,20,12,25,11,29,,,,,,,2.3,1.4,1.9*3B,0
1779391020650,$GPRMC,191700.000,A,1205.9938,S,07701.4547,W,0.09,294.94,210526,,,D*6D,0
1779391021373,$GPGGA,191701.000,1205.9938,S,07701.4547,W,2,06,1.4,139.6,M,8.4,M,2.0,0000*4F,0
1779391021490,$GPGSA,M,3,15,20,12,25,11,29,,,,,,,2.3,1.4,1.9*3B,0
1779391021655,$GPRMC,191701.000,A,1205.9938,S,07701.4547,W,0.00,294.94,210526,,,D*65,0
1779391022373,$GPGGA,191702.000,1205.9938,S,07701.4547,W,2,06,1.4,139.6,M,8.4,M,2.0,0000*4C,0
1779391022490,$GPGSA,M,3,15,20,12,25,11,29,,,,,,,2.3,1.4,1.9*3B,0
1779391022655,$GPRMC,191702.000,A,1205.9938,S,07701.4547,W,0.00,294.94,210526,,,D*66,0
1779391023373,$GPGGA,191703.000,1205.9938,S,07701.4547,W,2,06,1.4,139.6,M,8.4,M,2.0,0000*4D,0
1779391023490,$GPGSA,M,3,15,20,12,25,11,29,,,,,,,2.3,1.4,1.9*3B,0
1779391023650,$GPGSV,3,1,12,15,67,328,43,20,49,020,41,12,47,221,44,25,26,262,27*7A,0
1779391023810,$GPGSV,3,2,12,11,20,058,42,29,18,332,38,05,09,002,24,06,10,095,17*7C,0
1779391023966,$GPGSV,3,3,12,19,18,139,41,24,46,176,35,48,33,280,36,13,38,036,*78,0
1779391024131,$GPRMC,191703.000,A,1205.9938,S,07701.4547,W,0.00,294.94,210526,,,D*67,0
1779391024372,$GPGGA,191704.000,1205.9938,S,07701.4547,W,2,06,1.4,139.6,M,8.4,M,2.0,0000*4A,0
1779391024489,$GPGSA,M,3,15,20,12,25,11,29,,,,,,,2.3,1.4,1.9*3B,0
1779391024654,$GPRMC,191704.000,A,1205.9938,S,07701.4547,W,0.00,294.94,210526,,,D*60,0
1779391025379,$GPGGA,191705.000,1205.9938,S,07701.4547,W,2,06,1.4,139.6,M,8.4,M,3.0,0000*4A,0
1779391025495,$GPGSA,M,3,15,20,12,25,11,29,,,,,,,2.3,1.4,1.9*3B,0
1779391025660,$GPRMC,191705.000,A,1205.9938,S,07701.4547,W,0.00,294.94,210526,,,D*61,0
1779391026369,$GPGGA,191706.000,1205.9938,S,07701.4547,W,2,06,1.4,139.6,M,8.4,M,4.0,0000*4E,0
1779391026486,$GPGSA,M,3,15,20,12,25,11,29,,,,,,,2.3,1.4,1.9*3B,0
1779391026651,$GPRMC,191706.000,A,1205.9938,S,07701.4547,W,0.00,294.94,210526,,,D*62,0
1779391027375,$GPGGA,191707.000,1205.9938,S,07701.4547,W,2,07,1.3,139.6,M,8.4,M,2.0,0000*4F,0
1779391027496,$GPGSA,M,3,15,20,12,25,11,29,05,,,,,,2.2,1.3,1.7*36,0
1779391027661,$GPRMC,191707.000,A,1205.9938,S,07701.4547,W,0.00,294.94,210526,,,D*63,0
1779391028375,$GPGGA,191708.000,1205.9938,S,07701.4547,W,2,07,1.3,139.6,M,8.4,M,2.0,0000*40,0
1779391028496,$GPGSA,M,3,15,20,12,25,11,29,05,,,,,,2.2,1.3,1.7*36,0
1779391028657,$GPGSV,3,1,12,15,67,328,43,20,49,020,41,12,47,221,45,25,26,262,33*7E,0
1779391028817,$GPGSV,3,2,12,11,20,058,41,29,18,332,37,05,09,002,27,06,10,095,13*77,0
1779391028973,$GPGSV,3,3,12,19,18,139,42,24,46,176,35,48,33,280,39,13,38,036,*74,0
1779391029138,$GPRMC,191708.000,A,1205.9938,S,07701.4547,W,0.00,294.94,210526,,,D*6C,0
1779391029373,$GPGGA,191709.000,1205.9938,S,07701.4547,W,2,07,1.3,139.6,M,8.4,M,2.0,0000*41,0
1779391029495,$GPGSA,M,3,15,20,12,25,11,29,05,,,,,,2.2,1.3,1.7*36,0
1779391029660,$GPRMC,191709.000,A,1205.9938,S,07701.4547,W,0.00,294.94,210526,,,D*6D,0
1779391030375,$GPGGA,191710.000,1205.9938,S,07701.4546,W,2,07,1.3,139.6,M,8.4,M,2.0,0000*48,0
1779391030496,$GPGSA,M,3,15,20,12,25,11,29,05,,,,,,2.2,1.3,1.7*36,0
1779391030661,$GPRMC,191710.000,A,1205.9938,S,07701.4546,W,0.10,294.94,210526,,,D*65,0
1779391031375,$GPGGA,191711.000,1205.9938,S,07701.4546,W,2,07,1.3,139.6,M,8.4,M,3.0,0000*48,0
1779391031497,$GPGSA,M,3,15,20,12,25,11,29,05,,,,,,2.2,1.3,1.7*36,0
1779391031662,$GPRMC,191711.000,A,1205.9938,S,07701.4546,W,0.01,294.94,210526,,,D*64,0
1779391032375,$GPGGA,191712.000,1205.9938,S,07701.4546,W,2,07,1.3,139.6,M,8.4,M,2.0,0000*4A,0
1779391032496,$GPGSA,M,3,15,20,12,25,11,29,05,,,,,,2.2,1.3,1.7*36,0
1779391032661,$GPRMC,191712.000,A,1205.9938,S,07701.4546,W,0.00,294.94,210526,,,D*66,0
1779391033375,$GPGGA,191713.000,1205.9938,S,07701.4546,W,2,07,1.3,139.6,M,8.4,M,2.0,0000*4B,0
1779391033496,$GPGSA,M,3,15,20,12,25,11,29,05,,,,,,2.2,1.3,1.7*36,0
1779391033657,$GPGSV,3,1,12,15,67,328,43,20,49,020,40,12,47,221,45,25,26,262,32*7E,0
1779391033817,$GPGSV,3,2,12,11,20,058,40,29,18,332,35,05,09,002,21,06,10,095,12*73,0
1779391033973,$GPGSV,3,3,12,19,18,139,42,24,46,176,35,48,33,280,37,13,38,036,*7A,0
1779391034138,$GPRMC,191713.000,A,1205.9938,S,07701.4546,W,0.00,294.94,210526,,,D*67,0
1779391034367,$GPGGA,191714.000,1205.9938,S,07701.4546,W,2,07,1.3,139.6,M,8.4,M,3.0,0000*4D,0
1779391034488,$GPGSA,M,3,15,20,12,25,11,29,05,,,,,,2.2,1.3,1.7*36,0
1779391034653,$GPRMC,191714.000,A,1205.9938,S,07701.4546,W,0.03,294.94,210526,,,D*63,0
1779391035380,$GPGGA,191715.000,1205.9938,S,07701.4546,W,2,07,1.3,139.6,M,8.4,M,2.0,0000*4D,0
1779391035502,$GPGSA,M,3,15,20,12,25,11,29,05,,,,,,2.2,1.3,1.7*36,0
1779391035667,$GPRMC,191715.000,A,1205.9938,S,07701.4546,W,0.00,294.94,210526,,,D*61,0
1779391036369,$GPGGA,191716.000,1205.9938,S,07701.4546,W,2,07,1.3,139.6,M,8.4,M,3.0,0000*4F,0
1779391036490,$GPGSA,M,3,15,20,12,25,11,29,05,,,,,,2.2,1.3,1.7*36,0
1779391036655,$GPRMC,191716.000,A,1205.9938,S,07701.4546,W,0.00,294.94,210526,,,D*62,0
1779391037369,$GPGGA,191717.000,1205.9938,S,07701.4546,W,2,07,1.3,139.6,M,8.4,M,4.0,0000*49,0
1779391037490,$GPGSA,M,3,15,20,12,25,11,29,05,,,,,,2.2,1.3,1.7*36,0
1779391037655,$GPRMC,191717.000,A,1205.9938,S,07701.4546,W,0.00,294.94,210526,,,D*63,0
1779391038370,$GPGGA,191718.000,1205.9938,S,07701.4546,W,2,07,1.3,139.6,M,8.4,M,5.0,0000*47,0
1779391038492,$GPGSA,M,3,15,20,12,25,11,29,05,,,,,,2.2,1.3,1.7*36,0
1779391038652,$GPGSV,3,1,12,15,67,328,43,20,49,020,40,12,47,221,44,25,26,262,33*7E,0
1779391038812,$GPGSV,3,2,12,11,20,058,40,29,18,332,36,05,09,002,20,06,10,095,22*72,0
1779391038968,$GPGSV,3,3,12,19,18,139,42,24,46,176,35,48,33,280,36,13,38,036,*7B,0
1779391039133,$GPRMC,191718.000,A,1205.9938,S,07701.4546,W,0.00,294.94,210526,,,D*6C,0
1779391039375,$GPGGA,191719.000,1205.9938,S,07701.4546,W,2,07,1.3,139.6,M,8.4,M,2.0,0000*41,0
1779391039497,$GPGSA,M,3,15,20,12,25,11,29,05,,,,,,2.2,1.3,1.7*36,0
1779391039662,$GPRMC,191719.000,A,1205.9938,S,07701.4546,W,0.00,294.94,210526,,,D*6D,0
1779391040374,$GPGGA,191720.000,1205.9938,S,07701.4546,W,2,07,1.3,139.6,M,8.4,M,2.0,0000*4B,0
1779391040496,$GPGSA,M,3,15,20,12,25,11,29,05,,,,,,2.2,1.3,1.7*36,0
1779391040661,$GPRMC,191720.000,A,1205.9938,S,07701.4546,W,0.00,294.94,210526,,,D*67,0
1779391041372,$GPGGA,191721.000,1205.9938,S,07701.4546,W,2,06,1.4,139.6,M,8.4,M,2.0,0000*4C,0
1779391041489,$GPGSA,M,3,15,20,12,25,11,29,,,,,,,2.3,1.4,1.9*3B,0
1779391041654,$GPRMC,191721.000,A,1205.9938,S,07701.4546,W,0.00,294.94,210526,,,D*66,0
1779391042379,$GPGGA,191722.000,1205.9938,S,07701.4546,W,2,07,1.3,139.6,M,8.4,M,3.0,0000*48,0
1779391042500,$GPGSA,M,3,15,20,12,25,11,29,05,,,,,,2.2,1.3,1.7*36,0
1779391042665,$GPRMC,191722.000,A,1205.9938,S,07701.4546,W,0.00,294.94,210526,,,D*65,0
1779391043375,$GPGGA,191723.000,1205.9938,S,07701.4546,W,2,07,1.3,139.6,M,8.4,M,4.0,0000*4E,0
1779391043496,$GPGSA,M,3,15,20,12,25,11,29,05,,,,,,2.2,1.3,1.7*36,0
1779391043657,$GPGSV,3,1,12,15,67,328,43,20,49,020,41,12,47,221,44,25,26,262,33*7F,0
1779391043817,$GPGSV,3,2,12,11,20,058,39,29,18,332,36,05,09,002,24,06,10,095,22*78,0
1779391043973,$GPGSV,3,3,12,19,18,139,42,24,46,176,29,48,33,280,37,13,38,036,*77,0
1779391044138,$GPRMC,191723.000,A,1205.9938,S,07701.4546,W,0.00,294.94,210526,,,D*64,0
1779391044368,$GPGGA,191724.000,1205.9938,S,07701.4546,W,2,06,1.4,139.6,M,8.4,M,5.0,0000*4E,0
1779391044484,$GPGSA,M,3,15,20,12,25,11,29,,,,,,,2.3,1.4,1.9*3B,0
1779391044649,$GPRMC,191724.000,A,1205.9938,S,07701.4546,W,0.00,294.94,210526,,,D*63,0
1779391045377,$GPGGA,191725.000,1205.9938,S,07701.4546,W,2,07,1.3,139.6,M,8.4,M,2.0,0000*4E,0
1779391045498,$GPGSA,M,3,15,20,12,25,11,29,05,,,,,,2.2,1.3,1.7*36,0
1779391045663,$GPRMC,191725.000,A,1205.9938,S,07701.4546,W,0.00,294.94,210526,,,D*62,0
1779391046380,$GPGGA,191726.000,1205.9938,S,07701.4546,W,2,06,1.4,139.6,M,8.4,M,2.0,0000*4B,0
1779391046496,$GPGSA,M,3,15,20,12,25,11,29,,,,,,,2.3,1.4,1.9*3B,0
1779391046661,$GPRMC,191726.000,A,1205.9938,S,07701.4546,W,0.00,294.94,210526,,,D*61,0
1779391047376,$GPGGA,191727.000,1205.9938,S,07701.4546,W,2,07,1.3,139.6,M,8.4,M,2.0,0000*4C,0
1779391047497,$GPGSA,M,3,15,20,12,25,11,29,05,,,,,,2.2,1.3,1.7*36,0
1779391047662,$GPRMC,191727.000,A,1205.9938,S,07701.4546,W,0.00,294.94,210526,,,D*60,0
1779391048375,$GPGGA,191728.000,1205.9938,S,07701.4546,W,2,07,1.3,139.6,M,8.4,M,2.0,0000*43,0
1779391048496,$GPGSA,M,3,15,20,12,25,11,29,05,,,,,,2.2,1.3,1.7*36,0
1779391048656,$GPGSV,3,1,12,15,67,328,42,20,49,020,42,12,47,221,44,25,26,262,33*7D,0
1779391048817,$GPGSV,3,2,12,11,20,058,39,29,18,332,37,05,09,002,25,06,10,095,21*7B,0
1779391048973,$GPGSV,3,3,12,19,18,139,42,24,46,176,32,48,33,280,35,13,38,036,*7F,0
1779391049138,$GPRMC,191728.000,A,1205.9938,S,07701.4546,W,0.00,294.94,210526,,,D*6F,0
1779391049370,$GPGGA,191729.000,1205.9938,S,07701.4546,W,2,07,1.3,139.6,M,8.4,M,3.0,0000*43,0
1779391049492,$GPGSA,M,3,15,20,12,25,11,29,05,,,,,,2.2,1.3,1.7*36,0
1779391049657,$GPRMC,191729.000,A,1205.9938,S,07701.4546,W,0.00,294.94,210526,,,D*6E,0
1779391050377,$GPGGA,191730.000,1205.9938,S,07701.4546,W,2,07,1.3,139.6,M,8.4,M,4.0,0000*4C,0
1779391050498,$GPGSA,M,3,15,20,12,25,11,29,05,,,,,,2.2,1.3,1.7*36,0
1779391050663,$GPRMC,191730.000,A,1205.9938,S,07701.4546,W,0.00,294.94,210526,,,D*66,0
1779391051376,$GPGGA,191731.000,1205.9938,S,07701.4546,W,2,07,1.3,139.6,M,8.4,M,2.0,0000*4B,0
1779391051498,$GPGSA,M,3,15,20,12,25,11,29,05,,,,,,2.2,1.3,1.7*36,0
1779391051663,$GPRMC,191731.000,A,1205.9938,S,07701.4546,W,0.00,294.94,210526,,,D*67,0
1779391052377,$GPGGA,191732.000,1205.9938,S,07701.4546,W,2,06,1.4,139.6,M,8.4,M,2.0,0000*4E,0
1779391052494,$GPGSA,M,3,15,20,12,25,11,29,,,,,,,2.3,1.4,1.9*3B,0
1779391052659,$GPRMC,191732.000,A,1205.9938,S,07701.4546,W,0.00,294.94,210526,,,D*64,0
1779391053374,$GPGGA,191733.000,1205.9938,S,07701.4546,W,2,06,1.4,139.6,M,8.4,M,2.0,0000*4F,0
1779391053491,$GPGSA,M,3,15,20,12,25,11,29,,,,,,,2.3,1.4,1.9*3B,0
1779391053651,$GPGSV,3,1,12,15,67,328,43,20,49,020,43,12,47,221,45,25,26,262,32*7D,0
1779391053812,$GPGSV,3,2,12,11,20,058,40,29,18,332,37,06,10,095,17,13,38,036,44*75,0
1779391053967,$GPGSV,3,3,12,19,18,139,43,24,46,176,31,48,33,280,38,14,25,216,*7B,0
1779391054132,$GPRMC,191733.000,A,1205.9938,S,07701.4546,W,0.00,294.94,210526,,,D*65,0
1779391054368,$GPGGA,191734.000,1205.9938,S,07701.4546,W,2,06,1.4,139.6,M,8.4,M,3.0,0000*49,0
1779391054485,$GPGSA,M,3,15,20,12,25,11,29,,,,,,,2.3,1.4,1.9*3B,0
1779391054650,$GPRMC,191734.000,A,1205.9938,S,07701.4546,W,0.00,294.94,210526,,,D*62,0
1779391055375,$GPGGA,191735.000,1205.9938,S,07701.4546,W,2,06,1.4,139.6,M,8.4,M,2.0,0000*49,0
1779391055491,$GPGSA,M,3,15,20,12,25,11,29,,,,,,,2.3,1.4,1.9*3B,0
1779391055656,$GPRMC,191735.000,A,1205.9938,S,07701.4546,W,0.00,294.94,210526,,,D*63,0
1779391056374,$GPGGA,191736.000,1205.9938,S,07701.4546,W,2,06,1.4,139.6,M,8.4,M,3.0,0000*4B,0
1779391056491,$GPGSA,M,3,15,20,12,25,11,29,,,,,,,2.3,1.4,1.9*3B,0
1779391056656,$GPRMC,191736.000,A,1205.9938,S,07701.4546,W,0.00,294.94,210526,,,D*60,0
1779391057373,$GPGGA,191737.000,1205.9938,S,07701.4546,W,2,07,1.3,139.6,M,8.4,M,4.0,0000*4B,0
1779391057495,$GPGSA,M,3,15,20,12,25,11,29,05,,,,,,2.2,1.3,1.7*36,0
1779391057660,$GPRMC,191737.000,A,1205.9938,S,07701.4546,W,0.00,294.94,210526,,,D*61,0
1779391058374,$GPGGA,191738.000,1205.9938,S,07701.4547,W,2,06,1.4,139.6,M,8.4,M,2.0,0000*45,0
1779391058490,$GPGSA,M,3,15,20,12,25,11,29,,,,,,,2.3,1.4,1.9*3B,0
1779391058651,$GPGSV,3,1,12,15,67,328,43,20,49,020,43,12,47,221,46,25,26,262,32*7E,0
1779391058811,$GPGSV,3,2,12,11,20,058,39,29,18,332,37,06,10,095,21,13,38,036,45*7F,0
1779391058967,$GPGSV,3,3,12,19,18,139,43,24,46,176,31,48,33,280,37,14,25,216,*74,0
1779391059132,$GPRMC,191738.000,A,1205.9938,S,07701.4547,W,0.00,294.94,210526,,,D*6F,0
1779391059375,$GPGGA,191739.000,1205.9938,S,07701.4547,W,2,06,1.4,139.6,M,8.4,M,2.0,0000*44,0
1779391059492,$GPGSA,M,3,15,20,12,25,11,29,,,,,,,2.3,1.4,1.9*3B,0
1779391059657,$GPRMC,191739.000,A,1205.9938,S,07701.4547,W,0.00,294.94,210526,,,D*6E,0
1779391060368,$GPGGA,191740.000,1205.9938,S,07701.4547,W,2,06,1.4,139.6,M,8.4,M,3.0,0000*4B,0
1779391060484,$GPGSA,M,3,15,20,12,25,11,29,,,,,,,2.3,1.4,1.9*3B,0
1779391060649,$GPRMC,191740.000,A,1205.9938,S,07701.4547,W,0.00,294.94,210526,,,D*60,0
1779391061370,$GPGGA,191741.000,1205.9938,S,07701.4547,W,2,06,1.4,139.6,M,8.4,M,4.0,0000*4D,0
1779391061487,$GPGSA,M,3,15,20,12,25,11,29,,,,,,,2.3,1.4,1.9*3B,0
1779391061652,$GPRMC,191741.000,A,1205.9938,S,07701.4547,W,0.00,294.94,210526,,,D*61,0
1779391062378,$GPGGA,191742.000,1205.9938,S,07701.4547,W,2,07,1.3,139.5,M,8.4,M,2.0,0000*4D,0
1779391062500,$GPGSA,M,3,15,20,12,25,11,29,05,,,,,,2.2,1.3,1.7*36,0
1779391062665,$GPRMC,191742.000,A,1205.9938,S,07701.4547,W,0.00,294.94,210526,,,D*62,0
1779391063377,$GPGGA,191743.000,1205.9938,S,07701.4547,W,2,07,1.3,139.5,M,8.4,M,2.0,0000*4C,0
1779391063498,$GPGSA,M,3,15,20,12,25,11,29,05,,,,,,2.2,1.3,1.7*36,0
1779391063659,$GPGSV,3,1,12,15,67,328,43,20,49,020,43,12,47,221,46,25,26,262,32*7E,0
1779391063819,$GPGSV,3,2,12,11,20,058,39,29,18,332,38,05,09,002,23,06,10,095,18*78,0
1779391063975,$GPGSV,3,3,12,19,18,139,42,24,46,176,31,48,33,280,38,13,38,036,*71,0
1779391064140,$GPRMC,191743.000,A,1205.9938,S,07701.4547,W,0.00,294.94,210526,,,D*63,0
1779391064376,$GPGGA,191744.000,1205.9938,S,07701.4547,W,2,07,1.3,139.6,M,8.4,M,2.0,0000*48,0
1779391064497,$GPGSA,M,3,15,20,12,25,11,29,05,,,,,,2.2,1.3,1.7*36,0
1779391064662,$GPRMC,191744.000,A,1205.9938,S,07701.4547,W,0.00,294.94,210526,,,D*64,0
1779391065376,$GPGGA,191745.000,1205.9938,S,07701.4547,W,2,06,1.4,139.5,M,8.4,M,2.0,0000*4C,0
1779391065492,$GPGSA,M,3,15,20,12,25,11,29,,,,,,,2.3,1.4,1.9*3B,0
1779391065657,$GPRMC,191745.000,A,1205.9938,S,07701.4547,W,0.00,294.94,210526,,,D*65,0
1779391066376,$GPGGA,191746.000,1205.9938,S,07701.4547,W,2,06,1.4,139.5,M,8.4,M,2.0,0000*4F,0
1779391066493,$GPGSA,M,3,15,20,12,25,11,29,,,,,,,2.3,1.4,1.9*3B,0
1779391066658,$GPRMC,191746.000,A,1205.9938,S,07701.4547,W,0.00,294.94,210526,,,D*66,0
1779391067377,$GPGGA,191747.000,1205.9938,S,07701.4547,W,2,06,1.4,139.5,M,8.4,M,3.0,0000*4F,0
1779391067493,$GPGSA,M,3,15,20,12,25,11,29,,,,,,,2.3,1.4,1.9*3B,0
1779391067659,$GPRMC,191747.000,A,1205.9938,S,07701.4547,W,0.00,294.94,210526,,,D*67,0
1779391068371,$GPGGA,191748.000,1205.9938,S,07701.4547,W,2,06,1.4,139.5,M,8.4,M,4.0,0000*47,0
1779391068487,$GPGSA,M,3,15,20,12,25,11,29,,,,,,,2.3,1.4,1.9*3B,0
1779391068648,$GPGSV,3,1,12,15,67,328,43,20,49,020,43,12,47,221,46,25,26,262,32*7E,0
1779391068808,$GPGSV,3,2,12,11,20,058,39,29,18,332,37,05,09,002,26,06,10,095,21*78,0
1779391068964,$GPGSV,3,3,12,19,18,139,42,24,46,176,31,48,33,280,37,13,38,036,*7E,0
1779391069129,$GPRMC,191748.000,A,1205.9938,S,07701.4547,W,0.00,294.94,210526,,,D*68,0
1779391069376,$GPGGA,191749.000,1205.9938,S,07701.4547,W,2,06,1.4,139.5,M,8.4,M,2.0,0000*40,0
1779391069493,$GPGSA,M,3,15,20,12,25,11,29,,,,,,,2.3,1.4,1.9*3B,0
1779391069658,$GPRMC,191749.000,A,1205.9938,S,07701.4547,W,0.00,294.94,210526,,,D*69,0
1779391070376,$GPGGA,191750.000,1205.9938,S,07701.4547,W,2,06,1.4,139.5,M,8.4,M,2.0,0000*48,0
1779391070493,$GPGSA,M,3,15,20,12,25,11,29,,,,,,,2.3,1.4,1.9*3B,0
1779391070658,$GPRMC,191750.000,A,1205.9938,S,07701.4547,W,0.00,294.94,210526,,,D*61,0
1779391071377,$GPGGA,191751.000,1205.9938,S,07701.4547,W,2,06,1.4,139.5,M,8.4,M,2.0,0000*49,0
1779391071494,$GPGSA,M,3,15,20,12,25,11,29,,,,,,,2.3,1.4,1.9*3B,0
1779391071659,$GPRMC,191751.000,A,1205.9938,S,07701.4547,W,0.00,294.94,210526,,,D*60,0
1779391072376,$GPGGA,191752.000,1205.9938,S,07701.4547,W,2,06,1.4,139.5,M,8.4,M,3.0,0000*4B,0
1779391072492,$GPGSA,M,3,15,20,12,25,11,29,,,,,,,2.3,1.4,1.9*3B,0
1779391072657,$GPRMC,191752.000,A,1205.9938,S,07701.4547,W,0.00,294.94,210526,,,D*63,0
1779391073376,$GPGGA,191753.000,1205.9938,S,07701.4547,W,2,06,1.4,139.5,M,8.4,M,4.0,0000*4D,0
1779391073493,$GPGSA,M,3,15,20,12,25,11,29,,,,,,,2.3,1.4,1.9*3B,0
1779391073653,$GPGSV,3,1,12,15,67,328,42,20,49,020,43,12,47,221,46,25,26,262,33*7E,0
1779391073813,$GPGSV,3,2,12,11,20,058,39,29,18,332,37,05,09,002,27,06,10,095,22*7A,0
1779391073969,$GPGSV,3,3,12,19,18,139,41,24,46,176,32,48,33,280,38,13,38,036,*71,0
1779391074134,$GPRMC,191753.000,A,1205.9938,S,07701.4547,W,0.00,294.94,210526,,,D*62,0
1779391074377,$GPGGA,191754.000,1205.9938,S,07701.4547,W,2,06,1.4,139.5,M,8.4,M,5.0,0000*4B,0
1779391074494,$GPGSA,M,3,15,20,12,25,11,29,,,,,,,2.3,1.4,1.9*3B,0
1779391074659,$GPRMC,191754.000,A,1205.9938,S,07701.4547,W,0.00,294.94,210526,,,D*65,0
1779391075381,$GPGGA,191755.000,1205.9938,S,07701.4547,W,2,06,1.4,139.5,M,8.4,M,2.0,0000*4D,0
1779391075498,$GPGSA,M,3,15,20,12,25,11,29,,,,,,,2.3,1.4,1.9*3B,0
1779391075663,$GPRMC,191755.000,A,1205.9938,S,07701.4547,W,0.00,294.94,210526,,,D*64,0
1779391076375,$GPGGA,191756.000,1205.9938,S,07701.4547,W,2,06,1.4,139.5,M,8.4,M,2.0,0000*4E,0
1779391076492,$GPGSA,M,3,15,20,12,25,11,29,,,,,,,2.3,1.4,1.9*3B,0
1779391076657,$GPRMC,191756.000,A,1205.9938,S,07701.4547,W,0.00,294.94,210526,,,D*67,0
1779391077374,$GPGGA,191757.000,1205.9938,S,07701.4547,W,2,06,1.4,139.5,M,8.4,M,2.0,0000*4F,0
1779391077491,$GPGSA,M,3,15,20,12,25,11,29,,,,,,,2.3,1.4,1.9*3B,0
1779391077656,$GPRMC,191757.000,A,1205.9938,S,07701.4547,W,0.00,294.94,210526,,,D*66,0
1779391078378,$GPGGA,191758.000,1205.9938,S,07701.4547,W,2,06,1.4,139.5,M,8.4,M,3.0,0000*41,0
1779391078494,$GPGSA,M,3,15,20,12,25,11,29,,,,,,,2.3,1.4,1.9*3B,0
1779391078655,$GPGSV,3,1,12,15,67,328,42,20,49,020,43,12,47,221,47,25,26,262,33*7F,0
1779391078815,$GPGSV,3,2,12,11,20,058,39,29,18,332,36,06,10,095,22,13,38,036,45*7D,0
1779391078971,$GPGSV,3,3,12,19,18,139,41,24,46,176,33,48,33,280,38,14,25,216,*7B,0
1779391079136,$GPRMC,191758.000,A,1205.9938,S,07701.4547,W,0.00,294.94,210526,,,D*69,0
1779391079379,$GPGGA,191759.000,1205.9938,S,07701.4547,W,2,06,1.4,139.5,M,8.4,M,4.0,0000*47,0
1779391079496,$GPGSA,M,3,15,20,12,25,11,29,,,,,,,2.3,1.4,1.9*3B,0
1779391079661,$GPRMC,191759.000,A,1205.9938,S,07701.4547,W,0.00,294.94,210526,,,D*68,0
1779391080374,$GPGGA,191800.000,1205.9938,S,07701.4547,W,2,06,1.4,139.5,M,8.4,M,2.0,0000*42,0
1779391080491,$GPGSA,M,3,15,20,12,25,11,29,,,,,,,2.3,1.4,1.9*3B,0
1779391080656,$GPRMC,191800.000,A,1205.9938,S,07701.4547,W,0.00,294.94,210526,,,D*6B,0
1779391081377,$GPGGA,191801.000,1205.9938,S,07701.4547,W,2,06,1.4,139.5,M,8.4,M,2.0,0000*43,0
1779391081494,$GPGSA,M,3,15,20,12,25,11,29,,,,,,,2.3,1.4,1.9*3B,0
1779391081659,$GPRMC,191801.000,A,1205.9938,S,07701.4547,W,0.00,294.94,210526,,,D*6A,0
1779391082374,$GPGGA,191802.000,1205.9938,S,07701.4547,W,2,06,1.4,139.5,M,8.4,M,2.0,0000*40,0
1779391082491,$GPGSA,M,3,15,20,12,25,11,29,,,,,,,2.3,1.4,1.9*3B,0
1779391082656,$GPRMC,191802.000,A,1205.9938,S,07701.4547,W,0.00,294.94,210526,,,D*69,0
1779391083374,$GPGGA,191803.000,1205.9938,S,07701.4547,W,2,06,1.4,139.5,M,8.4,M,2.0,0000*41,0
1779391083491,$GPGSA,M,3,15,20,12,25,11,29,,,,,,,2.3,1.4,1.9*3B,0
1779391083652,$GPGSV,3,1,12,15,67,328,42,20,49,020,43,12,47,221,47,25,26,262,34*78,0
1779391083812,$GPGSV,3,2,12,11,20,058,39,29,18,332,36,06,10,095,22,13,38,036,45*7D,0
1779391083968,$GPGSV,3,3,12,19,18,139,41,24,46,176,33,48,33,280,39,14,25,216,*7A,0
1779391084133,$GPRMC,191803.000,A,1205.9938,S,07701.4547,W,0.00,294.94,210526,,,D*68,0
1779391084375,$GPGGA,191804.000,1205.9938,S,07701.4547,W,2,06,1.4,139.5,M,8.4,M,3.0,0000*47,0
1779391084492,$GPGSA,M,3,15,20,12,25,11,29,,,,,,,2.3,1.4,1.9*3B,0
1779391084657,$GPRMC,191804.000,A,1205.9938,S,07701.4547,W,0.00,294.94,210526,,,D*6F,0
1779391085372,$GPGGA,191805.000,1205.9938,S,07701.4547,W,2,06,1.4,139.5,M,8.4,M,4.0,0000*41,0
1779391085488,$GPGSA,M,3,15,20,12,25,11,29,,,,,,,2.3,1.4,1.9*3B,0
1779391085653,$GPRMC,191805.000,A,1205.9938,S,07701.4547,W,0.00,294.94,210526,,,D*6E,0
1779391086377,$GPGGA,191806.000,1205.9938,S,07701.4547,W,2,06,1.4,139.5,M,8.4,M,5.0,0000*43,0
1779391086494,$GPGSA,M,3,15,20,12,25,11,29,,,,,,,2.3,1.4,1.9*3B,0
1779391086659,$GPRMC,191806.000,A,1205.9938,S,07701.4547,W,0.00,294.94,210526,,,D*6D,0
1779391087377,$GPGGA,191807.000,1205.9938,S,07701.4547,W,2,06,1.4,139.5,M,8.4,M,2.0,0000*45,0
1779391087494,$GPGSA,M,3,15,20,12,25,11,29,,,,,,,2.3,1.4,1.9*3B,0
1779391087659,$GPRMC,191807.000,A,1205.9938,S,07701.4547,W,0.00,294.94,210526,,,D*6C,0
1779391088376,$GPGGA,191808.000,1205.9938,S,07701.4547,W,2,06,1.4,139.5,M,8.4,M,2.0,0000*4A,0
1779391088493,$GPGSA,M,3,15,20,12,25,11,29,,,,,,,2.3,1.4,1.9*3B,0
1779391088654,$GPGSV,3,1,12,15,67,328,43,20,49,020,43,12,47,221,46,25,26,262,35*79,0
1779391088814,$GPGSV,3,2,12,11,20,058,37,29,18,332,35,05,09,002,27,06,10,095,25*71,0
1779391088970,$GPGSV,3,3,12,19,18,139,42,24,46,176,33,48,33,280,38,13,38,036,*73,0
1779391089135,$GPRMC,191808.000,A,1205.9938,S,07701.4547,W,0.00,294.94,210526,,,D*63,0
1779391089377,$GPGGA,191809.000,1205.9938,S,07701.4547,W,2,06,1.4,139.5,M,8.4,M,2.0,0000*4B,0
1779391089494,$GPGSA,M,3,15,20,12,25,11,29,,,,,,,2.3,1.4,1.9*3B,0
1779391089659,$GPRMC,191809.000,A,1205.9938,S,07701.4547,W,0.00,294.94,210526,,,D*62,0
1779391090377,$GPGGA,191810.000,1205.9938,S,07701.4547,W,2,06,1.4,139.5,M,8.4,M,3.0,0000*42,0
1779391090494,$GPGSA,M,3,15,20,12,25,11,29,,,,,,,2.3,1.4,1.9*3B,0
1779391090659,$GPRMC,191810.000,A,1205.9938,S,07701.4547,W,0.00,294.94,210526,,,D*6A,0
1779391091377,$GPGGA,191811.000,1205.9938,S,07701.4547,W,2,06,1.4,139.5,M,8.4,M,4.0,0000*44,0
1779391091494,$GPGSA,M,3,15,20,12,25,11,29,,,,,,,2.3,1.4,1.9*3B,0
1779391091659,$GPRMC,191811.000,A,1205.9938,S,07701.4547,W,0.00,294.94,210526,,,D*6B,0
1779391092373,$GPGGA,191812.000,1205.9938,S,07701.4547,W,2,06,1.4,139.5,M,8.4,M,5.0,0000*46,0
1779391092490,$GPGSA,M,3,15,20,12,25,11,29,,,,,,,2.3,1.4,1.9*3B,0
1779391092655,$GPRMC,191812.000,A,1205.9938,S,07701.4547,W,0.00,294.94,210526,,,D*68,0
1779391093377,$GPGGA,191813.000,1205.9938,S,07701.4547,W,2,06,1.4,139.5,M,8.4,M,2.0,0000*40,0
1779391093494,$GPGSA,M,3,15,20,12,25,11,29,,,,,,,2.3,1.4,1.9*3B,0
1779391093654,$GPGSV,3,1,12,15,67,328,43,20,49,020,43,12,47,221,46,25,26,262,35*79,0
1779391093815,$GPGSV,3,2,12,11,20,058,37,29,18,332,27,05,09,002,28,06,10,095,26*7E,0
1779391093971,$GPGSV,3,3,12,19,18,139,43,24,46,176,32,48,33,280,38,13,38,036,*73,0
1779391094136,$GPRMC,191813.000,A,1205.9938,S,07701.4547,W,0.00,294.94,210526,,,D*69,0
1779391094377,$GPGGA,191814.000,1205.9938,S,07701.4547,W,2,06,1.4,139.5,M,8.4,M,2.0,0000*47,0
1779391094494,$GPGSA,M,3,15,20,12,25,11,29,,,,,,,2.3,1.4,1.9*3B,0
1779391094659,$GPRMC,191814.000,A,1205.9938,S,07701.4547,W,0.00,294.94,210526,,,D*6E,0
1779391095378,$GPGGA,191815.000,1205.9938,S,07701.4547,W,2,06,1.4,139.5,M,8.4,M,2.0,0000*46,0
1779391095494,$GPGSA,M,3,15,20,12,25,11,29,,,,,,,2.3,1.4,1.9*3B,0
1779391095659,$GPRMC,191815.000,A,1205.9938,S,07701.4547,W,0.00,294.94,210526,,,D*6F,0
1779391096377,$GPGGA,191816.000,1205.9938,S,07701.4547,W,2,06,1.4,139.5,M,8.4,M,2.0,0000*45,0
1779391096494,$GPGSA,M,3,15,20,12,25,11,29,,,,,,,2.3,1.4,1.9*3B,0
1779391096659,$GPRMC,191816.000,A,1205.9938,S,07701.4547,W,0.00,294.94,210526,,,D*6C,0
1779391097377,$GPGGA,191817.000,1205.9938,S,07701.4547,W,2,06,1.4,139.5,M,8.4,M,3.0,0000*45,0
1779391097494,$GPGSA,M,3,15,20,12,25,11,29,,,,,,,2.3,1.4,1.9*3B,0
1779391097659,$GPRMC,191817.000,A,1205.9938,S,07701.4547,W,0.00,294.94,210526,,,D*6D,0
1779391098378,$GPGGA,191818.000,1205.9938,S,07701.4547,W,2,06,1.4,139.5,M,8.4,M,4.0,0000*4D,0
1779391098495,$GPGSA,M,3,15,20,12,25,11,29,,,,,,,2.3,1.4,1.9*3B,0
1779391098655,$GPGSV,3,1,12,15,67,328,43,20,49,020,42,12,47,221,47,25,26,262,35*79,0
1779391098816,$GPGSV,3,2,12,11,20,058,36,29,18,332,28,05,09,002,29,06,10,095,27*70,0
1779391098972,$GPGSV,3,3,12,19,18,139,43,24,46,176,33,48,33,280,38,13,38,036,*72,0
1779391099137,$GPRMC,191818.000,A,1205.9938,S,07701.4547,W,0.00,294.94,210526,,,D*62,0
1779391099378,$GPGGA,191819.000,1205.9938,S,07701.4547,W,2,06,1.4,139.5,M,8.4,M,2.0,0000*4A,0
1779391099495,$GPGSA,M,3,15,20,12,25,11,29,,,,,,,2.3,1.4,1.9*3B,0
1779391099660,$GPRMC,191819.000,A,1205.9938,S,07701.4547,W,0.00,294.94,210526,,,D*63,0
1779391100377,$GPGGA,191820.000,1205.9938,S,07701.4547,W,2,06,1.4,139.5,M,8.4,M,2.0,0000*40,0
1779391100494,$GPGSA,M,3,15,20,12,25,11,29,,,,,,,2.3,1.4,1.9*3B,0
1779391100659,$GPRMC,191820.000,A,1205.9938,S,07701.4547,W,0.00,294.94,210526,,,D*69,0
1779391101377,$GPGGA,191821.000,1205.9938,S,07701.4547,W,2,06,1.4,139.5,M,8.4,M,2.0,0000*41,0
1779391101494,$GPGSA,M,3,15,20,12,25,11,29,,,,,,,2.3,1.4,1.9*3B,0
1779391101659,$GPRMC,191821.000,A,1205.9938,S,07701.4547,W,0.00,294.94,210526,,,D*68,0
1779391102372,$GPGGA,191822.000,1205.9938,S,07701.4547,W,2,06,1.4,139.5,M,8.4,M,3.0,0000*43,0
1779391102489,$GPGSA,M,3,15,20,12,25,11,29,,,,,,,2.3,1.4,1.9*3B,0
1779391102654,$GPRMC,191822.000,A,1205.9938,S,07701.4547,W,0.00,294.94,210526,,,D*6B,0
1779391103378,$GPGGA,191823.000,1205.9938,S,07701.4547,W,2,06,1.4,139.5,M,8.4,M,2.0,0000*43,0
1779391103494,$GPGSA,M,3,15,20,12,25,11,29,,,,,,,2.3,1.4,1.9*3B,0
1779391103655,$GPGSV,3,1,12,15,67,328,43,20,49,020,42,12,47,221,47,25,26,262,35*79,0
1779391103815,$GPGSV,3,2,12,11,20,058,36,29,18,332,33,05,09,002,29,06,10,095,28*75,0
1779391103971,$GPGSV,3,3,12,19,18,139,42,24,46,176,32,48,33,280,38,13,38,036,*72,0
1779391104136,$GPRMC,191823.000,A,1205.9938,S,07701.4547,W,0.00,294.94,210526,,,D*6A,0
1779391104378,$GPGGA,191824.000,1205.9938,S,07701.4547,W,2,06,1.4,139.5,M,8.4,M,3.0,0000*45,0
1779391104495,$GPGSA,M,3,15,20,12,25,11,29,,,,,,,2.3,1.4,1.9*3B,0
1779391104660,$GPRMC,191824.000,A,1205.9938,S,07701.4547,W,0.00,294.94,210526,,,D*6D,0
1779391105377,$GPGGA,191825.000,1205.9938,S,07701.4547,W,2,06,1.4,139.5,M,8.4,M,2.0,0000*45,0
1779391105494,$GPGSA,M,3,15,20,12,25,11,29,,,,,,,2.3,1.4,1.9*3B,0
1779391105659,$GPRMC,191825.000,A,1205.9938,S,07701.4547,W,0.00,294.94,210526,,,D*6C,0
1779391106375,$GPGGA,191826.000,1205.9938,S,07701.4547,W,2,06,1.4,139.5,M,8.4,M,2.0,0000*46,0
1779391106492,$GPGSA,M,3,15,20,12,25,11,29,,,,,,,2.3,1.4,1.9*3B,0
1779391106657,$GPRMC,191826.000,A,1205.9938,S,07701.4547,W,0.00,294.94,210526,,,D*6F,0
1779391107377,$GPGGA,191827.000,1205.9938,S,07701.4547,W,2,06,1.4,139.5,M,8.4,M,2.0,0000*47,0
1779391107494,$GPGSA,M,3,15,20,12,25,11,29,,,,,,,2.3,1.4,1.9*3B,0
1779391107659,$GPRMC,191827.000,A,1205.9938,S,07701.4547,W,0.00,294.94,210526,,,D*6E,0
1779391108372,$GPGGA,191828.000,1205.9938,S,07701.4547,W,2,06,1.4,139.5,M,8.4,M,3.0,0000*49,0
1779391108489,$GPGSA,M,3,15,20,12,25,11,29,,,,,,,2.3,1.4,1.9*3B,0
1779391108649,$GPGSV,3,1,12,15,67,328,42,20,49,020,42,12,47,221,47,25,26,262,36*7B,0
1779391108810,$GPGSV,3,2,12,11,20,058,36,29,18,332,30,05,09,002,22,06,10,095,27*72,0
1779391108965,$GPGSV,3,3,12,19,18,139,42,24,46,176,32,48,33,280,39,13,38,036,*73,0
1779391109130,$GPRMC,191828.000,A,1205.9938,S,07701.4547,W,0.00,294.94,210526,,,D*61,0
1779391109375,$GPGGA,191829.000,1205.9938,S,07701.4547,W,2,06,1.4,139.5,M,8.4,M,4.0,0000*4F,0
1779391109492,$GPGSA,M,3,15,20,12,25,11,29,,,,,,,2.3,1.4,1.9*3B,0
1779391109657,$GPRMC,191829.000,A,1205.9938,S,07701.4547,W,0.00,294.94,210526,,,D*60,0
1779391110379,$GPGGA,191830.000,1205.9938,S,07701.4547,W,2,06,1.4,139.5,M,8.4,M,2.0,0000*41,0
1779391110495,$GPGSA,M,3,15,20,12,25,11,29,,,,,,,2.3,1.4,1.9*3B,0
1779391110660,$GPRMC,191830.000,A,1205.9938,S,07701.4547,W,0.00,294.94,210526,,,D*68,0
1779391111376,$GPGGA,191831.000,1205.9939,S,07701.4547,W,2,06,1.4,139.5,M,8.4,M,2.0,0000*41,0
1779391111492,$GPGSA,M,3,15,20,12,25,11,29,,,,,,,2.3,1.4,1.9*3B,0
1779391111657,$GPRMC,191831.000,A,1205.9939,S,07701.4547,W,0.06,294.94,210526,,,D*6E,0
1779391112372,$GPGGA,191832.000,1205.9939,S,07701.4547,W,2,06,1.4,139.4,M,8.4,M,3.0,0000*42,0
1779391112489,$GPGSA,M,3,15,20,12,25,11,29,,,,,,,2.3,1.4,1.9*3B,0
1779391112654,$GPRMC,191832.000,A,1205.9939,S,07701.4547,W,0.00,294.94,210526,,,D*6B,0
1779391113378,$GPGGA,191833.000,1205.9939,S,07701.4547,W,2,06,1.4,139.4,M,8.4,M,2.0,0000*42,0
1779391113495,$GPGSA,M,3,15,20,12,25,11,29,,,,,,,2.3,1.4,1.9*3B,0
1779391113656,$GPGSV,3,1,12,15,67,328,42,20,49,020,42,12,47,221,48,25,26,262,38*7A,0
1779391113816,$GPGSV,3,2,12,11,20,058,38,29,18,332,32,05,09,002,21,06,10,095,17*7E,0
1779391113972,$GPGSV,3,3,12,19,18,139,42,24,46,176,26,48,33,280,38,13,38,036,*77,0
1779391114137,$GPRMC,191833.000,A,1205.9939,S,07701.4547,W,0.00,294.94,210526,,,D*6A,0
1779391114377,$GPGGA,191834.000,1205.9939,S,07701.4547,W,2,06,1.4,139.4,M,8.4,M,2.0,0000*45,0
1779391114494,$GPGSA,M,3,15,20,12,25,11,29,,,,,,,2.3,1.4,1.9*3B,0
1779391114659,$GPRMC,191834.000,A,1205.9939,S,07701.4547,W,0.00,294.94,210526,,,D*6D,0
1779391115378,$GPGGA,191835.000,1205.9939,S,07701.4547,W,2,06,1.4,139.4,M,8.4,M,2.0,0000*44,0
1779391115495,$GPGSA,M,3,15,20,12,25,11,29,,,,,,,2.3,1.4,1.9*3B,0
1779391115660,$GPRMC,191835.000,A,1205.9939,S,07701.4547,W,0.00,294.94,210526,,,D*6C,0
1779391116373,$GPGGA,191836.000,1205.9939,S,07701.4547,W,2,06,1.3,139.4,M,8.4,M,3.0,0000*41,0
1779391116489,$GPGSA,M,3,15,20,12,25,11,29,,,,,,,2.3,1.3,1.9*3C,0
1779391116654,$GPRMC,191836.000,A,1205.9939,S,07701.4547,W,0.00,294.94,210526,,,D*6F,0
1779391117378,$GPGGA,191837.000,1205.9939,S,07701.4547,W,2,06,1.3,139.4,M,8.4,M,2.0,0000*41,0
1779391117495,$GPGSA,M,3,15,20,12,25,11,29,,,,,,,2.3,1.3,1.9*3C,0
1779391117660,$GPRMC,191837.000,A,1205.9939,S,07701.4547,W,0.00,294.94,210526,,,D*6E,0
1779391118378,$GPGGA,191838.000,1205.9939,S,07701.4547,W,2,06,1.3,139.4,M,8.4,M,2.0,0000*4E,0
1779391118495,$GPGSA,M,3,15,20,12,25,11,29,,,,,,,2.3,1.3,1.9*3C,0
1779391118655,$GPGSV,3,1,12,15,67,328,42,20,49,020,42,12,47,221,48,25,26,262,38*7A,0
1779391118816,$GPGSV,3,2,12,11,20,058,39,29,18,332,33,05,09,002,26,06,10,095,24*79,0
1779391118972,$GPGSV,3,3,12,19,18,139,42,24,46,176,21,48,33,280,38,13,38,036,*70,0
1779391119137,$GPRMC,191838.000,A,1205.9939,S,07701.4547,W,0.00,294.94,210526,,,D*61,0
1779391119379,$GPGGA,191839.000,1205.9939,S,07701.4547,W,2,06,1.3,139.4,M,8.4,M,2.0,0000*4F,0
1779391119495,$GPGSA,M,3,15,20,12,25,11,29,,,,,,,2.3,1.3,1.9*3C,0
1779391119660,$GPRMC,191839.000,A,1205.9939,S,07701.4547,W,0.00,294.94,210526,,,D*60,0
1779391120378,$GPGGA,191840.000,1205.9939,S,07701.4547,W,2,06,1.3,139.4,M,8.4,M,2.0,0000*41,0
1779391120494,$GPGSA,M,3,15,20,12,25,11,29,,,,,,,2.3,1.3,1.9*3C,0
1779391120659,$GPRMC,191840.000,A,1205.9939,S,07701.4547,W,0.00,294.94,210526,,,D*6E,0
1779391121373,$GPGGA,191841.000,1205.9939,S,07701.4547,W,2,06,1.3,139.4,M,8.4,M,3.0,0000*41,0
1779391121490,$GPGSA,M,3,15,20,12,25,11,29,,,,,,,2.3,1.3,1.9*3C,0
1779391121655,$GPRMC,191841.000,A,1205.9939,S,07701.4547,W,0.00,294.94,210526,,,D*6F,0
1779391122380,$GPGGA,191842.000,1205.9939,S,07701.4547,W,2,06,1.3,139.4,M,8.4,M,4.0,0000*45,0
1779391122497,$GPGSA,M,3,15,20,12,25,11,29,,,,,,,2.3,1.3,1.9*3C,0
1779391122662,$GPRMC,191842.000,A,1205.9939,S,07701.4547,W,0.00,294.94,210526,,,D*6C,0
1779391123379,$GPGGA,191843.000,1205.9939,S,07701.4547,W,2,06,1.3,139.4,M,8.4,M,2.0,0000*42,0
1779391123496,$GPGSA,M,3,15,20,12,25,11,29,,,,,,,2.3,1.3,1.9*3C,0
1779391123656,$GPGSV,3,1,12,15,67,328,43,20,49,020,43,12,47,221,48,25,26,262,37*75,0
1779391123816,$GPGSV,3,2,12,11,20,058,39,29,18,332,34,05,09,002,28,06,10,095,24*70,0
1779391123972,$GPGSV,3,3,12,19,18,139,42,24,46,176,22,48,33,280,37,13,38,036,*7C,0
1779391124137,$GPRMC,191843.000,A,1205.9939,S,07701.4547,W,0.00,294.94,210526,,,D*6D,0
1779391124378,$GPGGA,191844.000,1205.9939,S,07701.4547,W,2,06,1.3,139.4,M,8.4,M,2.0,0000*45,0
1779391124495,$GPGSA,M,3,15,20,12,25,11,29,,,,,,,2.3,1.3,1.9*3C,0
1779391124660,$GPRMC,191844.000,A,1205.9939,S,07701.4547,W,0.00,294.94,210526,,,D*6A,0
1779391125377,$GPGGA,191845.000,1205.9939,S,07701.4547,W,2,06,1.3,139.4,M,8.4,M,2.0,0000*44,0
1779391125494,$GPGSA,M,3,15,20,12,25,11,29,,,,,,,2.3,1.3,1.9*3C,0
1779391125659,$GPRMC,191845.000,A,1205.9939,S,07701.4547,W,0.00,294.94,210526,,,D*6B,0
1779391126378,$GPGGA,191846.000,1205.9939,S,07701.4547,W,2,06,1.3,139.4,M,8.4,M,3.0,0000*46,0
1779391126495,$GPGSA,M,3,15,20,12,25,11,29,,,,,,,2.3,1.3,1.9*3C,0
1779391126660,$GPRMC,191846.000,A,1205.9939,S,07701.4547,W,0.00,294.94,210526,,,D*68,0
1779391127373,$GPGGA,191847.000,1205.9939,S,07701.4547,W,2,06,1.3,139.4,M,8.4,M,4.0,0000*40,0
1779391127490,$GPGSA,M,3,15,20,12,25,11,29,,,,,,,2.3,1.3,1.9*3C,0
1779391127655,$GPRMC,191847.000,A,1205.9939,S,07701.4547,W,0.00,294.94,210526,,,D*69,0
1779391128373,$GPGGA,191848.000,1205.9939,S,07701.4547,W,2,06,1.3,139.4,M,8.4,M,5.0,0000*4E,0
1779391128490,$GPGSA,M,3,15,20,12,25,11,29,,,,,,,2.3,1.3,1.9*3C,0
1779391128650,$GPGSV,3,1,12,15,67,328,43,20,49,020,43,12,47,221,48,25,26,262,38*7A,0
1779391128811,$GPGSV,3,2,12,11,20,058,40,29,18,332,36,05,09,002,30,06,10,095,22*73,0
1779391128966,$GPGSV,3,3,12,19,18,139,41,24,46,176,29,48,33,280,37,13,38,036,*74,0
1779391129131,$GPRMC,191848.000,A,1205.9939,S,07701.4547,W,0.00,294.94,210526,,,D*66,0
1779391129378,$GPGGA,191849.000,1205.9939,S,07701.4547,W,2,06,1.3,139.4,M,8.4,M,2.0,0000*48,0
1779391129495,$GPGSA,M,3,15,20,12,25,11,29,,,,,,,2.3,1.3,1.9*3C,0
1779391129660,$GPRMC,191849.000,A,1205.9939,S,07701.4547,W,0.00,294.94,210526,,,D*67,0
1779391130373,$GPGGA,191850.000,1205.9939,S,07701.4547,W,2,06,1.3,139.4,M,8.4,M,3.0,0000*41,0
1779391130490,$GPGSA,M,3,15,20,12,25,11,29,,,,,,,2.3,1.3,1.9*3C,0
1779391130655,$GPRMC,191850.000,A,1205.9939,S,07701.4547,W,0.00,294.94,210526,,,D*6F,0
1779391131378,$GPGGA,191851.000,1205.9939,S,07701.4547,W,2,06,1.3,139.4,M,8.4,M,2.0,0000*41,0
1779391131495,$GPGSA,M,3,15,20,12,25,11,29,,,,,,,2.3,1.3,1.9*3C,0
1779391131660,$GPRMC,191851.000,A,1205.9939,S,07701.4547,W,0.00,294.94,210526,,,D*6E,0
1779391132372,$GPGGA,191852.000,1205.9939,S,07701.4546,W,2,06,1.3,139.3,M,8.4,M,3.0,0000*45,0
1779391132489,$GPGSA,M,3,15,20,12,25,11,29,,,,,,,2.3,1.3,1.9*3C,0
1779391132654,$GPRMC,191852.000,A,1205.9939,S,07701.4546,W,0.04,294.94,210526,,,D*68,0
1779391133378,$GPGGA,191853.000,1205.9939,S,07701.4546,W,2,06,1.3,139.3,M,8.4,M,2.0,0000*45,0
1779391133495,$GPGSA,M,3,15,20,12,25,11,29,,,,,,,2.3,1.3,1.9*3C,0
1779391133655,$GPGSV,3,1,12,15,67,328,44,20,49,020,42,12,47,221,48,25,26,262,37*73,0
1779391133815,$GPGSV,3,2,12,11,20,058,40,29,18,332,38,05,09,002,23,06,10,095,15*7B,0
1779391133971,$GPGSV,3,3,12,19,18,139,41,24,46,176,31,48,33,280,36,13,38,036,*7C,0
1779391134136,$GPRMC,191853.000,A,1205.9939,S,07701.4546,W,0.00,294.94,210526,,,D*6D,0
1779391134379,$GPGGA,191854.000,1205.9939,S,07701.4546,W,2,06,1.3,139.3,M,8.4,M,3.0,0000*43,0
1779391134495,$GPGSA,M,3,15,20,12,25,11,29,,,,,,,2.3,1.3,1.9*3C,0
1779391134660,$GPRMC,191854.000,A,1205.9939,S,07701.4546,W,0.00,294.94,210526,,,D*6A,0
1779391135378,$GPGGA,191855.000,1205.9939,S,07701.4546,W,2,06,1.3,139.3,M,8.4,M,2.0,0000*43,0
1779391135495,$GPGSA,M,3,15,20,12,25,11,29,,,,,,,2.3,1.3,1.9*3C,0
1779391135660,$GPRMC,191855.000,A,1205.9939,S,07701.4546,W,0.00,294.94,210526,,,D*6B,0
1779391136377,$GPGGA,191856.000,1205.9939,S,07701.4546,W,2,06,1.3,139.3,M,8.4,M,2.0,0000*40,0
1779391136494,$GPGSA,M,3,15,20,12,25,11,29,,,,,,,2.3,1.3,1.9*3C,0
1779391136659,$GPRMC,191856.000,A,1205.9939,S,07701.4546,W,0.00,294.94,210526,,,D*68,0
1779391137372,$GPGGA,191857.000,1205.9939,S,07701.4546,W,2,06,1.3,139.3,M,8.4,M,3.0,0000*40,0
1779391137489,$GPGSA,M,3,15,20,12,25,11,29,,,,,,,2.3,1.3,1.9*3C,0
1779391137654,$GPRMC,191857.000,A,1205.9939,S,07701.4546,W,0.00,294.94,210526,,,D*69,0
1779391138378,$GPGGA,191858.000,1205.9939,S,07701.4546,W,2,06,1.3,139.3,M,8.4,M,4.0,0000*48,0
1779391138495,$GPGSA,M,3,15,20,12,25,11,29,,,,,,,2.3,1.3,1.9*3C,0
1779391138655,$GPGSV,3,1,12,15,67,328,44,20,49,020,42,12,47,221,48,25,26,262,38*7C,0
1779391138816,$GPGSV,3,2,12,11,20,058,40,29,18,332,39,05,09,002,26,06,10,095,23*7A,0
1779391138971,$GPGSV,3,3,12,19,18,139,40,24,46,176,31,48,33,280,37,13,38,036,*7C,0
1779391139136,$GPRMC,191858.000,A,1205.9939,S,07701.4546,W,0.00,294.94,210526,,,D*66,0
1779391139378,$GPGGA,191859.000,1205.9939,S,07701.4546,W,2,06,1.3,139.3,M,8.4,M,5.0,0000*48,0
1779391139495,$GPGSA,M,3,15,20,12,25,11,29,,,,,,,2.3,1.3,1.9*3C,0
1779391139660,$GPRMC,191859.000,A,1205.9939,S,07701.4546,W,0.00,294.94,210526,,,D*67,0
1779391140373,$GPGGA,191900.000,1205.9939,S,07701.4546,W,2,06,1.3,139.3,M,8.4,M,6.0,0000*46,0
1779391140490,$GPGSA,M,3,15,20,12,25,11,29,,,,,,,2.3,1.3,1.9*3C,0
1779391140655,$GPRMC,191900.000,A,1205.9939,S,07701.4546,W,0.00,294.94,210526,,,D*6A,0
1779391141378,$GPGGA,191901.000,1205.9939,S,07701.4546,W,2,06,1.3,139.3,M,8.4,M,2.0,0000*43,0
1779391141495,$GPGSA,M,3,15,20,12,25,11,29,,,,,,,2.3,1.3,1.9*3C,0
1779391141660,$GPRMC,191901.000,A,1205.9939,S,07701.4546,W,0.00,294.94,210526,,,D*6B,0
1779391142378,$GPGGA,191902.000,1205.9939,S,07701.4546,W,2,06,1.3,139.3,M,8.4,M,2.0,0000*40,0
1779391142495,$GPGSA,M,3,15,20,12,25,11,29,,,,,,,2.3,1.3,1.9*3C,0
1779391142660,$GPRMC,191902.000,A,1205.9939,S,07701.4546,W,0.00,294.94,210526,,,D*68,0
1779391143379,$GPGGA,191903.000,1205.9939,S,07701.4546,W,2,06,1.3,139.3,M,8.4,M,2.0,0000*41,0
