Unix_time,GPS_data,motion_flag
1779389613248,$GPRMC,185122.000,A,1205.9938,S,07701.4557,W,0.16,294.38,210526,,,D*67,0
1779389613248,$GPGGA,185123.000,1205.9938,S,07701.4557,W,2,07,1.3,142.9,M,8.4,M,3.0,0000*49,0
1779389613249,$GPGSA,M,3,15,20,12,25,11,05,06,,,,,,1.9,1.3,1.4*30,0
1779389613250,$GPGSV,3,1,12,15,76,292,44,20,62,026,42,12,49,239,42,25,23,275,25*71,0
1779389613251,$GPGSV,3,2,12,11,16,046,41,05,15,354,32,06,08,084,21,13,49,047,40*70,0
1779389613252,$GPGSV,3,3,12,19,27,132,39,24,39,188,44,29,08,332,22,48,33,280,41*72,0
1779389613252,$GPRMC,185123.000,A,1205.9938,S,07701.4557,W,0.02,294.38,210526,,,D*63,0
1779389613252,$GPGGA,185124.000,1205.9938,S,07701.4557,W,2,07,1.3,142.8,M,8.4,M,4.0,0000*48,0
1779389613253,$GPGSA,M,3,15,20,12,25,11,05,06,,,,,,1.9,1.3,1.4*30,0
1779389613253,$GPRMC,185124.000,A,1205.9938,S,07701.4557,W,0.01,294.38,210526,,,D*67,0
1779389613253,$GPGGA,185125.000,1205.9938,S,07701.4556,W,2,07,1.3,142.4,M,8.4,M,2.0,0000*42,0
1779389613253,$GPGSA,M,3,15,20,12,25,11,05,06,,,,,,1.9,1.3,1.4*30,0
1779389613253,$GPRMC,185125.000,A,1205.9938,S,07701.4556,W,0.08,294.38,210526,,,D*6E,0
1779389613253,$GPGGA,185126.000,1205.9938,S,07701.4556,W,2,07,1.3,142.4,M,8.4,M,2.0,0000*41,0
1779389613253,$GPGSA,M,3,15,20,12,25,11,05,06,,,,,,1.9,1.3,1.4*30,0
1779389613253,$GPRMC,185126.000,A,1205.9938,S,07701.4556,W,0.01,294.38,210526,,,D*64,0
1779389613254,$GPGGA,185127.000,1205.9938,S,07701.4556,W,2,07,1.3,142.4,M,8.4,M,2.0,0000*40,0
1779389613254,$GPGSA,M,3,15,20,12,25,11,05,06,,,,,,1.9,1.3,1.4*30,0
1779389613254,$GPRMC,185127.000,A,1205.9938,S,07701.4556,W,0.00,294.38,210526,,,D*64,0
1779389613254,$GPGGA,185128.000,1205.9938,S,07701.4556,W,2,07,1.3,142.4,M,8.4,M,2.0,0000*4F,0
1779389613255,$GPGSA,M,3,15,20,12,25,11,05,06,,,,,,1.9,1.3,1.4*30,0
1779389613256,$GPGSV,3,1,12,15,76,292,44,20,62,026,42,12,49,239,41,25,23,275,22*75,0
1779389613256,$GPGSV,3,2,12,11,16,046,41,05,15,354,31,06,08,084,21,13,49,047,41*72,0
1779389613256,$GPGSV,3,3,12,19,27,132,40,24,39,188,44,29,08,332,22,48,33,280,40*7D,0
1779389613257,$GPRMC,185128.000,A,1205.9938,S,07701.4556,W,0.00,294.38,210526,,,D*6B,0
1779389613257,$GPGGA,185129.000,1205.9938,S,07701.4556,W,2,07,1.3,142.4,M,8.4,M,3.0,0000*4F,0
1779389613257,$GPGSA,M,3,15,20,12,25,11,05,06,,,,,,1.9,1.3,1.4*30,0
1779389613257,$GPRMC,185129.000,A,1205.9938,S,07701.4556,W,0.00,294.38,210526,,,D*6A,0
1779389613257,$GPGGA,185130.000,1205.9938,S,07701.4556,W,2,08,1.2,142.4,M,8.4,M,4.0,0000*4E,0
1779389613257,$GPGSA,M,3,15,20,12,25,11,05,06,29,,,,,1.8,1.2,1.3*3C,0
1779389613257,$GPRMC,185130.000,A,1205.9938,S,07701.4556,W,0.00,294.38,210526,,,D*62,0
1779389613258,$GPGGA,185131.000,1205.9938,S,07701.4556,W,2,08,1.2,142.4,M,8.4,M,2.0,0000*49,0
1779389613258,$GPGSA,M,3,15,20,12,25,11,05,06,29,,,,,1.8,1.2,1.3*3C,0
1779389613258,$GPRMC,185131.000,A,1205.9938,S,07701.4556,W,0.00,294.38,210526,,,D*63,0
1779389613258,$GPGGA,185132.000,1205.9938,S,07701.4556,W,2,08,1.2,142.4,M,8.4,M,2.0,0000*4A,0
1779389613258,$GPGSA,M,3,15,20,12,25,11,05,06,29,,,,,1.8,1.2,1.3*3C,0
1779389613258,$GPRMC,185132.000,A,1205.9938,S,07701.4556,W,0.00,294.38,210526,,,D*60,0
1779389613259,$GPGGA,185133.000,1205.9938,S,07701.4555,W,2,08,1.2,142.1,M,8.4,M,2.0,0000*4D,0
1779389613259,$GPGSA,M,3,15,20,12,25,11,05,06,29,,,,,1.8,1.2,1.3*3C,0
1779389613259,$GPGSV,3,1,12,15,76,292,44,20,62,026,43,12,49,239,40,25,23,275,20*77,0
1779389613259,$GPGSV,3,2,12,11,16,046,41,05,15,354,31,06,08,084,21,29,08,332,21*79,0
1779389613259,$GPGSV,3,3,12,13,49,047,41,19,27,132,41,24,39,188,44,48,33,280,42*76,0
1779389613259,$GPRMC,185133.000,A,1205.9938,S,07701.4555,W,0.14,294.38,210526,,,D*67,0
1779389613260,$GPGGA,185134.000,1205.9938,S,07701.4555,W,2,08,1.2,142.1,M,8.4,M,2.0,0000*4A,0
1779389613260,$GPGSA,M,3,15,20,12,25,11,05,06,29,,,,,1.8,1.2,1.3*3C,0
1779389613260,$GPRMC,185134.000,A,1205.9938,S,07701.4555,W,0.01,294.38,210526,,,D*64,0
1779389613260,$GPGGA,185135.000,1205.9938,S,07701.4555,W,2,08,1.2,142.1,M,8.4,M,3.0,0000*4A,0
1779389613260,$GPGSA,M,3,15,20,12,25,11,05,06,29,,,,,1.8,1.2,1.3*3C,0
1779389613260,$GPRMC,185135.000,A,1205.9938,S,07701.4555,W,0.01,294.38,210526,,,D*65,0
1779389613261,$GPGGA,185136.000,1205.9938,S,07701.4555,W,2,08,1.2,142.1,M,8.4,M,4.0,0000*4E,0
1779389613261,$GPGSA,M,3,15,20,12,25,11,05,06,29,,,,,1.8,1.2,1.3*3C,0
1779389613261,$GPRMC,185136.000,A,1205.9938,S,07701.4555,W,0.00,294.38,210526,,,D*67,0
1779389613261,$GPGGA,185137.000,1205.9938,S,07701.4555,W,2,08,1.2,142.1,M,8.4,M,2.0,0000*49,0
1779389613261,$GPGSA,M,3,15,20,12,25,11,05,06,29,,,,,1.8,1.2,1.3*3C,0
1779389613261,$GPRMC,185137.000,A,1205.9938,S,07701.4555,W,0.00,294.38,210526,,,D*66,0
1779389613262,$GPGGA,185138.000,1205.9938,S,07701.4555,W,2,07,1.8,142.1,M,8.4,M,2.0,0000*43,0
1779389613262,$GPGSA,M,3,15,20,12,25,11,05,29,,,,,,2.6,1.8,1.9*37,0
1779389613262,$GPGSV,3,1,12,15,76,292,44,20,62,026,42,12,49,239,40,25,23,275,20*76,0
1779389613262,$GPGSV,3,2,12,11,16,046,40,05,15,354,30,29,08,332,21,06,08,084,11*7A,0
1779389613262,$GPGSV,3,3,12,13,49,047,40,19,27,132,41,24,39,188,44,48,33,280,40*75,0
1779389613262,$GPRMC,185138.000,A,1205.9938,S,07701.4555,W,0.00,294.38,210526,,,D*69,0
1779389613263,$GPGGA,185139.000,1205.9938,S,07701.4555,W,2,07,1.8,142.1,M,8.4,M,2.0,0000*42,0
1779389613263,$GPGSA,M,3,15,20,12,25,11,05,29,,,,,,2.6,1.8,1.9*37,0
1779389613263,$GPRMC,185139.000,A,1205.9938,S,07701.4555,W,0.00,294.38,210526,,,D*68,0
1779389613263,$GPGGA,185140.000,1205.9938,S,07701.4555,W,2,08,1.2,142.1,M,8.4,M,3.0,0000*48,0
1779389613263,$GPGSA,M,3,15,20,12,25,11,05,06,29,,,,,1.8,1.2,1.3*3C,0
1779389613263,$GPRMC,185140.000,A,1205.9938,S,07701.4555,W,0.06,294.38,210526,,,D*60,0
1779389613264,$GPGGA,185141.000,1205.9938,S,07701.4556,W,2,07,1.3,142.1,M,8.4,M,2.0,0000*45,0
1779389613264,$GPGSA,M,3,15,20,12,11,05,06,29,,,,,,2.0,1.3,1.5*37,0
1779389613264,$GPRMC,185141.000,A,1205.9938,S,07701.4556,W,0.01,294.38,210526,,,D*65,0
1779389613264,$GPGGA,185142.000,1205.9938,S,07701.4556,W,2,08,1.2,142.1,M,8.4,M,3.0,0000*49,0
1779389613264,$GPGSA,M,3,15,20,12,25,11,05,06,29,,,,,1.8,1.2,1.3*3C,0
1779389613264,$GPRMC,185142.000,A,1205.9938,S,07701.4556,W,0.00,294.38,210526,,,D*67,0
1779389613265,$GPGGA,185143.000,1205.9938,S,07701.4555,W,2,08,1.2,142.1,M,8.4,M,2.0,0000*4A,0
1779389613265,$GPGSA,M,3,15,20,12,25,11,05,06,29,,,,,1.8,1.2,1.3*3C,0
1779389613265,$GPGSV,3,1,12,15,76,292,44,20,62,026,42,12,49,239,41,25,23,275,22*75,0
1779389613265,$GPGSV,3,2,12,11,16,046,40,05,15,354,30,06,08,084,12,29,08,332,21*79,0
1779389613265,$GPGSV,3,3,12,13,49,047,40,19,27,132,41,24,39,188,44,48,33,280,39*7B,0
1779389613266,$GPRMC,185143.000,A,1205.9938,S,07701.4555,W,0.00,294.38,210526,,,D*65,0
1779389613267,$GPGGA,185144.000,1205.9938,S,07701.4555,W,2,08,1.2,142.1,M,8.4,M,2.0,0000*4D,0
1779389613268,$GPGSA,M,3,15,20,12,25,11,05,06,29,,,,,1.8,1.2,1.3*3C,0
1779389613268,$GPRMC,185144.000,A,1205.9938,S,07701.4555,W,0.00,294.38,210526,,,D*62,0
1779389613269,$GPGGA,185145.000,1205.9938,S,07701.4555,W,2,08,1.2,142.1,M,8.4,M,2.0,0000*4C,0
1779389613269,$GPGSA,M,3,15,20,12,25,11,05,06,29,,,,,1.8,1.2,1.3*3C,0
1779389613270,$GPRMC,185145.000,A,1205.9938,S,07701.4555,W,0.00,294.38,210526,,,D*63,0
1779389613270,$GPGGA,185146.000,1205.9938,S,07701.4555,W,2,08,1.2,142.1,M,8.4,M,3.0,0000*4E,0
1779389613270,$GPGSA,M,3,15,20,12,25,11,05,06,29,,,,,1.8,1.2,1.3*3C,0
1779389613270,$GPRMC,185146.000,A,1205.9938,S,07701.4555,W,0.00,294.38,210526,,,D*60,0
1779389613270,$GPGGA,185147.000,1205.9938,S,07701.4555,W,2,08,1.2,142.1,M,8.4,M,4.0,0000*48,0
1779389613271,$GPGSA,M,3,15,20,12,25,11,05,06,29,,,,,1.8,1.2,1.3*3C,0
1779389613271,$GPRMC,185147.000,A,1205.9938,S,07701.4555,W,0.00,294.38,210526,,,D*61,0
1779389613271,$GPGGA,185148.000,1205.9938,S,07701.4555,W,2,08,1.2,142.1,M,8.4,M,5.0,0000*46,0
1779389613271,$GPGSA,M,3,15,20,12,25,11,05,06,29,,,,,1.8,1.2,1.3*3C,0
1779389613271,$GPGSV,3,1,12,15,76,292,43,20,62,026,42,12,49,239,42,25,23,275,31*73,0
1779389613271,$GPGSV,3,2,12,11,16,046,38,05,15,354,30,06,08,084,26,29,08,332,26*76,0
1779389613271,$GPGSV,3,3,12,13,49,047,39,19,27,132,41,24,39,188,43,48,33,280,40*7C,0
1779389613272,$GPRMC,185148.000,A,1205.9938,S,07701.4555,W,0.00,294.38,210526,,,D*6E,0
1779389613272,$GPGGA,185149.000,1205.9938,S,07701.4555,W,2,08,1.2,142.1,M,8.4,M,2.0,0000*40,0
1779389613272,$GPGSA,M,3,15,20,12,25,11,05,06,29,,,,,1.8,1.2,1.3*3C,0
1779389613272,$GPRMC,185149.000,A,1205.9938,S,07701.4555,W,0.00,294.38,210526,,,D*6F,0
1779389613272,$GPGGA,185150.000,1205.9938,S,07701.4555,W,2,08,1.2,142.1,M,8.4,M,2.0,0000*48,0
1779389613272,$GPGSA,M,3,15,20,12,25,11,05,06,29,,,,,1.8,1.2,1.3*3C,0
1779389613272,$GPRMC,185150.000,A,1205.9938,S,07701.4555,W,0.00,294.38,210526,,,D*67,0
1779389613272,$GPGGA,185151.000,1205.9938,S,07701.4555,W,2,08,1.2,142.1,M,8.4,M,2.0,0000*49,0
1779389613273,$GPGSA,M,3,15,20,12,25,11,05,06,29,,,,,1.8,1.2,1.3*3C,0
1779389613273,$GPRMC,185151.000,A,1205.9938,S,07701.4555,W,0.00,294.38,210526,,,D*66,0
1779389613273,$GPGGA,185152.000,1205.9938,S,07701.4555,W,2,08,1.2,142.1,M,8.4,M,2.0,0000*4A,0
1779389613273,$GPGSA,M,3,15,20,12,25,11,05,06,29,,,,,1.8,1.2,1.3*3C,0
1779389613273,$GPRMC,185152.000,A,1205.9938,S,07701.4555,W,0.00,294.38,210526,,,D*65,0
1779389613273,$GPGGA,185153.000,1205.9938,S,07701.4555,W,2,08,1.2,142.1,M,8.4,M,3.0,0000*4A,0
1779389613273,$GPGSA,M,3,15,20,12,25,11,05,06,29,,,,,1.8,1.2,1.3*3C,0
1779389613273,$GPGSV,3,1,12,15,76,292,43,20,62,026,42,12,49,239,42,25,23,275,31*73,0
1779389613274,$GPGSV,3,2,12,11,16,046,37,05,15,354,30,06,08,084,21,29,08,332,26*7E,0
1779389613274,$GPGSV,3,3,12,13,49,047,39,19,27,132,41,24,39,188,43,48,33,280,39*72,0
1779389613274,$GPRMC,185153.000,A,1205.9938,S,07701.4555,W,0.00,294.38,210526,,,D*64,0
1779389613274,$GPGGA,185154.000,1205.9938,S,07701.4555,W,2,08,1.2,142.1,M,8.4,M,4.0,0000*4A,0
1779389613274,$GPGSA,M,3,15,20,12,25,11,05,06,29,,,,,1.8,1.2,1.3*3C,0
1779389613274,$GPRMC,185154.000,A,1205.9938,S,07701.4555,W,0.00,294.38,210526,,,D*63,0
1779389613275,$GPGGA,185155.000,1205.9938,S,07701.4556,W,2,08,1.2,142.0,M,8.4,M,2.0,0000*4F,0
1779389613275,$GPGSA,M,3,15,20,12,25,11,05,06,29,,,,,1.8,1.2,1.3*3C,0
1779389613275,$GPRMC,185155.000,A,1205.9938,S,07701.4556,W,0.11,294.38,210526,,,D*61,0
1779389613275,$GPGGA,185156.000,1205.9938,S,07701.4555,W,2,07,1.8,142.0,M,8.4,M,2.0,0000*4A,0
1779389613275,$GPGSA,M,3,15,20,12,25,11,05,29,,,,,,2.6,1.8,1.9*37,0
1779389613275,$GPRMC,185156.000,A,1205.9938,S,07701.4555,W,0.01,294.38,210526,,,D*60,0
1779389613275,$GPGGA,185157.000,1205.9938,S,07701.4555,W,2,07,1.8,142.0,M,8.4,M,2.0,0000*4B,0
1779389613275,$GPGSA,M,3,15,20,12,25,11,05,29,,,,,,2.6,1.8,1.9*37,0
1779389613276,$GPRMC,185157.000,A,1205.9938,S,07701.4555,W,0.00,294.38,210526,,,D*60,0
1779389613276,$GPGGA,185158.000,1205.9938,S,07701.4555,W,2,08,1.2,142.0,M,8.4,M,3.0,0000*40,0
1779389613276,$GPGSA,M,3,15,20,12,25,11,05,06,29,,,,,1.8,1.2,1.3*3C,0
1779389613276,$GPGSV,3,1,12,15,76,292,43,20,62,026,42,12,49,239,42,25,23,275,31*73,0
1779389613276,$GPGSV,3,2,12,11,16,046,36,05,15,354,29,06,08,084,18,29,08,332,26*7D,0
1779389613276,$GPGSV,3,3,12,13,49,047,40,19,27,132,41,24,39,188,43,48,33,280,39*7C,0
1779389613276,$GPRMC,185158.000,A,1205.9938,S,07701.4555,W,0.00,294.38,210526,,,D*6F,0
1779389613276,$GPGGA,185159.000,1205.9938,S,07701.4555,W,2,08,1.2,142.0,M,8.4,M,2.0,0000*40,0
1779389613277,$GPGSA,M,3,15,20,12,25,11,05,06,29,,,,,1.8,1.2,1.3*3C,0
1779389613277,$GPRMC,185159.000,A,1205.9938,S,07701.4555,W,0.00,294.38,210526,,,D*6E,0
1779389613277,$GPGGA,185200.000,1205.9938,S,07701.4555,W,2,08,1.2,142.0,M,8.4,M,2.0,0000*4F,0
1779389613277,$GPGSA,M,3,15,20,12,25,11,05,06,29,,,,,1.8,1.2,1.3*3C,0
1779389613277,$GPRMC,185200.000,A,1205.9938,S,07701.4555,W,0.00,294.38,210526,,,D*61,0
1779389613277,$GPGGA,185201.000,1205.9938,S,07701.4555,W,2,08,1.2,142.0,M,8.4,M,2.0,0000*4E,0
1779389613277,$GPGSA,M,3,15,20,12,25,11,05,06,29,,,,,1.8,1.2,1.3*3C,0
1779389613278,$GPRMC,185201.000,A,1205.9938,S,07701.4555,W,0.00,294.38,210526,,,D*60,0
1779389613278,$GPGGA,185202.000,1205.9938,S,07701.4555,W,2,08,1.2,142.0,M,8.4,M,2.0,0000*4D,0
1779389613278,$GPGSA,M,3,15,20,12,25,11,05,06,29,,,,,1.8,1.2,1.3*3C,0
1779389613278,$GPRMC,185202.000,A,1205.9938,S,07701.4555,W,0.00,294.38,210526,,,D*63,0
1779389613279,$GPGGA,185203.000,1205.9938,S,07701.4555,W,2,08,1.2,142.0,M,8.4,M,2.0,0000*4C,0
1779389613279,$GPGSA,M,3,15,20,12,25,11,05,06,29,,,,,1.8,1.2,1.3*3C,0
1779389613280,$GPGSV,3,1,12,15,76,292,43,20,62,026,42,12,49,239,42,25,23,275,31*73,0
1779389613281,$GPGSV,3,2,12,11,16,046,35,05,15,354,29,06,08,084,16,29,08,332,26*70,0
1779389613281,$GPGSV,3,3,12,13,49,047,40,19,27,132,41,24,39,188,43,48,33,280,40*72,0
1779389613282,$GPRMC,185203.000,A,1205.9938,S,07701.4555,W,0.00,294.38,210526,,,D*62,0
1779389613282,$GPGGA,185204.000,1205.9938,S,07701.4555,W,2,08,1.2,142.0,M,8.4,M,3.0,0000*4A,0
1779389613283,$GPGSA,M,3,15,20,12,25,11,05,06,29,,,,,1.8,1.2,1.3*3C,0
1779389613284,$GPRMC,185204.000,A,1205.9938,S,07701.4555,W,0.00,294.38,210526,,,D*65,0
1779389613284,$GPGGA,185205.000,1205.9938,S,07701.4555,W,2,08,1.2,142.0,M,8.4,M,4.0,0000*4C,0
1779389613285,$GPGSA,M,3,15,20,12,25,11,05,06,29,,,,,1.8,1.2,1.3*3C,0
1779389613285,$GPRMC,185205.000,A,1205.9938,S,07701.4555,W,0.00,294.38,210526,,,D*64,0
1779389613286,$GPGGA,185206.000,1205.9938,S,07701.4555,W,2,08,1.2,142.0,M,8.4,M,2.0,0000*49,0
1779389613286,$GPGSA,M,3,15,20,12,25,11,05,06,29,,,,,1.8,1.2,1.3*3C,0
1779389613286,$GPRMC,185206.000,A,1205.9938,S,07701.4555,W,0.00,294.38,210526,,,D*67,0
1779389613286,$GPGGA,185207.000,1205.9938,S,07701.4555,W,2,08,1.2,142.0,M,8.4,M,2.0,0000*48,0
1779389613287,$GPGSA,M,3,15,20,12,25,11,05,06,29,,,,,1.8,1.2,1.3*3C,0
1779389613287,$GPRMC,185207.000,A,1205.9938,S,07701.4555,W,0.00,294.38,210526,,,D*66,0
1779389613287,$GPGGA,185208.000,1205.9938,S,07701.4555,W,2,08,1.2,142.0,M,8.4,M,2.0,0000*47,0
1779389613288,$GPGSA,M,3,15,20,12,25,11,05,06,29,,,,,1.8,1.2,1.3*3C,0
1779389613288,$GPGSV,3,1,12,15,76,292,43,20,62,026,41,12,49,239,42,25,23,275,32*73,0
1779389613288,$GPGSV,3,2,12,11,16,046,35,05,15,354,26,06,08,084,18,29,08,332,26*71,0
1779389613288,$GPGSV,3,3,12,13,49,047,40,19,27,132,41,24,39,188,43,48,33,280,41*73,0
1779389613288,$GPRMC,185208.000,A,1205.9938,S,07701.4555,W,0.00,294.38,210526,,,D*69,0
1779389613288,$GPGGA,185209.000,1205.9938,S,07701.4555,W,2,08,1.2,142.0,M,8.4,M,2.0,0000*46,0
1779389613288,$GPGSA,M,3,15,20,12,25,11,05,06,29,,,,,1.8,1.2,1.3*3C,0
1779389613288,$GPRMC,185209.000,A,1205.9938,S,07701.4555,W,0.00,294.38,210526,,,D*68,0
1779389613289,$GPGGA,185210.000,1205.9938,S,07701.4555,W,2,08,1.2,142.0,M,8.4,M,3.0,0000*4F,0
1779389613289,$GPGSA,M,3,15,20,12,25,11,05,06,29,,,,,1.8,1.2,1.3*3C,0
1779389613289,$GPRMC,185210.000,A,1205.9938,S,07701.4555,W,0.00,294.38,210526,,,D*60,0
1779389613289,$GPGGA,185211.000,1205.9938,S,07701.4555,W,2,08,1.2,142.0,M,8.4,M,4.0,0000*49,0
1779389613289,$GPGSA,M,3,15,20,12,25,11,05,06,29,,,,,1.8,1.2,1.3*3C,0
1779389613289,$GPRMC,185211.000,A,1205.9938,S,07701.4555,W,0.00,294.38,210526,,,D*61,0
1779389613289,$GPGGA,185212.000,1205.9938,S,07701.4555,W,2,08,1.2,142.0,M,8.4,M,5.0,0000*4B,0
1779389613289,$GPGSA,M,3,15,20,12,25,11,05,06,29,,,,,1.8,1.2,1.3*3C,0
1779389613290,$GPRMC,185212.000,A,1205.9938,S,07701.4555,W,0.00,294.38,210526,,,D*62,0
1779389613290,$GPGGA,185213.000,1205.9938,S,07701.4555,W,2,08,1.2,142.0,M,8.4,M,2.0,0000*4D,0
1779389613290,$GPGSA,M,3,15,20,12,25,11,05,06,29,,,,,1.8,1.2,1.3*3C,0
1779389613290,$GPGSV,3,1,12,15,76,292,42,20,62,026,42,12,49,239,42,25,23,275,34*77,0
1779389613291,$GPGSV,3,2,12,11,16,046,35,05,15,354,29,06,08,084,18,29,08,332,26*7E,0
1779389613291,$GPGSV,3,3,12,13,49,047,40,19,27,132,40,24,39,188,42,48,33,280,41*73,0
1779389613292,$GPRMC,185213.000,A,1205.9938,S,07701.4555,W,0.00,294.38,210526,,,D*63,0
1779389613293,$GPGGA,185214.000,1205.9938,S,07701.4555,W,2,08,1.2,142.0,M,8.4,M,2.0,0000*4A,0
1779389613294,$GPGSA,M,3,15,20,12,25,11,05,06,29,,,,,1.8,1.2,1.3*3C,0
1779389613294,$GPRMC,185214.000,A,1205.9938,S,07701.4555,W,0.00,294.38,210526,,,D*64,0
1779389613295,$GPGGA,185215.000,1205.9938,S,07701.4555,W,2,08,1.2,142.0,M,8.4,M,2.0,0000*4B,0
1779389613296,$GPGSA,M,3,15,20,12,25,11,05,06,29,,,,,1.8,1.2,1.3*3C,0
1779389613296,$GPRMC,185215.000,A,1205.9938,S,07701.4555,W,0.00,294.38,210526,,,D*65,0
1779389613296,$GPGGA,185216.000,1205.9938,S,07701.4555,W,2,08,1.2,142.0,M,8.4,M,3.0,0000*49,0
1779389613296,$GPGSA,M,3,15,20,12,25,11,05,06,29,,,,,1.8,1.2,1.3*3C,0
1779389613296,$GPRMC,185216.000,A,1205.9938,S,07701.4555,W,0.00,294.38,210526,,,D*66,0
1779389613296,$GPGGA,185217.000,1205.9937,S,07701.4555,W,2,08,1.2,142.0,M,8.4,M,4.0,0000*40,0
1779389613296,$GPGSA,M,3,15,20,12,25,11,05,06,29,,,,,1.8,1.2,1.3*3C,0
1779389613297,$GPRMC,185217.000,A,1205.9937,S,07701.4555,W,0.07,294.38,210526,,,D*6F,0
1779389613297,$GPGGA,185218.000,1205.9937,S,07701.4555,W,2,07,1.3,142.0,M,8.4,M,5.0,0000*40,0
1779389613297,$GPGSA,M,3,15,20,12,25,11,05,06,,,,,,1.9,1.3,1.4*30,0
1779389613297,$GPGSV,3,1,12,15,76,292,42,20,62,026,42,12,49,239,41,25,23,275,33*73,0
1779389613297,$GPGSV,3,2,12,11,16,046,34,05,15,354,31,06,08,084,19,13,49,047,40*7A,0
1779389613297,$GPGSV,3,3,12,19,27,132,41,24,39,188,42,29,08,332,26,48,33,280,40*7E,0
1779389613297,$GPRMC,185218.000,A,1205.9937,S,07701.4555,W,0.01,294.38,210526,,,D*66,0
1779389613297,$GPGGA,185219.000,1205.9937,S,07701.4555,W,2,07,1.3,142.0,M,8.4,M,2.0,0000*46,0
1779389613298,$GPGSA,M,3,15,20,12,25,11,05,06,,,,,,1.9,1.3,1.4*30,0
1779389613298,$GPRMC,185219.000,A,1205.9937,S,07701.4555,W,0.00,294.38,210526,,,D*66,0
1779389613298,$GPGGA,185220.000,1205.9937,S,07701.4555,W,2,07,1.3,142.0,M,8.4,M,2.0,0000*4C,0
1779389613298,$GPGSA,M,3,15,20,12,25,11,05,06,,,,,,1.9,1.3,1.4*30,0
1779389613298,$GPRMC,185220.000,A,1205.9937,S,07701.4555,W,0.00,294.38,210526,,,D*6C,0
1779389613298,$GPGGA,185221.000,1205.9937,S,07701.4555,W,2,07,1.3,142.0,M,8.4,M,2.0,0000*4D,0
1779389613298,$GPGSA,M,3,15,20,12,25,11,05,06,,,,,,1.9,1.3,1.4*30,0
1779389613299,$GPRMC,185221.000,A,1205.9937,S,07701.4555,W,0.00,294.38,210526,,,D*6D,0
1779389613299,$GPGGA,185222.000,1205.9937,S,07701.4555,W,2,07,1.3,142.0,M,8.4,M,3.0,0000*4F,0
1779389613299,$GPGSA,M,3,15,20,12,25,11,05,06,,,,,,1.9,1.3,1.4*30,0
1779389613299,$GPRMC,185222.000,A,1205.9937,S,07701.4555,W,0.00,294.38,210526,,,D*6E,0
1779389613299,$GPGGA,185223.000,1205.9937,S,07701.4555,W,2,07,1.3,142.0,M,8.4,M,2.0,0000*4F,0
1779389613299,$GPGSA,M,3,15,20,12,25,11,05,06,,,,,,1.9,1.3,1.4*30,0
1779389613299,$GPGSV,3,1,12,15,76,292,43,20,62,026,42,12,49,239,40,25,23,275,33*73,0
1779389613299,$GPGSV,3,2,12,11,16,046,34,05,15,354,31,06,08,084,19,13,49,047,39*74,0
1779389613300,$GPGSV,3,3,12,19,27,132,40,24,39,188,42,29,08,332,17,48,33,280,40*7D,0
1779389613300,$GPRMC,185223.000,A,1205.9937,S,07701.4555,W,0.00,294.38,210526,,,D*6F,0
1779389613300,$GPGGA,185224.000,1205.9938,S,07701.4554,W,2,07,1.3,142.1,M,8.4,M,3.0,0000*46,0
1779389613300,$GPGSA,M,3,15,20,12,25,11,05,06,,,,,,1.9,1.3,1.4*30,0
1779389613300,$GPRMC,185224.000,A,1205.9938,S,07701.4554,W,0.10,294.38,210526,,,D*67,0
1779389613300,$GPGGA,185225.000,1205.9938,S,07701.4554,W,2,07,1.3,142.1,M,8.4,M,2.0,0000*46,0
1779389613300,$GPGSA,M,3,15,20,12,25,11,05,06,,,,,,1.9,1.3,1.4*30,0
1779389613300,$GPRMC,185225.000,A,1205.9938,S,07701.4554,W,0.01,294.38,210526,,,D*66,0
1779389613301,$GPGGA,185226.000,1205.9938,S,07701.4554,W,2,07,1.3,142.1,M,8.4,M,2.0,0000*45,0
1779389613301,$GPGSA,M,3,15,20,12,25,11,05,06,,,,,,1.9,1.3,1.4*30,0
1779389613301,$GPRMC,185226.000,A,1205.9938,S,07701.4554,W,0.03,294.38,210526,,,D*67,0
1779389613301,$GPGGA,185227.000,1205.9938,S,07701.4554,W,2,07,1.3,142.1,M,8.4,M,2.0,0000*44,0
1779389613301,$GPGSA,M,3,15,20,12,25,11,05,06,,,,,,1.9,1.3,1.4*30,0
1779389613301,$GPRMC,185227.000,A,1205.9938,S,07701.4554,W,0.00,294.38,210526,,,D*65,0
1779389613301,$GPGGA,185228.000,1205.9938,S,07701.4554,W,2,07,1.3,142.1,M,8.4,M,3.0,0000*4A,0
1779389613301,$GPGSA,M,3,15,20,12,25,11,05,06,,,,,,1.9,1.3,1.4*30,0
1779389613302,$GPGSV,3,1,12,15,76,292,44,20,62,026,43,12,49,239,39,25,23,275,33*7B,0
1779389613302,$GPGSV,3,2,12,11,16,046,35,05,15,354,30,06,08,084,18,13,49,047,38*74,0
1779389613302,$GPGSV,3,3,12,19,27,132,40,24,39,188,42,29,08,332,19,48,33,280,40*73,0
1779389613302,$GPRMC,185228.000,A,1205.9938,S,07701.4554,W,0.00,294.38,210526,,,D*6A,0
1779389613302,$GPGGA,185229.000,1205.9938,S,07701.4554,W,2,07,1.3,142.1,M,8.4,M,4.0,0000*4C,0
1779389613303,$GPGSA,M,3,15,20,12,25,11,05,06,,,,,,1.9,1.3,1.4*30,0
1779389613303,$GPRMC,185229.000,A,1205.9938,S,07701.4554,W,0.00,294.38,210526,,,D*6B,0
1779389613304,$GPGGA,185230.000,1205.9938,S,07701.4554,W,2,07,1.3,142.1,M,8.4,M,5.0,0000*45,0
1779389613305,$GPGSA,M,3,15,20,12,25,11,05,06,,,,,,1.9,1.3,1.4*30,0
1779389613306,$GPRMC,185230.000,A,1205.9938,S,07701.4554,W,0.00,294.38,210526,,,D*63,0
1779389613306,$GPGGA,185231.000,1205.9938,S,07701.4554,W,2,07,1.3,142.1,M,8.4,M,2.0,0000*43,0
1779389613307,$GPGSA,M,3,15,20,12,25,11,05,06,,,,,,1.9,1.3,1.4*30,0
1779389613308,$GPRMC,185231.000,A,1205.9938,S,07701.4554,W,0.00,294.38,210526,,,D*62,0
1779389613308,$GPGGA,185232.000,1205.9938,S,07701.4554,W,2,07,1.3,142.1,M,8.4,M,2.0,0000*40,0
1779389613309,$GPGSA,M,3,15,20,12,25,11,05,06,,,,,,1.9,1.3,1.4*30,0
1779389613310,$GPRMC,185232.000,A,1205.9938,S,07701.4554,W,0.00,294.38,210526,,,D*61,0
1779389613310,$GPGGA,185233.000,1205.9938,S,07701.4554,W,2,07,1.3,142.1,M,8.4,M,2.0,0000*41,0
1779389613311,$GPGSA,M,3,15,20,12,25,11,05,06,,,,,,1.9,1.3,1.4*30,0
1779389613311,$GPGSV,3,1,12,15,76,292,44,20,62,026,43,12,49,239,39,25,23,275,33*7B,0
1779389613312,$GPGSV,3,2,12,11,16,046,36,05,15,354,30,06,08,084,18,13,49,047,37*78,0
1779389613313,$GPGSV,3,3,12,19,27,132,40,24,39,188,42,29,08,332,21,48,33,280,41*79,0
1779389613314,$GPRMC,185233.000,A,1205.9938,S,07701.4554,W,0.00,294.38,210526,,,D*60,0
1779389613314,$GPGGA,185234.000,1205.9938,S,07701.4554,W,2,07,1.3,142.1,M,8.4,M,3.0,0000*47,0
1779389613315,$GPGSA,M,3,15,20,12,25,11,05,06,,,,,,1.9,1.3,1.4*30,0
1779389613316,$GPRMC,185234.000,A,1205.9938,S,07701.4554,W,0.00,294.38,210526,,,D*67,0
1779389613316,$GPGGA,185235.000,1205.9938,S,07701.4554,W,2,07,1.3,142.1,M,8.4,M,4.0,0000*41,0
1779389613317,$GPGSA,M,3,15,20,12,25,11,05,06,,,,,,1.9,1.3,1.4*30,0
1779389613318,$GPRMC,185235.000,A,1205.9938,S,07701.4554,W,0.00,294.38,210526,,,D*66,0
1779389613318,$GPGGA,185236.000,1205.9938,S,07701.4554,W,2,07,1.3,142.1,M,8.4,M,5.0,0000*43,0
1779389613319,$GPGSA,M,3,15,20,12,25,11,05,06,,,,,,1.9,1.3,1.4*30,0
1779389613320,$GPRMC,185236.000,A,1205.9938,S,07701.4554,W,0.00,294.38,210526,,,D*65,0
1779389613320,$GPGGA,185237.000,1205.9938,S,07701.4553,W,2,07,1.3,142.0,M,8.4,M,2.0,0000*43,0
1779389613321,$GPGSA,M,3,15,20,12,25,11,05,06,,,,,,1.9,1.3,1.4*30,0
1779389613322,$GPRMC,185237.000,A,1205.9938,S,07701.4553,W,0.11,294.38,210526,,,D*63,0
1779389613322,$GPGGA,185238.000,1205.9938,S,07701.4554,W,2,07,1.3,142.0,M,8.4,M,2.0,0000*4B,0
1779389613323,$GPGSA,M,3,15,20,12,25,11,05,06,,,,,,1.9,1.3,1.4*30,0
1779389613324,$GPGSV,3,1,12,15,76,292,44,20,62,026,43,12,49,239,39,25,23,275,34*7C,0
1779389613324,$GPGSV,3,2,12,11,16,046,35,05,15,354,35,06,08,084,20,13,49,047,37*75,0
1779389613325,$GPGSV,3,3,12,19,27,132,40,24,39,188,42,29,08,332,22,48,33,280,41*7A,0
1779389613326,$GPRMC,185238.000,A,1205.9938,S,07701.4554,W,0.01,294.38,210526,,,D*6A,0
1779389613326,$GPGGA,185239.000,1205.9938,S,07701.4554,W,2,07,1.3,142.0,M,8.4,M,2.0,0000*4A,0
1779389613327,$GPGSA,M,3,15,20,12,25,11,05,06,,,,,,1.9,1.3,1.4*30,0
1779389613328,$GPRMC,185239.000,A,1205.9938,S,07701.4554,W,0.00,294.38,210526,,,D*6A,0
1779389613328,$GPGGA,185240.000,1205.9938,S,07701.4554,W,2,07,1.3,142.0,M,8.4,M,2.0,0000*44,0
1779389613329,$GPGSA,M,3,15,20,12,25,11,05,06,,,,,,1.9,1.3,1.4*30,0
1779389613330,$GPRMC,185240.000,A,1205.9938,S,07701.4554,W,0.00,294.38,210526,,,D*64,0
1779389613330,$GPGGA,185241.000,1205.9938,S,07701.4554,W,2,07,1.3,142.0,M,8.4,M,2.0,0000*45,0
1779389613331,$GPGSA,M,3,15,20,12,25,11,05,06,,,,,,1.9,1.3,1.4*30,0
1779389613332,$GPRMC,185241.000,A,1205.9938,S,07701.4554,W,0.00,294.38,210526,,,D*65,0
1779389613332,$GPGGA,185242.000,1205.9938,S,07701.4554,W,2,07,1.3,142.0,M,8.4,M,3.0,0000*47,0
1779389613333,$GPGSA,M,3,15,20,12,25,11,05,06,,,,,,1.9,1.3,1.4*30,0
1779389613333,$GPRMC,185242.000,A,1205.9938,S,07701.4554,W,0.00,294.38,210526,,,D*66,0
1779389613334,$GPGGA,185243.000,1205.9938,S,07701.4554,W,2,07,1.3,142.0,M,8.4,M,2.0,0000*47,0
1779389613335,$GPGSA,M,3,15,20,12,25,11,05,06,,,,,,1.9,1.3,1.4*30,0
1779389613335,$GPGSV,3,1,12,15,76,292,43,20,62,026,42,12,49,239,39,25,23,275,34*7A,0
1779389613336,$GPGSV,3,2,12,11,16,046,35,05,15,354,35,06,08,084,24,13,49,047,38*7E,0
1779389613337,$GPGSV,3,3,12,19,27,132,41,24,39,188,42,29,08,332,24,48,33,280,40*7C,0
1779389613337,$GPRMC,185243.000,A,1205.9938,S,07701.4554,W,0.00,294.38,210526,,,D*67,0
1779389613337,$GPGGA,185244.000,1205.9938,S,07701.4554,W,2,07,1.3,142.0,M,8.4,M,2.0,0000*40,0
1779389613338,$GPGSA,M,3,15,20,12,25,11,05,06,,,,,,1.9,1.3,1.4*30,0
1779389613338,$GPRMC,185244.000,A,1205.9938,S,07701.4554,W,0.00,294.38,210526,,,D*60,0
1779389613338,$GPGGA,185245.000,1205.9938,S,07701.4554,W,2,06,2.0,142.0,M,8.4,M,2.0,0000*40,0
1779389613338,$GPGSA,M,3,15,20,12,25,11,05,,,,,,,2.7,2.0,1.9*36,0
1779389613338,$GPRMC,185245.000,A,1205.9938,S,07701.4554,W,0.00,294.38,210526,,,D*61,0
1779389613338,$GPGGA,185246.000,1205.9938,S,07701.4554,W,2,07,1.3,142.0,M,8.4,M,3.0,0000*43,0
1779389613338,$GPGSA,M,3,15,20,12,25,11,05,06,,,,,,1.9,1.3,1.4*30,0
1779389613338,$GPRMC,185246.000,A,1205.9938,S,07701.4554,W,0.00,294.38,210526,,,D*62,0
1779389613339,$GPGGA,185247.000,1205.9938,S,07701.4554,W,2,07,1.3,142.0,M,8.4,M,4.0,0000*45,0
1779389613339,$GPGSA,M,3,15,20,12,25,11,05,06,,,,,,1.9,1.3,1.4*30,0
1779389613339,$GPRMC,185247.000,A,1205.9938,S,07701.4554,W,0.00,294.38,210526,,,D*63,0
1779389613339,$GPGGA,185248.000,1205.9938,S,07701.4554,W,2,07,1.3,142.0,M,8.4,M,5.0,0000*4B,0
1779389613339,$GPGSA,M,3,15,20,12,25,11,05,06,,,,,,1.9,1.3,1.4*30,0
1779389613339,$GPGSV,3,1,12,15,76,292,43,20,62,026,42,12,49,239,39,25,23,275,35*7B,0
1779389613339,$GPGSV,3,2,12,11,16,046,36,05,15,354,36,06,08,084,13,13,49,047,38*7A,0
1779389613340,$GPGSV,3,3,12,19,27,132,41,24,39,188,42,29,08,332,25,48,33,280,41*7C,0
1779389613340,$GPRMC,185248.000,A,1205.9938,S,07701.4554,W,0.00,294.38,210526,,,D*6C,0
1779389613340,$GPGGA,185249.000,1205.9938,S,07701.4554,W,2,06,2.0,142.0,M,8.4,M,2.0,0000*4C,0
1779389613340,$GPGSA,M,3,15,20,12,25,11,05,,,,,,,2.7,2.0,1.9*36,0
1779389613340,$GPRMC,185249.000,A,1205.9938,S,07701.4554,W,0.00,294.38,210526,,,D*6D,0
1779389613340,$GPGGA,185250.000,1205.9938,S,07701.4554,W,2,06,2.0,142.0,M,8.4,M,2.0,0000*44,0
1779389613340,$GPGSA,M,3,15,20,12,25,11,05,,,,,,,2.7,2.0,1.9*36,0
1779389613340,$GPRMC,185250.000,A,1205.9938,S,07701.4554,W,0.00,294.38,210526,,,D*65,0
1779389613341,$GPGGA,185251.000,1205.9938,S,07701.4554,W,2,06,2.0,142.0,M,8.4,M,2.0,0000*45,0
1779389613341,$GPGSA,M,3,15,20,12,25,11,05,,,,,,,2.7,2.0,1.9*36,0
1779389613341,$GPRMC,185251.000,A,1205.9938,S,07701.4554,W,0.00,294.38,210526,,,D*64,0
1779389613341,$GPGGA,185252.000,1205.9938,S,07701.4554,W,2,07,1.3,142.0,M,8.4,M,3.0,0000*46,0
1779389613341,$GPGSA,M,3,15,20,12,25,11,05,06,,,,,,1.9,1.3,1.4*30,0
1779389613341,$GPRMC,185252.000,A,1205.9938,S,07701.4554,W,0.00,294.38,210526,,,D*67,0
1779389613341,$GPGGA,185253.000,1205.9938,S,07701.4554,W,2,07,1.8,142.0,M,8.4,M,4.0,0000*4B,0
1779389613341,$GPGSA,M,3,15,20,12,25,11,05,29,,,,,,2.6,1.8,1.9*37,0
1779389613342,$GPGSV,3,1,12,15,76,292,43,20,62,026,42,12,49,239,40,25,23,275,35*75,0
1779389613342,$GPGSV,3,2,12,11,16,046,36,05,15,354,36,29,08,332,26,06,08,084,17*7C,0
1779389613342,$GPGSV,3,3,12,13,49,047,39,19,27,132,41,24,39,188,41,48,33,280,41*7F,0
1779389613342,$GPRMC,185253.000,A,1205.9938,S,07701.4554,W,0.00,294.38,210526,,,D*66,0
1779389613343,$GPGGA,185254.000,1205.9938,S,07701.4554,W,2,07,1.8,142.0,M,8.4,M,2.0,0000*4A,0
1779389613343,$GPGSA,M,3,15,20,12,25,11,05,29,,,,,,2.6,1.8,1.9*37,0
1779389613344,$GPRMC,185254.000,A,1205.9938,S,07701.4554,W,0.00,294.38,210526,,,D*61,0
1779389613345,$GPGGA,185255.000,1205.9938,S,07701.4554,W,2,07,1.8,141.9,M,8.4,M,2.0,0000*41,0
1779389613345,$GPGSA,M,3,15,20,12,25,11,05,29,,,,,,2.6,1.8,1.9*37,0
1779389613346,$GPRMC,185255.000,A,1205.9938,S,07701.4554,W,0.00,294.38,210526,,,D*60,0
1779389613347,$GPGGA,185256.000,1205.9938,S,07701.4554,W,2,08,1.1,141.9,M,8.4,M,2.0,0000*44,0
1779389613347,$GPGSA,M,3,15,20,12,25,11,05,06,29,,,,,1.8,1.1,1.3*3F,0
1779389613348,$GPRMC,185256.000,A,1205.9938,S,07701.4554,W,0.00,294.38,210526,,,D*63,0
1779389613349,$GPGGA,185257.000,1205.9938,S,07701.4554,W,2,08,1.1,141.9,M,8.4,M,2.0,0000*45,0
1779389613349,$GPGSA,M,3,15,20,12,25,11,05,06,29,,,,,1.8,1.1,1.3*3F,0
1779389613350,$GPRMC,185257.000,A,1205.9938,S,07701.4554,W,0.00,294.38,210526,,,D*62,0
1779389613351,$GPGGA,185258.000,1205.9938,S,07701.4554,W,2,08,1.1,141.9,M,8.4,M,2.0,0000*4A,0
1779389613351,$GPGSA,M,3,15,20,12,25,11,05,06,29,,,,,1.8,1.1,1.3*3F,0
1779389613352,$GPGSV,3,1,12,15,76,292,43,20,62,026,42,12,49,239,41,25,23,275,36*77,0
1779389613352,$GPGSV,3,2,12,11,16,046,36,05,15,354,37,06,08,084,25,29,08,332,27*7D,0
1779389613353,$GPGSV,3,3,12,13,49,047,40,19,27,132,40,24,39,188,41,48,33,280,41*70,0
1779389613353,$GPRMC,185258.000,A,1205.9938,S,07701.4554,W,0.00,294.38,210526,,,D*6D,0
1779389613353,$GPGGA,185259.000,1205.9938,S,07701.4554,W,2,08,1.1,141.9,M,8.4,M,2.0,0000*4B,0
1779389613353,$GPGSA,M,3,15,20,12,25,11,05,06,29,,,,,1.8,1.1,1.3*3F,0
1779389613353,$GPRMC,185259.000,A,1205.9938,S,07701.4554,W,0.00,294.38,210526,,,D*6C,0
1779389613353,$GPGGA,185300.000,1205.9938,S,07701.4554,W,2,08,1.1,141.9,M,8.4,M,3.0,0000*47,0
1779389613353,$GPGSA,M,3,15,20,12,25,11,05,06,29,,,,,1.8,1.1,1.3*3F,0
1779389613353,$GPRMC,185300.000,A,1205.9938,S,07701.4554,W,0.00,294.38,210526,,,D*61,0
1779389613354,$GPGGA,185301.000,1205.9938,S,07701.4554,W,2,08,1.1,141.9,M,8.4,M,2.0,0000*47,0
1779389613354,$GPGSA,M,3,15,20,12,25,11,05,06,29,,,,,1.8,1.1,1.3*3F,0
1779389613354,$GPRMC,185301.000,A,1205.9938,S,07701.4554,W,0.00,294.38,210526,,,D*60,0
1779389613354,$GPGGA,185302.000,1205.9938,S,07701.4554,W,2,08,1.1,141.9,M,8.4,M,2.0,0000*44,0
1779389613355,$GPGSA,M,3,15,20,12,25,11,05,06,29,,,,,1.8,1.1,1.3*3F,0
1779389613355,$GPRMC,185302.000,A,1205.9938,S,07701.4554,W,0.00,294.38,210526,,,D*63,0
1779389613356,$GPGGA,185303.000,1205.9938,S,07701.4554,W,2,08,1.1,141.9,M,8.4,M,2.0,0000*45,0
1779389613357,$GPGSA,M,3,15,20,12,25,11,05,06,29,,,,,1.8,1.1,1.3*3F,0
1779389613357,$GPGSV,3,1,12,15,76,292,43,20,62,026,42,12,49,239,41,25,23,275,37*76,0
1779389613358,$GPGSV,3,2,12,11,16,046,36,05,15,354,37,06,08,084,26,29,08,332,26*7F,0
1779389613359,$GPGSV,3,3,12,13,49,047,40,19,27,132,39,24,39,188,41,48,33,280,41*7E,0
1779389613359,$GPRMC,185303.000,A,1205.9938,S,07701.4554,W,0.00,294.38,210526,,,D*62,0
1779389613359,$GPGGA,185304.000,1205.9937,S,07701.4554,W,2,08,1.1,141.6,M,8.4,M,2.0,0000*42,0
1779389613360,$GPGSA,M,3,15,20,12,25,11,05,06,29,,,,,1.8,1.1,1.3*3F,0
1779389613360,$GPRMC,185304.000,A,1205.9937,S,07701.4554,W,0.08,294.38,210526,,,D*62,0
1779389613360,$GPGGA,185305.000,1205.9937,S,07701.4555,W,2,08,1.1,141.5,M,8.4,M,2.0,0000*41,0
1779389613360,$GPGSA,M,3,15,20,12,25,11,05,06,29,,,,,1.8,1.1,1.3*3F,0
1779389613360,$GPRMC,185305.000,A,1205.9937,S,07701.4555,W,0.01,294.38,210526,,,D*6B,0
1779389613360,$GPGGA,185306.000,1205.9937,S,07701.4554,W,2,08,1.1,141.5,M,8.4,M,3.0,0000*42,0
1779389613360,$GPGSA,M,3,15,20,12,25,11,05,06,29,,,,,1.8,1.1,1.3*3F,0
1779389613360,$GPRMC,185306.000,A,1205.9937,S,07701.4554,W,0.01,294.38,210526,,,D*69,0
1779389613361,$GPGGA,185307.000,1205.9937,S,07701.4554,W,2,08,1.1,141.5,M,8.4,M,2.0,0000*42,0
1779389613361,$GPGSA,M,3,15,20,12,25,11,05,06,29,,,,,1.8,1.1,1.3*3F,0
1779389613361,$GPRMC,185307.000,A,1205.9937,S,07701.4554,W,0.00,294.38,210526,,,D*69,0
1779389613361,$GPGGA,185308.000,1205.9937,S,07701.4554,W,2,08,1.1,141.5,M,8.4,M,2.0,0000*4D,0
1779389613361,$GPGSA,M,3,15,20,12,25,11,05,06,29,,,,,1.8,1.1,1.3*3F,0
1779389613361,$GPGSV,3,1,12,15,76,292,43,20,62,026,42,12,49,239,41,25,23,275,38*79,0
1779389613361,$GPGSV,3,2,12,11,16,046,37,05,15,354,37,06,08,084,17,29,08,332,23*79,0
1779389613361,$GPGSV,3,3,12,13,49,047,40,19,27,132,38,24,39,188,40,48,33,280,41*7E,0
1779389613362,$GPRMC,185308.000,A,1205.9937,S,07701.4554,W,0.00,294.38,210526,,,D*66,0
1779389613362,$GPGGA,185309.000,1205.9937,S,07701.4554,W,2,07,1.8,141.5,M,8.4,M,2.0,0000*4A,0
1779389613362,$GPGSA,M,3,15,20,12,25,11,05,29,,,,,,2.6,1.8,1.9*37,0
1779389613362,$GPRMC,185309.000,A,1205.9937,S,07701.4554,W,0.00,294.38,210526,,,D*67,0
1779389613362,$GPGGA,185310.000,1205.9937,S,07701.4554,W,2,07,1.8,141.5,M,8.4,M,3.0,0000*43,0
1779389613362,$GPGSA,M,3,15,20,12,25,11,05,29,,,,,,2.6,1.8,1.9*37,0
1779389613362,$GPRMC,185310.000,A,1205.9937,S,07701.4554,W,0.00,294.38,210526,,,D*6F,0
1779389613363,$GPGGA,185311.000,1205.9937,S,07701.4554,W,2,07,1.8,141.5,M,8.4,M,4.0,0000*45,0
1779389613363,$GPGSA,M,3,15,20,12,25,11,05,29,,,,,,2.6,1.8,1.9*37,0
1779389613363,$GPRMC,185311.000,A,1205.9937,S,07701.4554,W,0.00,294.38,210526,,,D*6E,0
1779389613363,$GPGGA,185312.000,1205.9937,S,07701.4554,W,2,07,1.8,141.5,M,8.4,M,5.0,0000*47,0
1779389613363,$GPGSA,M,3,15,20,12,25,11,05,29,,,,,,2.6,1.8,1.9*37,0
1779389613363,$GPRMC,185312.000,A,1205.9937,S,07701.4554,W,0.00,294.38,210526,,,D*6D,0
1779389613363,$GPGGA,185313.000,1205.9936,S,07701.4555,W,2,07,1.8,141.2,M,8.4,M,2.0,0000*46,0
1779389613363,$GPGSA,M,3,15,20,12,25,11,05,29,,,,,,2.6,1.8,1.9*37,0
1779389613364,$GPGSV,3,1,12,15,76,292,43,20,62,026,41,12,49,239,41,25,23,275,39*7B,0
1779389613364,$GPGSV,3,2,12,11,16,046,38,05,15,354,35,29,08,332,18,06,08,084,05*7F,0
1779389613364,$GPGSV,3,3,12,13,49,047,41,19,27,132,37,24,39,188,40,48,33,280,41*70,0
1779389613364,$GPRMC,185313.000,A,1205.9936,S,07701.4555,W,0.12,294.38,210526,,,D*6F,0
1779389613364,$GPGGA,185314.000,1205.9936,S,07701.4555,W,2,08,1.1,141.2,M,8.4,M,2.0,0000*47,0
1779389613364,$GPGSA,M,3,15,20,12,25,11,05,06,29,,,,,1.8,1.1,1.3*3F,0
1779389613364,$GPRMC,185314.000,A,1205.9936,S,07701.4555,W,0.01,294.38,210526,,,D*6A,0
1779389613364,$GPGGA,185315.000,1205.9936,S,07701.4555,W,2,07,1.3,141.2,M,8.4,M,2.0,0000*4B,0
1779389613365,$GPGSA,M,3,15,20,12,25,11,05,06,,,,,,1.9,1.3,1.4*30,0
1779389613365,$GPRMC,185315.000,A,1205.9936,S,07701.4555,W,0.00,294.38,210526,,,D*6A,0
1779389613365,$GPGGA,185316.000,1205.9936,S,07701.4555,W,2,08,1.1,141.2,M,8.4,M,3.0,0000*44,0
1779389613365,$GPGSA,M,3,15,20,12,25,11,05,06,29,,,,,1.8,1.1,1.3*3F,0
1779389613365,$GPRMC,185316.000,A,1205.9936,S,07701.4555,W,0.00,294.38,210526,,,D*69,0
1779389613365,$GPGGA,185317.000,1205.9935,S,07701.4555,W,2,08,1.1,141.0,M,8.4,M,4.0,0000*43,0
1779389613365,$GPGSA,M,3,15,20,12,25,11,05,06,29,,,,,1.8,1.1,1.3*3F,0
1779389613365,$GPRMC,185317.000,A,1205.9935,S,07701.4555,W,0.05,294.38,210526,,,D*6E,0
1779389613366,$GPGGA,185318.000,1205.9935,S,07701.4556,W,2,08,1.1,141.0,M,8.4,M,5.0,0000*4E,0
1779389613366,$GPGSA,M,3,15,20,12,25,11,05,06,29,,,,,1.8,1.1,1.3*3F,0
1779389613366,$GPGSV,3,1,12,15,76,292,43,20,62,026,41,12,49,239,41,25,23,275,40*75,0
1779389613366,$GPGSV,3,2,12,11,16,046,38,05,15,354,32,06,08,084,24,29,08,332,15*76,0
1779389613366,$GPGSV,3,3,12,13,49,047,40,19,27,132,36,24,39,188,40,48,33,280,41*70,0
1779389613366,$GPRMC,185318.000,A,1205.9935,S,07701.4556,W,0.01,294.38,210526,,,D*66,0
1779389613367,$GPGGA,185319.000,1205.9935,S,07701.4555,W,2,08,1.1,141.0,M,8.4,M,2.0,0000*4B,0
1779389613367,$GPGSA,M,3,15,20,12,25,11,05,06,29,,,,,1.8,1.1,1.3*3F,0
1779389613367,$GPRMC,185319.000,A,1205.9935,S,07701.4555,W,0.00,294.38,210526,,,D*65,0
1779389613367,$GPGGA,185320.000,1205.9935,S,07701.4555,W,2,08,1.1,141.0,M,8.4,M,2.0,0000*41,0
1779389613367,$GPGSA,M,3,15,20,12,25,11,05,06,29,,,,,1.8,1.1,1.3*3F,0
1779389613367,$GPRMC,185320.000,A,1205.9935,S,07701.4555,W,0.00,294.38,210526,,,D*6F,0
1779389613367,$GPGGA,185321.000,1205.9935,S,07701.4555,W,2,08,1.1,141.0,M,8.4,M,2.0,0000*40,0
1779389613367,$GPGSA,M,3,15,20,12,25,11,05,06,29,,,,,1.8,1.1,1.3*3F,0
1779389613368,$GPRMC,185321.000,A,1205.9935,S,07701.4555,W,0.00,294.38,210526,,,D*6E,0
1779389613368,$GPGGA,185322.000,1205.9935,S,07701.4555,W,2,08,1.1,141.0,M,8.4,M,3.0,0000*42,0
1779389613368,$GPGSA,M,3,15,20,12,25,11,05,06,29,,,,,1.8,1.1,1.3*3F,0
1779389613368,$GPRMC,185322.000,A,1205.9935,S,07701.4555,W,0.00,294.38,210526,,,D*6D,0
1779389613368,$GPGGA,185323.000,1205.9935,S,07701.4555,W,2,08,1.1,141.0,M,8.4,M,4.0,0000*44,0
1779389613368,$GPGSA,M,3,15,20,12,25,11,05,06,29,,,,,1.8,1.1,1.3*3F,0
1779389613368,$GPGSV,3,1,12,15,76,292,43,20,62,026,41,12,49,239,41,25,23,275,40*75,0
1779389613368,$GPGSV,3,2,12,11,16,046,39,05,15,354,33,06,08,084,20,29,08,332,17*70,0
1779389613369,$GPGSV,3,3,12,13,49,047,40,19,27,132,35,24,39,188,39,48,33,280,41*7D,0
1779389613369,$GPRMC,185323.000,A,1205.9935,S,07701.4555,W,0.00,294.38,210526,,,D*6C,0
1779389613369,$GPGGA,185324.000,1205.9935,S,07701.4555,W,2,07,1.3,141.0,M,8.4,M,5.0,0000*4F,0
1779389613369,$GPGSA,M,3,15,20,12,25,11,05,06,,,,,,1.9,1.3,1.4*30,0
1779389613369,$GPRMC,185324.000,A,1205.9935,S,07701.4555,W,0.00,294.38,210526,,,D*6B,0
1779389613369,$GPGGA,185325.000,1205.9935,S,07701.4556,W,2,07,1.3,141.0,M,8.4,M,2.0,0000*4A,0
1779389613369,$GPGSA,M,3,15,20,12,25,11,05,06,,,,,,1.9,1.3,1.4*30,0
1779389613369,$GPRMC,185325.000,A,1205.9935,S,07701.4556,W,0.00,294.38,210526,,,D*69,0
1779389613370,$GPGGA,185326.000,1205.9935,S,07701.4556,W,2,07,1.3,141.0,M,8.4,M,2.0,0000*49,0
1779389613370,$GPGSA,M,3,15,20,12,25,11,05,06,,,,,,1.9,1.3,1.4*30,0
1779389613370,$GPRMC,185326.000,A,1205.9935,S,07701.4556,W,0.00,294.38,210526,,,D*6A,0
1779389613370,$GPGGA,185327.000,1205.9935,S,07701.4556,W,2,07,1.3,141.0,M,8.4,M,2.0,0000*48,0
1779389613370,$GPGSA,M,3,15,20,12,25,11,05,06,,,,,,1.9,1.3,1.4*30,0
1779389613370,$GPRMC,185327.000,A,1205.9935,S,07701.4556,W,0.00,294.38,210526,,,D*6B,0
1779389613370,$GPGGA,185328.000,1205.9935,S,07701.4556,W,2,07,1.3,141.0,M,8.4,M,2.0,0000*47,0
1779389613371,$GPGSA,M,3,15,20,12,25,11,05,06,,,,,,1.9,1.3,1.4*30,0
1779389613371,$GPGSV,3,1,12,15,76,292,44,20,62,026,41,12,49,239,41,25,23,275,39*7C,0
1779389613371,$GPGSV,3,2,12,11,16,046,40,05,15,354,29,06,08,084,20,13,49,047,41*7B,0
1779389613371,$GPGSV,3,3,12,19,27,132,32,24,39,188,40,29,08,332,24,48,33,280,41*7B,0
1779389613371,$GPRMC,185328.000,A,1205.9935,S,07701.4556,W,0.00,294.38,210526,,,D*64,0
1779389613371,$GPGGA,185329.000,1205.9935,S,07701.4556,W,2,07,1.3,141.0,M,8.4,M,2.0,0000*46,0
1779389613371,$GPGSA,M,3,15,20,12,25,11,05,06,,,,,,1.9,1.3,1.4*30,0
1779389613371,$GPRMC,185329.000,A,1205.9935,S,07701.4556,W,0.00,294.38,210526,,,D*65,0
1779389613372,$GPGGA,185330.000,1205.9935,S,07701.4556,W,2,07,1.3,141.0,M,8.4,M,3.0,0000*4F,0
1779389613372,$GPGSA,M,3,15,20,12,25,11,05,06,,,,,,1.9,1.3,1.4*30,0
1779389613372,$GPRMC,185330.000,A,1205.9935,S,07701.4556,W,0.00,294.38,210526,,,D*6D,0
1779389613372,$GPGGA,185331.000,1205.9935,S,07701.4556,W,2,07,1.3,141.0,M,8.4,M,2.0,0000*4F,0
1779389613372,$GPGSA,M,3,15,20,12,25,11,05,06,,,,,,1.9,1.3,1.4*30,0
1779389613372,$GPRMC,185331.000,A,1205.9935,S,07701.4556,W,0.00,294.38,210526,,,D*6C,0
1779389613372,$GPGGA,185332.000,1205.9935,S,07701.4556,W,2,07,1.3,141.0,M,8.4,M,2.0,0000*4C,0
1779389613372,$GPGSA,M,3,15,20,12,25,11,05,06,,,,,,1.9,1.3,1.4*30,0
1779389613373,$GPRMC,185332.000,A,1205.9935,S,07701.4556,W,0.00,294.38,210526,,,D*6F,0
1779389613373,$GPGGA,185333.000,1205.9935,S,07701.4556,W,2,07,1.3,141.0,M,8.4,M,2.0,0000*4D,0
1779389613430,$GPGSA,M,3,15,20,12,25,11,05,06,,,,,,1.9,1.3,1.4*30,0
1779389613591,$GPGSV,3,1,12,15,75,298,45,20,60,025,42,12,49,237,42,25,23,273,39*7D,0
1779389613751,$GPGSV,3,2,12,11,16,048,40,05,14,355,29,06,08,085,19,13,47,045,41*72,0
1779389613912,$GPGSV,3,3,12,19,26,133,33,24,40,186,39,29,09,332,24,48,33,280,42*76,0
1779389614077,$GPRMC,185333.000,A,1205.9935,S,07701.4556,W,0.00,294.38,210526,,,D*6E,0
1779389614303,$GPGGA,185334.000,1205.9935,S,07701.4556,W,2,07,1.3,140.9,M,8.4,M,3.0,0000*43,0
1779389614425,$GPGSA,M,3,15,20,12,25,11,05,06,,,,,,1.9,1.3,1.4*30,0
1779389614590,$GPRMC,185334.000,A,1205.9935,S,07701.4556,W,0.00,294.38,210526,,,D*69,0
1779389615308,$GPGGA,185335.000,1205.9935,S,07701.4556,W,2,07,1.3,140.9,M,8.4,M,2.0,0000*43,0
1779389615429,$GPGSA,M,3,15,20,12,25,11,05,06,,,,,,1.9,1.3,1.4*30,0
1779389615594,$GPRMC,185335.000,A,1205.9935,S,07701.4556,W,0.00,294.38,210526,,,D*68,0
1779389616309,$GPGGA,185336.000,1205.9935,S,07701.4555,W,2,07,1.3,140.9,M,8.4,M,3.0,0000*42,0
1779389616430,$GPGSA,M,3,15,20,12,25,11,05,06,,,,,,1.9,1.3,1.4*30,0
1779389616595,$GPRMC,185336.000,A,1205.9935,S,07701.4555,W,0.00,294.38,210526,,,D*68,0
1779389617308,$GPGGA,185337.000,1205.9935,S,07701.4555,W,2,07,1.3,140.9,M,8.4,M,2.0,0000*42,0
1779389617430,$GPGSA,M,3,15,20,12,25,11,05,06,,,,,,1.9,1.3,1.4*30,0
1779389617595,$GPRMC,185337.000,A,1205.9935,S,07701.4555,W,0.00,294.38,210526,,,D*69,0
1779389618307,$GPGGA,185338.000,1205.9935,S,07701.4555,W,2,07,1.3,140.9,M,8.4,M,2.0,0000*4D,0
1779389618429,$GPGSA,M,3,15,20,12,25,11,05,06,,,,,,1.9,1.3,1.4*30,0
1779389618589,$GPGSV,3,1,12,15,75,298,44,20,60,025,42,12,49,237,41,25,23,273,40*71,0
1779389618750,$GPGSV,3,2,12,11,16,048,41,05,14,355,30,06,08,085,19,13,47,045,39*74,0
1779389618910,$GPGSV,3,3,12,19,26,133,32,24,40,186,39,29,09,332,24,48,33,280,42*77,0
1779389619075,$GPRMC,185338.000,A,1205.9935,S,07701.4555,W,0.00,294.38,210526,,,D*66,0
1779389619306,$GPGGA,185339.000,1205.9935,S,07701.4555,W,2,07,1.3,140.9,M,8.4,M,2.0,0000*4C,0
1779389619427,$GPGSA,M,3,15,20,12,25,11,05,06,,,,,,1.9,1.3,1.4*30,0
1779389619592,$GPRMC,185339.000,A,1205.9935,S,07701.4555,W,0.00,294.38,210526,,,D*67,0
1779389620306,$GPGGA,185340.000,1205.9935,S,07701.4555,W,2,07,1.3,140.9,M,8.4,M,3.0,0000*43,0
1779389620427,$GPGSA,M,3,15,20,12,25,11,05,06,,,,,,1.9,1.3,1.4*30,0
1779389620592,$GPRMC,185340.000,A,1205.9935,S,07701.4555,W,0.00,294.38,210526,,,D*69,0
1779389621307,$GPGGA,185341.000,1205.9935,S,07701.4555,W,2,07,1.3,140.9,M,8.4,M,4.0,0000*45,0
1779389621428,$GPGSA,M,3,15,20,12,25,11,05,06,,,,,,1.9,1.3,1.4*30,0
1779389621593,$GPRMC,185341.000,A,1205.9935,S,07701.4555,W,0.00,294.38,210526,,,D*68,0
1779389622309,$GPGGA,185342.000,1205.9935,S,07701.4556,W,2,07,1.3,140.9,M,8.4,M,5.0,0000*44,0
1779389622430,$GPGSA,M,3,15,20,12,25,11,05,06,,,,,,1.9,1.3,1.4*30,0
1779389622595,$GPRMC,185342.000,A,1205.9935,S,07701.4556,W,0.00,294.38,210526,,,D*68,0
1779389623307,$GPGGA,185343.000,1205.9935,S,07701.4556,W,2,07,1.3,140.9,M,8.4,M,2.0,0000*42,0
1779389623429,$GPGSA,M,3,15,20,12,25,11,05,06,,,,,,1.9,1.3,1.4*30,0
1779389623589,$GPGSV,3,1,12,15,75,298,44,20,60,025,41,12,49,237,40,25,23,273,39*7D,0
1779389623749,$GPGSV,3,2,12,11,16,048,40,05,14,355,25,06,08,085,19,13,47,045,39*71,0
1779389623910,$GPGSV,3,3,12,19,26,133,33,24,40,186,39,29,09,332,24,48,33,280,42*76,0
1779389624075,$GPRMC,185343.000,A,1205.9935,S,07701.4556,W,0.00,294.38,210526,,,D*69,0
1779389624306,$GPGGA,185344.000,1205.9935,S,07701.4556,W,2,07,1.3,140.9,M,8.4,M,2.0,0000*45,0
1779389624428,$GPGSA,M,3,15,20,12,25,11,05,06,,,,,,1.9,1.3,1.4*30,0
1779389624593,$GPRMC,185344.000,A,1205.9935,S,07701.4556,W,0.00,294.38,210526,,,D*6E,0
1779389625309,$GPGGA,185345.000,1205.9935,S,07701.4556,W,2,08,1.1,140.9,M,8.4,M,2.0,0000*49,0
1779389625435,$GPGSA,M,3,15,20,12,25,11,05,29,06,,,,,1.8,1.1,1.3*3F,0
1779389625600,$GPRMC,185345.000,A,1205.9935,S,07701.4556,W,0.00,294.38,210526,,,D*6F,0
1779389626308,$GPGGA,185346.000,1205.9935,S,07701.4556,W,2,08,1.1,140.9,M,8.4,M,3.0,0000*4B,0
1779389626434,$GPGSA,M,3,15,20,12,25,11,05,29,06,,,,,1.8,1.1,1.3*3F,0
1779389626599,$GPRMC,185346.000,A,1205.9935,S,07701.4556,W,0.00,294.38,210526,,,D*6C,0
1779389627308,$GPGGA,185347.000,1205.9935,S,07701.4556,W,2,08,1.1,140.9,M,8.4,M,4.0,0000*4D,0
1779389627434,$GPGSA,M,3,15,20,12,25,11,05,29,06,,,,,1.8,1.1,1.3*3F,0
1779389627599,$GPRMC,185347.000,A,1205.9935,S,07701.4556,W,0.00,294.38,210526,,,D*6D,0
1779389628312,$GPGGA,185348.000,1205.9935,S,07701.4556,W,2,07,1.3,140.9,M,8.4,M,5.0,0000*4E,0
1779389628433,$GPGSA,M,3,15,20,12,25,11,05,06,,,,,,1.9,1.3,1.4*30,0
1779389628593,$GPGSV,3,1,12,15,75,298,44,20,60,025,40,12,49,237,40,25,23,273,39*7C,0
1779389628754,$GPGSV,3,2,12,11,16,048,40,05,14,355,32,06,08,085,19,13,47,045,38*76,0
1779389628914,$GPGSV,3,3,12,19,26,133,34,24,40,186,39,29,09,332,25,48,33,280,41*73,0
1779389629079,$GPRMC,185348.000,A,1205.9935,S,07701.4556,W,0.00,294.38,210526,,,D*62,0
1779389629310,$GPGGA,185349.000,1205.9935,S,07701.4556,W,2,07,1.3,140.9,M,8.4,M,2.0,0000*48,0
1779389629431,$GPGSA,M,3,15,20,12,25,11,05,06,,,,,,1.9,1.3,1.4*30,0
1779389629596,$GPRMC,185349.000,A,1205.9935,S,07701.4556,W,0.00,294.38,210526,,,D*63,0
1779389630310,$GPGGA,185350.000,1205.9935,S,07701.4556,W,2,07,1.3,140.9,M,8.4,M,2.0,0000*40,0
1779389630431,$GPGSA,M,3,15,20,12,25,11,05,06,,,,,,1.9,1.3,1.4*30,0
1779389630596,$GPRMC,185350.000,A,1205.9935,S,07701.4556,W,0.00,294.38,210526,,,D*6B,0
1779389631310,$GPGGA,185351.000,1205.9935,S,07701.4556,W,2,07,1.3,140.9,M,8.4,M,2.0,0000*41,0
1779389631431,$GPGSA,M,3,15,20,12,25,11,05,06,,,,,,1.9,1.3,1.4*30,0
1779389631596,$GPRMC,185351.000,A,1205.9935,S,07701.4556,W,0.00,294.38,210526,,,D*6A,0
1779389632309,$GPGGA,185352.000,1205.9935,S,07701.4556,W,2,07,1.3,140.9,M,8.4,M,3.0,0000*43,0
1779389632430,$GPGSA,M,3,15,20,12,25,11,05,06,,,,,,1.9,1.3,1.4*30,0
1779389632595,$GPRMC,185352.000,A,1205.9935,S,07701.4556,W,0.00,294.38,210526,,,D*69,0
1779389633310,$GPGGA,185353.000,1205.9935,S,07701.4556,W,2,07,1.3,140.9,M,8.4,M,2.0,0000*43,1
1779389633431,$GPGSA,M,3,15,20,12,25,11,05,06,,,,,,1.9,1.3,1.4*30,1
1779389633592,$GPGSV,3,1,12,15,75,298,44,20,60,025,40,12,49,237,40,25,23,273,40*72,1
1779389633752,$GPGSV,3,2,12,11,16,048,40,05,14,355,30,06,08,085,21,13,47,045,39*7E,1
1779389633913,$GPGSV,3,3,12,19,26,133,34,24,40,186,40,29,09,332,25,48,33,280,42*7E,1
1779389634078,$GPRMC,185353.000,A,1205.9935,S,07701.4556,W,0.00,294.38,210526,,,D*68,1
1779389634311,$GPGGA,185354.000,1205.9935,S,07701.4556,W,2,07,1.3,140.9,M,8.4,M,3.0,0000*45,1
1779389634432,$GPGSA,M,3,15,20,12,25,11,05,06,,,,,,1.9,1.3,1.4*30,1
1779389634597,$GPRMC,185354.000,A,1205.9935,S,07701.4556,W,0.00,294.38,210526,,,D*6F,1
1779389635328,$GPGGA,185355.000,1205.9935,S,07701.4556,W,2,07,1.3,140.9,M,8.4,M,2.0,0000*45,1
1779389635450,$GPGSA,M,3,15,20,12,25,11,05,06,,,,,,1.9,1.3,1.4*30,1
1779389635615,$GPRMC,185355.000,A,1205.9935,S,07701.4556,W,0.00,294.38,210526,,,D*6E,1
1779389636309,$GPGGA,185356.000,1205.9935,S,07701.4556,W,2,07,1.3,140.9,M,8.4,M,2.0,0000*46,1
1779389636431,$GPGSA,M,3,15,20,12,25,11,05,06,,,,,,1.9,1.3,1.4*30,1
1779389636596,$GPRMC,185356.000,A,1205.9935,S,07701.4556,W,0.00,294.38,210526,,,D*6D,1
1779389637310,$GPGGA,185357.000,1205.9935,S,07701.4556,W,2,07,1.3,140.9,M,8.4,M,2.0,0000*47,1
1779389637432,$GPGSA,M,3,15,20,12,25,11,05,06,,,,,,1.9,1.3,1.4*30,1
1779389637597,$GPRMC,185357.000,A,1205.9935,S,07701.4556,W,0.00,294.38,210526,,,D*6C,1
1779389638305,$GPGGA,185358.000,1205.9935,S,07701.4556,W,2,07,1.3,140.9,M,8.4,M,3.0,0000*49,1
1779389638427,$GPGSA,M,3,15,20,12,25,11,05,06,,,,,,1.9,1.3,1.4*30,1
1779389638587,$GPGSV,3,1,12,15,75,299,44,20,60,025,39,12,49,237,40,25,23,273,40*7D,1
1779389638747,$GPGSV,3,2,12,11,16,048,39,05,14,355,29,06,08,085,22,13,47,045,39*7B,1
1779389638908,$GPGSV,3,3,12,19,26,133,33,24,40,186,40,29,09,332,24,48,33,280,42*78,1
1779389639073,$GPRMC,185358.000,A,1205.9935,S,07701.4556,W,0.00,294.38,210526,,,D*63,1
1779389639310,$GPGGA,185359.000,1205.9933,S,07701.4558,W,2,08,1.1,140.7,M,8.4,M,2.0,0000*42,1
1779389639436,$GPGSA,M,3,15,20,12,25,11,05,29,06,,,,,1.8,1.1,1.3*3F,1
1779389639601,$GPRMC,185359.000,A,1205.9933,S,07701.4558,W,1.36,293.25,210526,,,D*65,1
1779389640309,$GPGGA,185400.000,1205.9930,S,07701.4563,W,2,08,1.1,140.7,M,8.4,M,3.0,0000*43,1
1779389640435,$GPGSA,M,3,15,20,12,25,11,05,29,06,,,,,1.8,1.1,1.3*3F,1
1779389640600,$GPRMC,185400.000,A,1205.9930,S,07701.4563,W,2.43,294.84,210526,,,D*68,1
1779389641305,$GPGGA,185401.000,1205.9926,S,07701.4571,W,2,08,1.1,140.7,M,8.4,M,4.0,0000*41,1
1779389641431,$GPGSA,M,3,15,20,12,25,11,05,29,06,,,,,1.8,1.1,1.3*3F,1
1779389641596,$GPRMC,185401.000,A,1205.9926,S,07701.4571,W,3.49,297.82,210526,,,D*63,1
1779389642309,$GPGGA,185402.000,1205.9920,S,07701.4580,W,2,08,1.1,140.7,M,8.4,M,2.0,0000*4C,1
1779389642435,$GPGSA,M,3,15,20,12,25,11,05,29,06,,,,,1.8,1.1,1.3*3F,1
1779389642600,$GPRMC,185402.000,A,1205.9920,S,07701.4580,W,3.60,299.36,210526,,,D*62,1
1779389643309,$GPGGA,185403.000,1205.9914,S,07701.4592,W,2,08,1.1,140.8,M,8.4,M,2.0,0000*46,1
1779389643435,$GPGSA,M,3,15,20,12,25,11,05,29,06,,,,,1.8,1.1,1.3*3F,1
1779389643595,$GPGSV,3,1,12,15,75,299,39,20,60,025,40,12,49,237,41,25,23,273,36*79,1
1779389643756,$GPGSV,3,2,12,11,16,048,27,05,14,355,30,29,09,332,24,06,08,085,22*70,1
1779389643916,$GPGSV,3,3,12,13,47,045,40,19,26,133,33,24,40,186,41,48,33,280,39*77,1
1779389644081,$GPRMC,185403.000,A,1205.9914,S,07701.4592,W,4.68,299.81,210526,,,D*64,1
1779389644303,$GPGGA,185404.000,1205.9906,S,07701.4604,W,2,08,1.1,140.8,M,8.4,M,3.0,0000*4F,1
1779389644429,$GPGSA,M,3,15,20,12,25,11,05,29,06,,,,,1.8,1.1,1.3*3F,1
1779389644594,$GPRMC,185404.000,A,1205.9906,S,07701.4604,W,4.72,299.74,210526,,,D*6D,1
1779389645309,$GPGGA,185405.000,1205.9899,S,07701.4616,W,2,08,1.1,140.8,M,8.4,M,4.0,0000*4D,1
1779389645435,$GPGSA,M,3,15,20,12,25,11,05,29,06,,,,,1.8,1.1,1.3*3F,1
1779389645600,$GPRMC,185405.000,A,1205.9899,S,07701.4616,W,4.62,299.27,210526,,,D*6F,1
1779389646309,$GPGGA,185406.000,1205.9892,S,07701.4628,W,2,08,1.1,140.8,M,8.4,M,5.0,0000*49,1
1779389646435,$GPGSA,M,3,15,20,12,25,11,05,29,06,,,,,1.8,1.1,1.3*3F,1
1779389646601,$GPRMC,185406.000,A,1205.9892,S,07701.4628,W,4.39,299.92,210526,,,D*6A,1
1779389647308,$GPGGA,185407.000,1205.9886,S,07701.4639,W,2,08,1.1,140.9,M,8.4,M,2.0,0000*4B,1
1779389647434,$GPGSA,M,3,15,20,12,25,11,05,29,06,,,,,1.8,1.1,1.3*3F,1
1779389647599,$GPRMC,185407.000,A,1205.9886,S,07701.4639,W,4.29,298.67,210526,,,D*64,1
1779389648302,$GPGGA,185408.000,1205.9880,S,07701.4651,W,2,08,1.1,141.1,M,8.4,M,3.0,0000*44,1
1779389648428,$GPGSA,M,3,15,20,12,25,11,05,29,06,,,,,1.8,1.1,1.3*3F,1
1779389648588,$GPGSV,3,1,12,15,75,299,42,20,60,025,40,12,49,237,42,25,23,273,25*74,1
1779389648749,$GPGSV,3,2,12,11,16,048,27,05,14,355,24,29,09,332,24,06,08,085,22*75,1
1779389648909,$GPGSV,3,3,12,13,47,045,41,19,26,133,29,24,40,186,41,48,33,280,34*70,1
1779389649074,$GPRMC,185408.000,A,1205.9880,S,07701.4651,W,4.41,296.68,210526,,,D*6C,1
1779389649303,$GPGGA,185409.000,1205.9874,S,07701.4665,W,2,08,1.1,141.5,M,8.4,M,4.0,0000*4A,1
1779389649429,$GPGSA,M,3,15,20,12,25,11,05,29,06,,,,,1.8,1.1,1.3*3F,1
1779389649594,$GPRMC,185409.000,A,1205.9874,S,07701.4665,W,5.11,294.15,210526,,,D*6D,1
1779389650303,$GPGGA,185410.000,1205.9867,S,07701.4680,W,2,08,1.1,141.6,M,8.4,M,5.0,0000*49,1
1779389650429,$GPGSA,M,3,15,20,12,25,11,05,29,06,,,,,1.8,1.1,1.3*3F,1
1779389650594,$GPRMC,185410.000,A,1205.9867,S,07701.4680,W,5.72,292.79,210526,,,D*65,1
1779389651302,$GPGGA,185411.000,1205.9861,S,07701.4696,W,2,08,1.1,141.9,M,8.4,M,6.0,0000*45,1
1779389651428,$GPGSA,M,3,15,20,12,25,11,05,29,06,,,,,1.8,1.1,1.3*3F,1
1779389651593,$GPRMC,185411.000,A,1205.9861,S,07701.4696,W,6.04,292.88,210526,,,D*69,1
1779389652303,$GPGGA,185412.000,1205.9852,S,07701.4715,W,2,08,1.1,142.2,M,8.4,M,7.0,0000*45,1
1779389652429,$GPGSA,M,3,15,20,12,25,11,05,29,06,,,,,1.8,1.1,1.3*3F,1
1779389652594,$GPRMC,185412.000,A,1205.9852,S,07701.4715,W,6.85,292.30,210526,,,D*6A,1
1779389653303,$GPGGA,185413.000,1205.9844,S,07701.4733,W,2,08,1.1,142.5,M,8.4,M,8.0,0000*4F,1
1779389653429,$GPGSA,M,3,15,20,12,25,11,05,29,06,,,,,1.8,1.1,1.3*3F,1
1779389653589,$GPGSV,3,1,12,15,75,299,42,20,60,025,39,12,49,237,35,25,23,273,27*78,1
1779389653750,$GPGSV,3,2,12,11,16,048,35,05,14,355,16,29,09,332,23,06,08,085,29*7B,1
1779389653910,$GPGSV,3,3,12,13,47,045,34,19,26,133,40,24,40,186,35,48,33,280,30*7A,1
1779389654075,$GPRMC,185413.000,A,1205.9844,S,07701.4733,W,7.01,292.39,210526,,,D*6C,1
1779389654304,$GPGGA,185414.000,1205.9834,S,07701.4755,W,2,08,1.1,143.0,M,8.4,M,9.0,0000*4A,1
1779389654430,$GPGSA,M,3,15,20,12,25,11,05,29,06,,,,,1.8,1.1,1.3*3F,1
1779389654595,$GPRMC,185414.000,A,1205.9834,S,07701.4755,W,7.17,292.27,210526,,,D*64,1
1779389655305,$GPGGA,185415.000,1205.9818,S,07701.4783,W,2,08,1.1,143.4,M,8.4,M,10.0,0000*72,1
1779389655431,$GPGSA,M,3,15,20,12,25,11,05,29,06,,,,,1.8,1.1,1.3*3F,1
1779389655596,$GPRMC,185415.000,A,1205.9818,S,07701.4783,W,8.11,292.59,210526,,,D*60,1
1779389656306,$GPGGA,185416.000,1205.9807,S,07701.4806,W,2,08,1.1,143.7,M,8.4,M,11.0,0000*7F,1
1779389656432,$GPGSA,M,3,15,20,12,25,11,05,29,06,,,,,1.8,1.1,1.3*3F,1
1779389656597,$GPRMC,185416.000,A,1205.9807,S,07701.4806,W,8.44,292.46,210526,,,D*61,1
1779389657306,$GPGGA,185417.000,1205.9788,S,07701.4839,W,2,08,1.1,144.4,M,8.4,M,12.0,0000*7D,1
1779389657432,$GPGSA,M,3,15,20,12,25,11,05,29,06,,,,,1.8,1.1,1.3*3F,1
1779389657597,$GPRMC,185417.000,A,1205.9788,S,07701.4839,W,9.43,294.72,210526,,,D*63,1
1779389658308,$GPGGA,185418.000,1205.9774,S,07701.4867,W,2,08,1.1,145.2,M,8.4,M,13.0,0000*7C,1
1779389658434,$GPGSA,M,3,15,20,12,25,11,05,29,06,,,,,1.8,1.1,1.3*3F,1
1779389658594,$GPGSV,3,1,12,15,75,299,43,20,60,025,40,12,49,237,35,25,23,273,27*77,1
1779389658755,$GPGSV,3,2,12,11,16,048,36,05,14,355,17,29,09,332,20,06,08,085,23*70,1
1779389658915,$GPGSV,3,3,12,13,47,045,31,19,26,133,26,24,40,186,30,48,33,280,37*7D,1
1779389659080,$GPRMC,185418.000,A,1205.9774,S,07701.4867,W,9.56,296.18,210526,,,D*6E,1
1779389659306,$GPGGA,185419.000,1205.9761,S,07701.4894,W,2,08,1.1,145.3,M,8.4,M,14.0,0000*73,1
1779389659432,$GPGSA,M,3,15,20,12,25,11,05,29,06,,,,,1.8,1.1,1.3*3F,1
1779389659597,$GPRMC,185419.000,A,1205.9761,S,07701.4894,W,9.42,296.44,210526,,,D*6B,1
1779389660309,$GPGGA,185420.000,1205.9748,S,07701.4921,W,2,08,1.1,145.1,M,8.4,M,2.0,0000*48,1
1779389660435,$GPGSA,M,3,15,20,12,25,11,05,29,06,,,,,1.8,1.1,1.3*3F,1
1779389660600,$GPRMC,185420.000,A,1205.9748,S,07701.4921,W,9.76,296.56,210526,,,D*61,1
1779389661305,$GPGGA,185421.000,1205.9736,S,07701.4945,W,2,08,1.1,145.0,M,8.4,M,3.0,0000*42,1
1779389661431,$GPGSA,M,3,15,20,12,25,11,05,29,06,,,,,1.8,1.1,1.3*3F,1
1779389661596,$GPRMC,185421.000,A,1205.9736,S,07701.4945,W,9.71,296.84,210526,,,D*63,1
1779389662305,$GPGGA,185422.000,1205.9731,S,07701.4965,W,2,08,1.1,145.3,M,8.4,M,4.0,0000*40,1
1779389662431,$GPGSA,M,3,15,20,12,25,11,05,29,06,,,,,1.8,1.1,1.3*3F,1
1779389662596,$GPRMC,185422.000,A,1205.9731,S,07701.4965,W,9.29,297.18,210526,,,D*6C,1
1779389663304,$GPGGA,185423.000,1205.9727,S,07701.4982,W,2,08,1.1,145.6,M,8.4,M,5.0,0000*4B,1
1779389663430,$GPGSA,M,3,15,20,12,25,11,05,29,06,,,,,1.8,1.1,1.3*3F,1
1779389663591,$GPGSV,3,1,12,15,75,299,43,20,60,025,38,12,49,237,41,25,23,273,22*7E,1
1779389663751,$GPGSV,3,2,12,11,16,048,23,05,14,355,33,29,09,332,30,06,08,085,22*72,1
1779389663912,$GPGSV,3,3,12,13,47,045,36,19,26,133,32,24,40,186,34,48,33,280,35*79,1
1779389664077,$GPRMC,185423.000,A,1205.9727,S,07701.4982,W,8.54,296.46,210526,,,D*62,1
1779389664304,$GPGGA,185424.000,1205.9724,S,07701.4998,W,2,08,1.1,146.1,M,8.4,M,6.0,0000*43,1
1779389664430,$GPGSA,M,3,15,20,12,25,11,05,29,06,,,,,1.8,1.1,1.3*3F,1
1779389664595,$GPRMC,185424.000,A,1205.9724,S,07701.4998,W,7.23,293.00,210526,,,D*65,1
1779389665309,$GPGGA,185425.000,1205.9725,S,07701.5011,W,2,08,1.1,146.6,M,8.4,M,2.0,0000*49,1
1779389665435,$GPGSA,M,3,15,20,12,25,11,05,29,06,,,,,1.8,1.1,1.3*3F,1
1779389665600,$GPRMC,185425.000,A,1205.9725,S,07701.5011,W,6.08,287.68,210526,,,D*6F,1
1779389666307,$GPGGA,185426.000,1205.9720,S,07701.5029,W,2,08,1.1,146.4,M,8.4,M,2.0,0000*46,1
1779389666433,$GPGSA,M,3,15,20,12,25,11,05,29,06,,,,,1.8,1.1,1.3*3F,1
1779389666598,$GPRMC,185426.000,A,1205.9720,S,07701.5029,W,5.43,281.80,210526,,,D*6E,1
1779389667309,$GPGGA,185427.000,1205.9720,S,07701.5046,W,2,08,1.1,146.0,M,8.4,M,2.0,0000*4A,1
1779389667435,$GPGSA,M,3,15,20,12,25,11,05,29,06,,,,,1.8,1.1,1.3*3F,1
1779389667600,$GPRMC,185427.000,A,1205.9720,S,07701.5046,W,5.65,272.83,210526,,,D*6D,1
1779389668304,$GPGGA,185428.000,1205.9723,S,07701.5060,W,2,08,1.1,145.8,M,8.4,M,3.0,0000*48,1
1779389668430,$GPGSA,M,3,15,20,12,25,11,05,29,06,,,,,1.8,1.1,1.3*3F,1
1779389668591,$GPGSV,3,1,12,15,75,299,42,20,60,025,39,12,49,237,43,25,23,273,23*7D,1
1779389668751,$GPGSV,3,2,12,11,16,048,22,05,14,355,34,29,09,332,33,06,08,085,28*7D,1
1779389668911,$GPGSV,3,3,12,13,47,045,43,19,26,133,34,24,40,186,32,48,33,280,32*7C,1
1779389669076,$GPRMC,185428.000,A,1205.9723,S,07701.5060,W,5.20,265.74,210526,,,D*6A,1
1779389669306,$GPGGA,185429.000,1205.9730,S,07701.5070,W,2,08,1.1,145.6,M,8.4,M,4.0,0000*43,1
1779389669432,$GPGSA,M,3,15,20,12,25,11,05,29,06,,,,,1.8,1.1,1.3*3F,1
1779389669597,$GPRMC,185429.000,A,1205.9730,S,07701.5070,W,4.42,257.23,210526,,,D*6E,1
1779389670306,$GPGGA,185430.000,1205.9739,S,07701.5078,W,2,08,1.1,145.6,M,8.4,M,5.0,0000*4B,1
1779389670432,$GPGSA,M,3,15,20,12,25,11,05,29,06,,,,,1.8,1.1,1.3*3F,1
1779389670597,$GPRMC,185430.000,A,1205.9739,S,07701.5078,W,3.74,251.87,210526,,,D*6D,1
1779389671310,$GPGGA,185431.000,1205.9747,S,07701.5083,W,2,08,1.1,145.6,M,8.4,M,2.0,0000*40,1
1779389671436,$GPGSA,M,3,15,20,12,25,11,05,29,06,,,,,1.8,1.1,1.3*3F,1
1779389671601,$GPRMC,185431.000,A,1205.9747,S,07701.5083,W,2.88,250.13,210526,,,D*6F,1
1779389672305,$GPGGA,185432.000,1205.9754,S,07701.5086,W,2,08,1.1,145.6,M,8.4,M,3.0,0000*45,1
1779389672431,$GPGSA,M,3,15,20,12,25,11,05,29,06,,,,,1.8,1.1,1.3*3F,1
1779389672596,$GPRMC,185432.000,A,1205.9754,S,07701.5086,W,2.34,245.39,210526,,,D*60,1
1779389673310,$GPGGA,185433.000,1205.9765,S,07701.5084,W,2,08,1.1,145.8,M,8.4,M,2.0,0000*4B,1
1779389673436,$GPGSA,M,3,15,20,12,25,11,05,29,06,,,,,1.8,1.1,1.3*3F,1
1779389673596,$GPGSV,3,1,12,15,75,299,42,20,60,025,39,12,49,237,42,25,23,273,21*7E,1
1779389673757,$GPGSV,3,2,12,11,16,048,23,05,14,355,40,29,09,332,37,06,08,085,27*74,1
1779389673917,$GPGSV,3,3,12,13,47,045,40,19,26,133,41,24,40,186,39,48,33,280,40*73,1
1779389674082,$GPRMC,185433.000,A,1205.9765,S,07701.5084,W,2.35,234.73,210526,,,D*68,1
1779389674311,$GPGGA,185434.000,1205.9774,S,07701.5076,W,2,08,1.1,146.1,M,8.4,M,2.0,0000*4B,1
1779389674437,$GPGSA,M,3,15,20,12,25,11,05,29,06,,,,,1.8,1.1,1.3*3F,1
1779389674602,$GPRMC,185434.000,A,1205.9774,S,07701.5076,W,4.64,178.16,210526,,,D*68,1
1779389675309,$GPGGA,185435.000,1205.9783,S,07701.5057,W,2,08,1.1,146.0,M,8.4,M,2.0,0000*40,1
1779389675435,$GPGSA,M,3,15,20,12,25,11,05,29,06,,,,,1.8,1.1,1.3*3F,1
1779389675600,$GPRMC,185435.000,A,1205.9783,S,07701.5057,W,6.52,131.56,210526,,,D*6C,1
1779389676303,$GPGGA,185436.000,1205.9794,S,07701.5034,W,2,08,1.1,145.9,M,8.4,M,3.0,0000*4B,1
1779389676429,$GPGSA,M,3,15,20,12,25,11,05,29,06,,,,,1.8,1.1,1.3*3F,1
1779389676594,$GPRMC,185436.000,A,1205.9794,S,07701.5034,W,8.36,117.43,210526,,,D*60,1
1779389677312,$GPGGA,185437.000,1205.9805,S,07701.5010,W,2,08,1.1,145.8,M,8.4,M,2.0,0000*4B,1
1779389677438,$GPGSA,M,3,15,20,12,25,11,05,29,06,,,,,1.8,1.1,1.3*3F,1
1779389677603,$GPRMC,185437.000,A,1205.9805,S,07701.5010,W,9.29,114.27,210526,,,D*6E,1
1779389678309,$GPGGA,185438.000,1205.9816,S,07701.4983,W,2,08,1.1,145.6,M,8.4,M,2.0,0000*4A,1
1779389678435,$GPGSA,M,3,15,20,12,25,11,05,29,06,,,,,1.8,1.1,1.3*3F,1
1779389678596,$GPGSV,3,1,12,15,75,299,43,20,60,025,40,12,49,237,42,25,23,273,20*70,1
1779389678756,$GPGSV,3,2,12,11,16,048,35,05,14,355,33,29,09,332,40,06,08,085,28*78,1
1779389678917,$GPGSV,3,3,12,13,47,045,43,19,26,133,43,24,40,186,40,48,33,280,42*7E,1
1779389679082,$GPRMC,185438.000,A,1205.9816,S,07701.4983,W,9.51,113.74,210526,,,D*6F,1
1779389679311,$GPGGA,185439.000,1205.9829,S,07701.4955,W,2,08,1.1,145.4,M,8.4,M,2.0,0000*4E,1
1779389679437,$GPGSA,M,3,15,20,12,25,11,05,29,06,,,,,1.8,1.1,1.3*3F,1
1779389679602,$GPRMC,185439.000,A,1205.9829,S,07701.4955,W,9.55,114.38,210526,,,D*62,1
1779389680315,$GPGGA,185440.000,1205.9841,S,07701.4927,W,2,08,1.1,145.0,M,8.4,M,3.0,0000*4E,1
1779389680441,$GPGSA,M,3,15,20,12,25,11,05,29,06,,,,,1.8,1.1,1.3*3F,1
1779389680606,$GPRMC,185440.000,A,1205.9841,S,07701.4927,W,9.29,114.02,210526,,,D*65,1
1779389681310,$GPGGA,185441.000,1205.9855,S,07701.4898,W,2,08,1.1,144.2,M,8.4,M,4.0,0000*4B,1
