Unix_time,GPS_data,motion_flag
1779389953321,$GPGGA,185913.000,1205.9955,S,07701.4544,W,1,10,0.8,147.0,M,8.4,M,,0000*65,0
1779389991496,$GPGSA,M,3,15,20,12,24,19,25,11,05,29,06,,,1.6,0.8,1.3*37,0
1779389991497,$GPGSV,3,1,12,15,74,305,44,20,58,024,43,12,48,235,41,24,41,185,43*71,0
1779389991497,$GPGSV,3,2,12,19,25,134,36,25,24,272,35,11,17,049,40,05,14,356,19*70,0
1779389991498,$GPGSV,3,3,12,29,10,332,18,06,09,087,19,13,46,043,34,48,33,280,39*7F,0
1779389991499,$GPRMC,185913.000,A,1205.9955,S,07701.4544,W,0.02,295.07,210526,,,A*69,0
1779389991500,$GPGGA,185914.000,1205.9949,S,07701.4550,W,1,10,0.8,147.3,M,8.4,M,,0000*69,0
1779389991500,$GPGSA,M,3,15,20,12,24,19,25,11,05,29,06,,,1.6,0.8,1.3*37,0
1779389991501,$GPRMC,185914.000,A,1205.9949,S,07701.4550,W,0.03,295.07,210526,,,A*67,0
1779389991502,$GPGGA,185915.000,1205.9949,S,07701.4550,W,2,07,1.6,147.2,M,8.4,M,2.0,0000*4F,0
1779389991503,$GPGSA,M,3,15,20,12,25,11,05,29,,,,,,2.4,1.6,1.8*3A,0
1779389991503,$GPRMC,185915.000,A,1205.9949,S,07701.4550,W,0.00,295.07,210526,,,D*60,0
1779389991504,$GPGGA,185916.000,1205.9949,S,07701.4550,W,2,07,1.6,147.2,M,8.4,M,3.0,0000*4D,0
1779389991505,$GPGSA,M,3,15,20,12,25,11,05,29,,,,,,2.4,1.6,1.8*3A,0
1779389991505,$GPRMC,185916.000,A,1205.9949,S,07701.4550,W,0.00,295.07,210526,,,D*63,0
1779389991506,$GPGGA,185917.000,1205.9949,S,07701.4550,W,2,07,1.6,147.2,M,8.4,M,4.0,0000*4B,0
1779389991507,$GPGSA,M,3,15,20,12,25,11,05,29,,,,,,2.4,1.6,1.8*3A,0
1779389991507,$GPRMC,185917.000,A,1205.9949,S,07701.4550,W,0.00,295.07,210526,,,D*62,0
1779389991508,$GPGGA,185918.000,1205.9949,S,07701.4550,W,2,07,1.6,147.2,M,8.4,M,5.0,0000*45,0
1779389991508,$GPGSA,M,3,15,20,12,25,11,05,29,,,,,,2.4,1.6,1.8*3A,0
1779389991508,$GPGSV,3,1,12,15,74,305,43,20,58,024,43,12,48,235,41,25,24,272,34*7F,0
1779389991508,$GPGSV,3,2,12,11,17,049,40,05,14,356,24,29,10,332,18,06,09,087,18*7A,0
1779389991508,$GPGSV,3,3,12,13,46,043,33,19,25,134,36,24,41,185,43,48,33,280,39*75,0
1779389991509,$GPRMC,185918.000,A,1205.9949,S,07701.4550,W,0.00,295.07,210526,,,D*6D,0
1779389991509,$GPGGA,185919.000,1205.9948,S,07701.4551,W,2,06,1.8,147.3,M,8.4,M,2.0,0000*4D,0
1779389991509,$GPGSA,M,3,15,20,12,25,11,05,,,,,,,2.6,1.8,1.8*3D,0
1779389991509,$GPRMC,185919.000,A,1205.9948,S,07701.4551,W,0.02,295.07,210526,,,D*6E,0
1779389991509,$GPGGA,185920.000,1205.9948,S,07701.4551,W,2,06,1.8,147.2,M,8.4,M,2.0,0000*46,0
1779389991509,$GPGSA,M,3,15,20,12,25,11,05,,,,,,,2.6,1.8,1.8*3D,0
1779389991509,$GPRMC,185920.000,A,1205.9948,S,07701.4551,W,0.00,295.07,210526,,,D*66,0
1779389991510,$GPGGA,185921.000,1205.9947,S,07701.4551,W,2,06,1.8,147.2,M,8.4,M,2.0,0000*48,0
1779389991510,$GPGSA,M,3,15,20,12,25,11,05,,,,,,,2.6,1.8,1.8*3D,0
1779389991510,$GPRMC,185921.000,A,1205.9947,S,07701.4551,W,0.00,295.07,210526,,,D*68,0
1779389991510,$GPGGA,185922.000,1205.9947,S,07701.4551,W,2,06,1.8,147.2,M,8.4,M,3.0,0000*4A,0
1779389991510,$GPGSA,M,3,15,20,12,25,11,05,,,,,,,2.6,1.8,1.8*3D,0
1779389991510,$GPRMC,185922.000,A,1205.9947,S,07701.4551,W,0.00,295.07,210526,,,D*6B,0
1779389991510,$GPGGA,185923.000,1205.9947,S,07701.4551,W,2,06,1.8,147.2,M,8.4,M,4.0,0000*4C,0
1779389991511,$GPGSA,M,3,15,20,12,25,11,05,,,,,,,2.6,1.8,1.8*3D,0
1779389991511,$GPGSV,3,1,12,15,74,305,43,20,58,024,44,12,48,235,40,25,24,272,34*79,0
1779389991511,$GPGSV,3,2,12,11,17,049,38,05,14,356,24,06,09,087,18,13,46,043,36*76,0
1779389991511,$GPGSV,3,3,12,19,25,134,35,24,41,185,44,29,10,332,17,48,33,280,38*79,0
1779389991512,$GPRMC,185923.000,A,1205.9947,S,07701.4551,W,0.00,295.07,210526,,,D*6A,0
1779389991513,$GPGGA,185924.000,1205.9947,S,07701.4551,W,2,05,2.6,147.2,M,8.4,M,5.0,0000*44,0
1779389991514,$GPGSA,M,3,15,20,12,25,11,,,,,,,,3.2,2.6,1.8*30,0
1779389991514,$GPRMC,185924.000,A,1205.9947,S,07701.4551,W,0.00,295.07,210526,,,D*6D,0
1779389991515,$GPGGA,185925.000,1205.9947,S,07701.4551,W,2,05,2.6,147.2,M,8.4,M,2.0,0000*42,0
1779389991516,$GPGSA,M,3,15,20,12,25,11,,,,,,,,3.2,2.6,1.8*30,0
1779389991516,$GPRMC,185925.000,A,1205.9947,S,07701.4551,W,0.00,295.07,210526,,,D*6C,0
1779389991517,$GPGGA,185926.000,1205.9947,S,07701.4551,W,2,06,1.8,147.2,M,8.4,M,2.0,0000*4F,0
1779389991518,$GPGSA,M,3,15,20,12,25,11,05,,,,,,,2.6,1.8,1.8*3D,0
1779389991518,$GPRMC,185926.000,A,1205.9947,S,07701.4551,W,0.00,295.07,210526,,,D*6F,0
1779389991519,$GPGGA,185927.000,1205.9947,S,07701.4551,W,2,06,1.8,147.2,M,8.4,M,2.0,0000*4E,0
1779389991519,$GPGSA,M,3,15,20,12,25,11,05,,,,,,,2.6,1.8,1.8*3D,0
1779389991520,$GPRMC,185927.000,A,1205.9947,S,07701.4551,W,0.00,295.07,210526,,,D*6E,0
1779389991520,$GPGGA,185928.000,1205.9947,S,07701.4551,W,2,06,1.8,147.2,M,8.4,M,3.0,0000*40,0
1779389991520,$GPGSA,M,3,15,20,12,25,11,05,,,,,,,2.6,1.8,1.8*3D,0
1779389991520,$GPGSV,3,1,12,15,74,305,43,20,58,024,44,12,48,235,39,25,24,272,33*70,0
1779389991520,$GPGSV,3,2,12,11,17,049,32,05,14,356,28,06,09,087,04,13,46,043,38*73,0
1779389991520,$GPGSV,3,3,12,19,25,134,36,24,41,185,44,29,10,332,17,48,33,280,38*7A,0
1779389991520,$GPRMC,185928.000,A,1205.9947,S,07701.4551,W,0.00,295.07,210526,,,D*61,0
1779389991520,$GPGGA,185929.000,1205.9947,S,07701.4551,W,2,06,1.8,147.2,M,8.4,M,4.0,0000*46,0
1779389991521,$GPGSA,M,3,15,20,12,25,11,05,,,,,,,2.6,1.8,1.8*3D,0
1779389991521,$GPRMC,185929.000,A,1205.9947,S,07701.4551,W,0.00,295.07,210526,,,D*60,0
1779389991521,$GPGGA,185930.000,1205.9947,S,07701.4551,W,2,06,1.8,147.2,M,8.4,M,5.0,0000*4F,0
1779389991521,$GPGSA,M,3,15,20,12,25,11,05,,,,,,,2.6,1.8,1.8*3D,0
1779389991521,$GPRMC,185930.000,A,1205.9947,S,07701.4551,W,0.00,295.07,210526,,,D*68,0
1779389991521,$GPGGA,185931.000,1205.9947,S,07701.4551,W,2,06,1.8,147.2,M,8.4,M,2.0,0000*49,0
1779389991521,$GPGSA,M,3,15,20,12,25,11,05,,,,,,,2.6,1.8,1.8*3D,0
1779389991521,$GPRMC,185931.000,A,1205.9947,S,07701.4551,W,0.00,295.07,210526,,,D*69,0
1779389991522,$GPGGA,185932.000,1205.9947,S,07701.4551,W,2,06,1.8,147.2,M,8.4,M,2.0,0000*4A,0
1779389991522,$GPGSA,M,3,15,20,12,25,11,05,,,,,,,2.6,1.8,1.8*3D,0
1779389991522,$GPRMC,185932.000,A,1205.9947,S,07701.4551,W,0.00,295.07,210526,,,D*6A,0
1779389991523,$GPGGA,185933.000,1205.9947,S,07701.4551,W,2,06,1.8,147.2,M,8.4,M,2.0,0000*4B,0
1779389991523,$GPGSA,M,3,15,20,12,25,11,05,,,,,,,2.6,1.8,1.8*3D,0
1779389991524,$GPGSV,3,1,12,15,74,305,43,20,58,024,44,12,48,235,37,25,24,272,30*7D,0
1779389991525,$GPGSV,3,2,12,11,17,049,32,05,14,356,28,06,09,087,04,13,46,043,37*7C,0
1779389991525,$GPGSV,3,3,12,19,25,134,36,24,41,185,44,29,10,332,16,48,33,280,37*74,0
1779389991526,$GPRMC,185933.000,A,1205.9947,S,07701.4551,W,0.00,295.07,210526,,,D*6B,0
1779389991527,$GPGGA,185934.000,1205.9947,S,07701.4551,W,2,06,1.8,147.2,M,8.4,M,2.0,0000*4C,0
1779389991527,$GPGSA,M,3,15,20,12,25,11,05,,,,,,,2.6,1.8,1.8*3D,0
1779389991528,$GPRMC,185934.000,A,1205.9947,S,07701.4551,W,0.00,295.07,210526,,,D*6C,0
1779389991528,$GPGGA,185935.000,1205.9947,S,07701.4551,W,2,07,1.6,147.2,M,8.4,M,3.0,0000*43,0
1779389991528,$GPGSA,M,3,15,20,12,25,11,05,29,,,,,,2.4,1.6,1.8*3A,0
1779389991528,$GPRMC,185935.000,A,1205.9947,S,07701.4551,W,0.00,295.07,210526,,,D*6D,0
1779389991529,$GPGGA,185936.000,1205.9947,S,07701.4551,W,2,07,1.6,147.2,M,8.4,M,4.0,0000*47,0
1779389991529,$GPGSA,M,3,15,20,12,25,11,05,29,,,,,,2.4,1.6,1.8*3A,0
1779389991529,$GPRMC,185936.000,A,1205.9947,S,07701.4551,W,0.00,295.07,210526,,,D*6E,0
1779389991529,$GPGGA,185937.000,1205.9947,S,07701.4551,W,2,07,1.6,147.2,M,8.4,M,2.0,0000*40,0
1779389991529,$GPGSA,M,3,15,20,12,25,11,05,29,,,,,,2.4,1.6,1.8*3A,0
1779389991529,$GPRMC,185937.000,A,1205.9947,S,07701.4551,W,0.00,295.07,210526,,,D*6F,0
1779389991529,$GPGGA,185938.000,1205.9947,S,07701.4551,W,2,07,1.6,147.2,M,8.4,M,2.0,0000*4F,0
1779389991529,$GPGSA,M,3,15,20,12,25,11,05,29,,,,,,2.4,1.6,1.8*3A,0
1779389991530,$GPGSV,3,1,12,15,74,305,43,20,58,024,44,12,48,235,32,25,24,272,31*79,0
1779389991530,$GPGSV,3,2,12,11,17,049,27,05,14,356,29,29,10,332,25,06,09,087,21*72,0
1779389991530,$GPGSV,3,3,12,13,46,043,35,19,25,134,35,24,41,185,44,48,33,280,38*76,0
1779389991530,$GPRMC,185938.000,A,1205.9947,S,07701.4551,W,0.00,295.07,210526,,,D*60,0
1779389991530,$GPGGA,185939.000,1205.9947,S,07701.4551,W,2,07,1.6,147.2,M,8.4,M,2.0,0000*4E,0
1779389991530,$GPGSA,M,3,15,20,12,25,11,05,29,,,,,,2.4,1.6,1.8*3A,0
1779389991530,$GPRMC,185939.000,A,1205.9947,S,07701.4551,W,0.00,295.07,210526,,,D*61,0
1779389991530,$GPGGA,185940.000,1205.9947,S,07701.4551,W,2,07,1.6,147.2,M,8.4,M,3.0,0000*41,0
1779389991531,$GPGSA,M,3,15,20,12,25,11,05,29,,,,,,2.4,1.6,1.8*3A,0
1779389991531,$GPRMC,185940.000,A,1205.9947,S,07701.4551,W,0.00,295.07,210526,,,D*6F,0
1779389991531,$GPGGA,185941.000,1205.9947,S,07701.4551,W,2,06,1.7,147.2,M,8.4,M,4.0,0000*47,0
1779389991531,$GPGSA,M,3,15,20,12,25,11,29,,,,,,,2.5,1.7,1.8*3F,0
1779389991531,$GPRMC,185941.000,A,1205.9947,S,07701.4551,W,0.00,295.07,210526,,,D*6E,0
1779389991531,$GPGGA,185942.000,1205.9947,S,07701.4551,W,2,06,1.7,147.2,M,8.4,M,5.0,0000*45,0
1779389991531,$GPGSA,M,3,15,20,12,25,11,29,,,,,,,2.5,1.7,1.8*3F,0
1779389991531,$GPRMC,185942.000,A,1205.9947,S,07701.4551,W,0.00,295.07,210526,,,D*6D,0
1779389991532,$GPGGA,185943.000,1205.9947,S,07701.4551,W,2,07,1.6,147.2,M,8.4,M,2.0,0000*43,0
1779389991532,$GPGSA,M,3,15,20,12,25,11,05,29,,,,,,2.4,1.6,1.8*3A,0
1779389991532,$GPGSV,3,1,12,15,74,305,43,20,58,024,44,12,48,235,33,25,24,272,31*78,0
1779389991532,$GPGSV,3,2,12,11,17,049,24,05,14,356,23,29,10,332,25,06,09,087,23*79,0
1779389991532,$GPGSV,3,3,12,13,46,043,36,19,25,134,35,24,41,185,45,48,33,280,39*75,0
1779389991532,$GPRMC,185943.000,A,1205.9947,S,07701.4551,W,0.00,295.07,210526,,,D*6C,0
1779389991532,$GPGGA,185944.000,1205.9947,S,07701.4551,W,2,07,1.6,147.2,M,8.4,M,2.0,0000*44,0
1779389991533,$GPGSA,M,3,15,20,12,25,11,05,29,,,,,,2.4,1.6,1.8*3A,0
1779389991533,$GPRMC,185944.000,A,1205.9947,S,07701.4551,W,0.00,295.07,210526,,,D*6B,0
1779389991533,$GPGGA,185945.000,1205.9947,S,07701.4551,W,2,07,1.6,147.2,M,8.4,M,2.0,0000*45,0
1779389991533,$GPGSA,M,3,15,20,12,25,11,05,29,,,,,,2.4,1.6,1.8*3A,0
1779389991533,$GPRMC,185945.000,A,1205.9947,S,07701.4551,W,0.00,295.07,210526,,,D*6A,0
1779389991533,$GPGGA,185946.000,1205.9947,S,07701.4551,W,2,07,1.6,147.2,M,8.4,M,3.0,0000*47,0
1779389991533,$GPGSA,M,3,15,20,12,25,11,05,29,,,,,,2.4,1.6,1.8*3A,0
1779389991533,$GPRMC,185946.000,A,1205.9947,S,07701.4551,W,0.00,295.07,210526,,,D*69,0
1779389991534,$GPGGA,185947.000,1205.9947,S,07701.4551,W,2,07,1.6,147.2,M,8.4,M,4.0,0000*41,0
1779389991534,$GPGSA,M,3,15,20,12,25,11,05,29,,,,,,2.4,1.6,1.8*3A,0
1779389991534,$GPRMC,185947.000,A,1205.9947,S,07701.4551,W,0.00,295.07,210526,,,D*68,0
1779389991534,$GPGGA,185948.000,1205.9947,S,07701.4551,W,2,07,1.6,147.2,M,8.4,M,5.0,0000*4F,0
1779389991534,$GPGSA,M,3,15,20,12,25,11,05,29,,,,,,2.4,1.6,1.8*3A,0
1779389991534,$GPGSV,3,1,12,15,74,305,43,20,58,024,44,12,48,235,33,25,24,272,32*7B,0
1779389991534,$GPGSV,3,2,12,11,17,049,30,05,14,356,27,29,10,332,25,06,09,087,24*7F,0
1779389991534,$GPGSV,3,3,12,13,46,043,36,19,25,134,35,24,41,185,45,48,33,280,38*74,0
1779389991535,$GPRMC,185948.000,A,1205.9947,S,07701.4551,W,0.00,295.07,210526,,,D*67,0
1779389991535,$GPGGA,185949.000,1205.9947,S,07701.4551,W,2,07,1.6,147.2,M,8.4,M,2.0,0000*49,0
1779389991535,$GPGSA,M,3,15,20,12,25,11,05,29,,,,,,2.4,1.6,1.8*3A,0
1779389991535,$GPRMC,185949.000,A,1205.9947,S,07701.4551,W,0.00,295.07,210526,,,D*66,0
1779389991535,$GPGGA,185950.000,1205.9947,S,07701.4551,W,2,07,1.6,147.2,M,8.4,M,2.0,0000*41,0
1779389991535,$GPGSA,M,3,15,20,12,25,11,05,29,,,,,,2.4,1.6,1.8*3A,0
1779389991535,$GPRMC,185950.000,A,1205.9947,S,07701.4551,W,0.00,295.07,210526,,,D*6E,0
1779389991535,$GPGGA,185951.000,1205.9947,S,07701.4551,W,2,07,1.6,147.2,M,8.4,M,2.0,0000*40,0
1779389991536,$GPGSA,M,3,15,20,12,25,11,05,29,,,,,,2.4,1.6,1.8*3A,0
1779389991613,$GPRMC,185951.000,A,1205.9947,S,07701.4551,W,0.00,295.07,210526,,,D*6F,0
1779389992329,$GPGGA,185952.000,1205.9947,S,07701.4551,W,2,07,1.6,147.2,M,8.4,M,3.0,0000*42,0
1779389992450,$GPGSA,M,3,15,20,12,25,11,05,29,,,,,,2.4,1.6,1.8*3A,0
1779389992615,$GPRMC,185952.000,A,1205.9947,S,07701.4551,W,0.00,295.07,210526,,,D*6C,0
1779389993328,$GPGGA,185953.000,1205.9947,S,07701.4551,W,2,07,1.6,147.2,M,8.4,M,2.0,0000*42,0
1779389993450,$GPGSA,M,3,15,20,12,25,11,05,29,,,,,,2.4,1.6,1.8*3A,0
1779389993610,$GPGSV,3,1,12,15,74,305,43,20,58,024,44,12,48,235,34,25,24,272,33*7D,0
1779389993771,$GPGSV,3,2,12,11,17,049,28,05,14,356,27,29,10,332,26,06,09,087,25*74,0
1779389993931,$GPGSV,3,3,12,13,46,043,36,19,25,134,34,24,41,185,45,48,33,280,39*74,0
1779389994096,$GPRMC,185953.000,A,1205.9947,S,07701.4551,W,0.00,295.07,210526,,,D*6D,0
1779389994329,$GPGGA,185954.000,1205.9947,S,07701.4551,W,2,07,1.6,147.2,M,8.4,M,2.0,0000*45,0
1779389994451,$GPGSA,M,3,15,20,12,25,11,05,29,,,,,,2.4,1.6,1.8*3A,0
1779389994616,$GPRMC,185954.000,A,1205.9947,S,07701.4551,W,0.00,295.07,210526,,,D*6A,0
1779389995329,$GPGGA,185955.000,1205.9947,S,07701.4551,W,2,07,1.6,147.2,M,8.4,M,2.0,0000*44,0
1779389995450,$GPGSA,M,3,15,20,12,25,11,05,29,,,,,,2.4,1.6,1.8*3A,0
1779389995615,$GPRMC,185955.000,A,1205.9947,S,07701.4551,W,0.00,295.07,210526,,,D*6B,0
1779389996329,$GPGGA,185956.000,1205.9947,S,07701.4551,W,2,07,1.6,147.2,M,8.4,M,2.0,0000*47,0
1779389996450,$GPGSA,M,3,15,20,12,25,11,05,29,,,,,,2.4,1.6,1.8*3A,0
1779389996615,$GPRMC,185956.000,A,1205.9947,S,07701.4551,W,0.00,295.07,210526,,,D*68,0
1779389997329,$GPGGA,185957.000,1205.9947,S,07701.4552,W,2,07,1.6,146.8,M,8.4,M,2.0,0000*4E,0
1779389997451,$GPGSA,M,3,15,20,12,25,11,05,29,,,,,,2.4,1.6,1.8*3A,0
1779389997615,$GPRMC,185957.000,A,1205.9947,S,07701.4552,W,0.04,295.07,210526,,,D*6E,0
1779389998324,$GPGGA,185958.000,1205.9947,S,07701.4552,W,2,07,1.6,146.8,M,8.4,M,3.0,0000*40,0
1779389998446,$GPGSA,M,3,15,20,12,25,11,05,29,,,,,,2.4,1.6,1.8*3A,0
1779389998606,$GPGSV,3,1,12,15,73,310,43,20,57,023,44,12,48,232,33,25,24,270,33*74,0
1779389998767,$GPGSV,3,2,12,11,17,050,33,05,13,357,27,29,11,332,27,06,09,088,24*7E,0
1779389998927,$GPGSV,3,3,12,13,45,042,36,19,24,135,34,24,42,184,45,48,33,280,38*75,0
1779389999092,$GPRMC,185958.000,A,1205.9947,S,07701.4552,W,0.00,295.07,210526,,,D*65,0
1779389999329,$GPGGA,185959.000,1205.9947,S,07701.4552,W,2,07,1.6,146.8,M,8.4,M,2.0,0000*40,0
1779389999450,$GPGSA,M,3,15,20,12,25,11,05,29,,,,,,2.4,1.6,1.8*3A,0
1779389999615,$GPRMC,185959.000,A,1205.9947,S,07701.4552,W,0.00,295.07,210526,,,D*64,0
1779390000329,$GPGGA,190000.000,1205.9947,S,07701.4552,W,2,07,1.6,146.8,M,8.4,M,2.0,0000*41,0
1779390000450,$GPGSA,M,3,15,20,12,25,11,05,29,,,,,,2.4,1.6,1.8*3A,0
1779390000615,$GPRMC,190000.000,A,1205.9947,S,07701.4552,W,0.00,295.07,210526,,,D*65,0
1779390001329,$GPGGA,190001.000,1205.9947,S,07701.4552,W,2,07,1.6,146.5,M,8.4,M,2.0,0000*4D,0
1779390001451,$GPGSA,M,3,15,20,12,25,11,05,29,,,,,,2.4,1.6,1.8*3A,0
1779390001616,$GPRMC,190001.000,A,1205.9947,S,07701.4552,W,0.05,295.07,210526,,,D*61,0
1779390002329,$GPGGA,190002.000,1205.9947,S,07701.4552,W,2,07,1.6,146.5,M,8.4,M,2.0,0000*4E,0
1779390002450,$GPGSA,M,3,15,20,12,25,11,05,29,,,,,,2.4,1.6,1.8*3A,0
1779390002616,$GPRMC,190002.000,A,1205.9947,S,07701.4552,W,0.00,295.07,210526,,,D*67,0
1779390003326,$GPGGA,190003.000,1205.9947,S,07701.4552,W,2,06,1.7,146.5,M,8.4,M,2.0,0000*4F,0
1779390003443,$GPGSA,M,3,15,20,12,25,11,29,,,,,,,2.5,1.7,1.8*3F,0
1779390003603,$GPGSV,3,1,12,15,73,310,43,20,57,023,44,12,48,232,34,25,24,270,32*72,0
1779390003764,$GPGSV,3,2,12,11,17,050,31,29,11,332,26,05,13,357,06,06,09,088,17*7E,0
1779390003924,$GPGSV,3,3,12,13,45,042,31,19,24,135,34,24,42,184,45,48,33,280,39*73,0
1779390004089,$GPRMC,190003.000,A,1205.9947,S,07701.4552,W,0.00,295.07,210526,,,D*66,0
1779390004322,$GPGGA,190004.000,1205.9947,S,07701.4552,W,2,07,1.6,146.5,M,8.4,M,3.0,0000*49,0
1779390004444,$GPGSA,M,3,15,20,12,25,11,05,29,,,,,,2.4,1.6,1.8*3A,0
1779390004609,$GPRMC,190004.000,A,1205.9947,S,07701.4552,W,0.00,295.07,210526,,,D*61,0
1779390005323,$GPGGA,190005.000,1205.9947,S,07701.4553,W,2,07,1.6,146.1,M,8.4,M,4.0,0000*4A,1
1779390005444,$GPGSA,M,3,15,20,12,25,11,05,29,,,,,,2.4,1.6,1.8*3A,1
1779390005609,$GPRMC,190005.000,A,1205.9947,S,07701.4553,W,0.06,295.07,210526,,,D*67,1
1779390006330,$GPGGA,190006.000,1205.9947,S,07701.4554,W,2,07,1.6,145.8,M,8.4,M,2.0,0000*42,1
1779390006451,$GPGSA,M,3,15,20,12,25,11,05,29,,,,,,2.4,1.6,1.8*3A,1
1779390006616,$GPRMC,190006.000,A,1205.9947,S,07701.4554,W,0.18,295.07,210526,,,D*6C,1
1779390007329,$GPGGA,190007.000,1205.9948,S,07701.4555,W,2,07,1.6,145.8,M,8.4,M,2.0,0000*4D,1
1779390007451,$GPGSA,M,3,15,20,12,25,11,05,29,,,,,,2.4,1.6,1.8*3A,1
1779390007616,$GPRMC,190007.000,A,1205.9948,S,07701.4555,W,1.35,282.80,210526,,,D*64,1
1779390008327,$GPGGA,190008.000,1205.9946,S,07701.4562,W,2,07,1.6,145.5,M,8.4,M,2.0,0000*45,1
1779390008448,$GPGSA,M,3,15,20,12,25,11,05,29,,,,,,2.4,1.6,1.8*3A,1
1779390008609,$GPGSV,3,1,12,15,73,310,43,20,57,023,44,12,48,232,38,25,24,270,37*7B,1
1779390008769,$GPGSV,3,2,12,11,17,050,32,05,13,357,30,29,11,332,27,06,09,088,19*77,1
1779390008930,$GPGSV,3,3,12,13,45,042,41,19,24,135,34,24,42,184,45,48,33,280,41*7B,1
1779390009095,$GPRMC,190008.000,A,1205.9946,S,07701.4562,W,2.12,284.47,210526,,,D*6A,1
1779390009328,$GPGGA,190009.000,1205.9942,S,07701.4573,W,2,07,1.6,145.2,M,8.4,M,2.0,0000*47,1
1779390009450,$GPGSA,M,3,15,20,12,25,11,05,29,,,,,,2.4,1.6,1.8*3A,1
1779390009615,$GPRMC,190009.000,A,1205.9942,S,07701.4573,W,3.11,287.05,210526,,,D*68,1
1779390010322,$GPGGA,190010.000,1205.9933,S,07701.4589,W,2,07,1.6,144.9,M,8.4,M,3.0,0000*47,1
1779390010444,$GPGSA,M,3,15,20,12,25,11,05,29,,,,,,2.4,1.6,1.8*3A,1
1779390010609,$GPRMC,190010.000,A,1205.9933,S,07701.4589,W,5.03,291.94,210526,,,D*69,1
1779390011323,$GPGGA,190011.000,1205.9922,S,07701.4608,W,2,07,1.6,144.6,M,8.4,M,4.0,0000*44,1
1779390011444,$GPGSA,M,3,15,20,12,25,11,05,29,,,,,,2.4,1.6,1.8*3A,1
1779390011609,$GPRMC,190011.000,A,1205.9922,S,07701.4608,W,6.45,298.70,210526,,,D*60,1
1779390012324,$GPGGA,190012.000,1205.9912,S,07701.4626,W,2,07,1.6,144.5,M,8.4,M,5.0,0000*4A,1
1779390012445,$GPGSA,M,3,15,20,12,25,11,05,29,,,,,,2.4,1.6,1.8*3A,1
1779390012610,$GPRMC,190012.000,A,1205.9912,S,07701.4626,W,6.78,299.41,210526,,,D*61,1
1779390013329,$GPGGA,190013.000,1205.9902,S,07701.4644,W,2,07,1.6,144.4,M,8.4,M,2.0,0000*48,1
1779390013450,$GPGSA,M,3,15,20,12,25,11,05,29,,,,,,2.4,1.6,1.8*3A,1
1779390013611,$GPGSV,3,1,12,15,73,310,43,20,57,023,42,12,48,232,41,25,24,270,28*7D,1
1779390013771,$GPGSV,3,2,12,11,17,050,31,05,13,357,31,29,11,332,27,06,09,088,26*79,1
1779390013932,$GPGSV,3,3,12,13,45,042,42,19,24,135,34,24,42,184,42,48,33,280,34*7D,1
1779390014097,$GPRMC,190013.000,A,1205.9902,S,07701.4644,W,6.75,298.16,210526,,,D*6B,1
1779390014323,$GPGGA,190014.000,1205.9891,S,07701.4665,W,2,07,1.6,144.5,M,8.4,M,3.0,0000*47,1
1779390014444,$GPGSA,M,3,15,20,12,25,11,05,29,,,,,,2.4,1.6,1.8*3A,1
1779390014609,$GPRMC,190014.000,A,1205.9891,S,07701.4665,W,7.92,297.80,210526,,,D*6C,1
1779390015322,$GPGGA,190015.000,1205.9879,S,07701.4689,W,2,07,1.6,144.6,M,8.4,M,4.0,0000*46,1
1779390015443,$GPGSA,M,3,15,20,12,25,11,05,29,,,,,,2.4,1.6,1.8*3A,1
1779390015608,$GPRMC,190015.000,A,1205.9879,S,07701.4689,W,8.88,296.56,210526,,,D*67,1
1779390016318,$GPGGA,190016.000,1205.9867,S,07701.4712,W,2,06,1.7,144.7,M,8.4,M,5.0,0000*49,1
1779390016435,$GPGSA,M,3,15,20,12,25,11,29,,,,,,,2.5,1.7,1.8*3F,1
1779390016600,$GPRMC,190016.000,A,1205.9867,S,07701.4712,W,9.24,296.34,210526,,,D*6B,1
1779390017320,$GPGGA,190017.000,1205.9854,S,07701.4739,W,2,06,1.7,144.9,M,8.4,M,6.0,0000*4C,1
1779390017437,$GPGSA,M,3,15,20,12,25,11,29,,,,,,,2.5,1.7,1.8*3F,1
1779390017602,$GPRMC,190017.000,A,1205.9854,S,07701.4739,W,9.89,297.07,210526,,,D*65,1
1779390018320,$GPGGA,190018.000,1205.9840,S,07701.4765,W,2,06,1.7,145.1,M,8.4,M,7.0,0000*47,1
1779390018437,$GPGSA,M,3,15,20,12,25,11,29,,,,,,,2.5,1.7,1.8*3F,1
1779390018597,$GPGSV,3,1,12,15,73,310,43,20,57,023,41,12,48,232,37,25,24,270,28*7F,1
1779390018758,$GPGSV,3,2,12,11,17,050,28,29,11,332,23,06,09,088,33,13,45,042,36*75,1
1779390018914,$GPGSV,3,3,12,19,24,135,39,24,42,184,37,48,33,280,36,26,23,042,*70,1
1779390019081,$GPRMC,190018.000,A,1205.9840,S,07701.4765,W,10.07,296.93,210526,,,D*54,1
1779390019320,$GPGGA,190019.000,1205.9825,S,07701.4793,W,2,06,1.7,145.6,M,8.4,M,8.0,0000*44,1
1779390019437,$GPGSA,M,3,15,20,12,25,11,29,,,,,,,2.5,1.7,1.8*3F,1
1779390019604,$GPRMC,190019.000,A,1205.9825,S,07701.4793,W,10.13,298.36,210526,,,D*5B,1
1779390020319,$GPGGA,190020.000,1205.9807,S,07701.4823,W,2,06,1.7,146.1,M,8.4,M,9.0,0000*4F,1
1779390020436,$GPGSA,M,3,15,20,12,25,11,29,,,,,,,2.5,1.7,1.8*3F,1
1779390020604,$GPRMC,190020.000,A,1205.9807,S,07701.4823,W,10.85,299.44,210526,,,D*5E,1
1779390021327,$GPGGA,190021.000,1205.9793,S,07701.4850,W,2,06,1.7,146.2,M,8.4,M,2.0,0000*40,1
1779390021444,$GPGSA,M,3,15,20,12,25,11,29,,,,,,,2.5,1.7,1.8*3F,1
1779390021611,$GPRMC,190021.000,A,1205.9793,S,07701.4850,W,10.35,298.79,210526,,,D*5D,1
1779390022326,$GPGGA,190022.000,1205.9778,S,07701.4879,W,2,06,1.7,146.4,M,8.4,M,3.0,0000*4A,1
1779390022443,$GPGSA,M,3,15,20,12,25,11,29,,,,,,,2.5,1.7,1.8*3F,1
1779390022610,$GPRMC,190022.000,A,1205.9778,S,07701.4879,W,10.50,297.55,210526,,,D*52,1
1779390023323,$GPGGA,190023.000,1205.9764,S,07701.4907,W,2,06,1.7,146.3,M,8.4,M,4.0,0000*4E,1
1779390023440,$GPGSA,M,3,15,20,12,25,11,29,,,,,,,2.5,1.7,1.8*3F,1
1779390023600,$GPGSV,3,1,12,15,73,310,43,20,57,023,40,12,48,232,37,25,24,270,33*74,1
1779390023761,$GPGSV,3,2,12,11,17,050,39,29,11,332,30,05,13,357,25,06,09,088,23*77,1
1779390023921,$GPGSV,3,3,12,13,45,042,36,19,24,135,29,24,42,184,35,48,33,280,40*71,1
1779390024088,$GPRMC,190023.000,A,1205.9764,S,07701.4907,W,10.47,295.40,210526,,,D*56,1
1779390024330,$GPGGA,190024.000,1205.9748,S,07701.4937,W,2,06,1.7,146.2,M,8.4,M,5.0,0000*44,1
1779390024447,$GPGSA,M,3,15,20,12,25,11,29,,,,,,,2.5,1.7,1.8*3F,1
1779390024614,$GPRMC,190024.000,A,1205.9748,S,07701.4937,W,10.33,295.28,210526,,,D*51,1
1779390025326,$GPGGA,190025.000,1205.9734,S,07701.4964,W,2,07,1.6,146.1,M,8.4,M,6.0,0000*48,1
1779390025447,$GPGSA,M,3,15,20,12,25,11,05,29,,,,,,2.4,1.6,1.8*3A,1
1779390025612,$GPRMC,190025.000,A,1205.9734,S,07701.4964,W,9.35,294.58,210526,,,D*65,1
1779390026325,$GPGGA,190026.000,1205.9723,S,07701.4988,W,2,07,1.6,145.9,M,8.4,M,7.0,0000*45,1
1779390026446,$GPGSA,M,3,15,20,12,25,11,05,29,,,,,,2.4,1.6,1.8*3A,1
1779390026611,$GPRMC,190026.000,A,1205.9723,S,07701.4988,W,8.31,294.16,210526,,,D*6D,1
1779390027330,$GPGGA,190027.000,1205.9715,S,07701.5009,W,2,07,1.6,145.9,M,8.4,M,2.0,0000*45,1
1779390027451,$GPGSA,M,3,15,20,12,25,11,05,29,,,,,,2.4,1.6,1.8*3A,1
1779390027616,$GPRMC,190027.000,A,1205.9715,S,07701.5009,W,7.24,289.60,210526,,,D*6E,1
1779390028323,$GPGGA,190028.000,1205.9714,S,07701.5028,W,2,07,1.6,146.0,M,8.4,M,3.0,0000*43,1
1779390028445,$GPGSA,M,3,15,20,12,25,11,05,29,,,,,,2.4,1.6,1.8*3A,1
1779390028605,$GPGSV,3,1,12,15,73,310,43,20,57,023,38,12,48,232,37,25,24,270,23*7A,1
1779390028766,$GPGSV,3,2,12,11,17,050,23,05,13,357,33,29,11,332,34,06,09,088,26*7A,1
1779390028926,$GPGSV,3,3,12,13,45,042,37,19,24,135,39,24,42,184,39,48,33,280,41*7C,1
1779390029091,$GPRMC,190028.000,A,1205.9714,S,07701.5028,W,6.65,276.59,210526,,,D*6D,1
1779390029329,$GPGGA,190029.000,1205.9714,S,07701.5050,W,2,07,1.6,146.0,M,8.4,M,2.0,0000*4C,1
1779390029450,$GPGSA,M,3,15,20,12,25,11,05,29,,,,,,2.4,1.6,1.8*3A,1
1779390029615,$GPRMC,190029.000,A,1205.9714,S,07701.5050,W,7.23,269.64,210526,,,D*60,1
1779390030326,$GPGGA,190030.000,1205.9724,S,07701.5067,W,2,07,1.6,145.6,M,8.4,M,3.0,0000*47,1
1779390030448,$GPGSA,M,3,15,20,12,25,11,05,29,,,,,,2.4,1.6,1.8*3A,1
1779390030613,$GPRMC,190030.000,A,1205.9724,S,07701.5067,W,6.96,260.03,210526,,,D*68,1
1779390031324,$GPGGA,190031.000,1205.9735,S,07701.5081,W,2,07,1.6,145.3,M,8.4,M,4.0,0000*4C,1
1779390031446,$GPGSA,M,3,15,20,12,25,11,05,29,,,,,,2.4,1.6,1.8*3A,1
1779390031610,$GPRMC,190031.000,A,1205.9735,S,07701.5081,W,6.22,251.07,210526,,,D*68,1
1779390032330,$GPGGA,190032.000,1205.9749,S,07701.5085,W,2,07,1.6,145.4,M,8.4,M,2.0,0000*41,1
1779390032452,$GPGSA,M,3,15,20,12,25,11,05,29,,,,,,2.4,1.6,1.8*3A,1
1779390032617,$GPRMC,190032.000,A,1205.9749,S,07701.5085,W,4.50,238.80,210526,,,D*63,1
1779390033329,$GPGGA,190033.000,1205.9760,S,07701.5086,W,2,07,1.6,145.8,M,8.4,M,3.0,0000*45,1
1779390033451,$GPGSA,M,3,15,20,12,25,11,05,29,,,,,,2.4,1.6,1.8*3A,1
1779390033611,$GPGSV,3,1,12,15,73,310,37,20,57,023,37,12,48,232,42,25,24,270,22*75,1
1779390033772,$GPGSV,3,2,12,11,17,050,33,05,13,357,41,29,11,332,31,06,09,088,27*7A,1
1779390033932,$GPGSV,3,3,12,13,45,042,40,19,24,135,39,24,42,184,41,48,33,280,40*72,1
1779390034097,$GPRMC,190033.000,A,1205.9760,S,07701.5086,W,4.18,225.40,210526,,,D*66,1
1779390034329,$GPGGA,190034.000,1205.9772,S,07701.5077,W,2,07,1.6,146.2,M,8.4,M,4.0,0000*41,1
1779390034450,$GPGSA,M,3,15,20,12,25,11,05,29,,,,,,2.4,1.6,1.8*3A,1
1779390034615,$GPRMC,190034.000,A,1205.9772,S,07701.5077,W,4.30,203.81,210526,,,D*6F,1
1779390035323,$GPGGA,190035.000,1205.9788,S,07701.5047,W,2,07,1.6,146.3,M,8.4,M,5.0,0000*46,1
1779390035445,$GPGSA,M,3,15,20,12,25,11,05,29,,,,,,2.4,1.6,1.8*3A,1
1779390035610,$GPRMC,190035.000,A,1205.9788,S,07701.5047,W,6.89,146.59,210526,,,D*6F,1
1779390036330,$GPGGA,190036.000,1205.9806,S,07701.5008,W,2,07,1.6,146.0,M,8.4,M,6.0,0000*47,1
1779390036451,$GPGSA,M,3,15,20,12,25,11,05,29,,,,,,2.4,1.6,1.8*3A,1
1779390036619,$GPRMC,190036.000,A,1205.9806,S,07701.5008,W,10.02,119.64,210526,,,D*5E,1
1779390037326,$GPGGA,190037.000,1205.9821,S,07701.4972,W,2,07,1.6,145.8,M,8.4,M,7.0,0000*4C,1
1779390037448,$GPGSA,M,3,15,20,12,25,11,05,29,,,,,,2.4,1.6,1.8*3A,1
1779390037615,$GPRMC,190037.000,A,1205.9821,S,07701.4972,W,10.97,114.15,210526,,,D*58,1
1779390038329,$GPGGA,190038.000,1205.9834,S,07701.4942,W,2,07,1.6,145.8,M,8.4,M,8.0,0000*4B,1
1779390038451,$GPGSA,M,3,15,20,12,25,11,05,29,,,,,,2.4,1.6,1.8*3A,1
1779390038611,$GPGSV,3,1,12,15,73,310,43,20,57,023,40,12,48,232,42,25,24,270,35*70,1
1779390038772,$GPGSV,3,2,12,11,17,050,34,05,13,357,22,29,11,332,31,06,09,088,33*7D,1
1779390038932,$GPGSV,3,3,12,13,45,042,41,19,24,135,43,24,42,184,40,48,33,280,41*7E,1
1779390039099,$GPRMC,190038.000,A,1205.9834,S,07701.4942,W,11.05,114.07,210526,,,D*59,1
1779390039328,$GPGGA,190039.000,1205.9852,S,07701.4901,W,2,07,1.6,144.9,M,8.4,M,9.0,0000*4C,1
1779390039449,$GPGSA,M,3,15,20,12,25,11,05,29,,,,,,2.4,1.6,1.8*3A,1
1779390039616,$GPRMC,190039.000,A,1205.9852,S,07701.4901,W,11.23,114.58,210526,,,D*51,1
1779390040331,$GPGGA,190040.000,1205.9867,S,07701.4870,W,2,07,1.6,144.8,M,8.4,M,10.0,0000*7A,1
1779390040452,$GPGSA,M,3,15,20,12,25,11,05,29,,,,,,2.4,1.6,1.8*3A,1
1779390040619,$GPRMC,190040.000,A,1205.9867,S,07701.4870,W,10.48,115.15,210526,,,D*5A,1
1779390041332,$GPGGA,190041.000,1205.9880,S,07701.4843,W,2,07,1.6,144.5,M,8.4,M,11.0,0000*7E,1
1779390041454,$GPGSA,M,3,15,20,12,25,11,05,29,,,,,,2.4,1.6,1.8*3A,1
1779390041619,$GPRMC,190041.000,A,1205.9880,S,07701.4843,W,9.76,114.83,210526,,,D*69,1
1779390042333,$GPGGA,190042.000,1205.9891,S,07701.4819,W,2,07,1.6,144.6,M,8.4,M,12.0,0000*72,1
1779390042455,$GPGSA,M,3,15,20,12,25,11,05,29,,,,,,2.4,1.6,1.8*3A,1
1779390042620,$GPRMC,190042.000,A,1205.9891,S,07701.4819,W,9.17,115.92,210526,,,D*63,1
1779390043327,$GPGGA,190043.000,1205.9902,S,07701.4796,W,2,07,1.6,144.5,M,8.4,M,13.0,0000*72,1
1779390043448,$GPGSA,M,3,15,20,12,25,11,05,29,,,,,,2.4,1.6,1.8*3A,1
1779390043609,$GPGSV,3,1,12,15,73,310,43,20,57,023,39,12,48,232,43,25,24,270,38*72,1
1779390043769,$GPGSV,3,2,12,11,17,050,38,05,13,357,21,29,11,332,24,06,09,088,24*70,1
1779390043930,$GPGSV,3,3,12,13,45,042,42,19,24,135,43,24,42,184,41,48,33,280,41*7C,1
1779390044095,$GPRMC,190043.000,A,1205.9902,S,07701.4796,W,8.38,114.56,210526,,,D*64,1
1779390044331,$GPGGA,190044.000,1205.9910,S,07701.4775,W,2,07,1.6,144.3,M,8.4,M,14.0,0000*7A,1
1779390044453,$GPGSA,M,3,15,20,12,25,11,05,29,,,,,,2.4,1.6,1.8*3A,1
1779390044618,$GPRMC,190044.000,A,1205.9910,S,07701.4775,W,7.32,111.42,210526,,,D*68,1
1779390045330,$GPGGA,190045.000,1205.9915,S,07701.4757,W,2,06,1.7,144.3,M,8.4,M,15.0,0000*7F,1
1779390045447,$GPGSA,M,3,15,20,12,25,11,29,,,,,,,2.4,1.7,1.8*3E,1
1779390045612,$GPRMC,190045.000,A,1205.9915,S,07701.4757,W,6.10,102.88,210526,,,D*69,1
1779390046329,$GPGGA,190046.000,1205.9913,S,07701.4741,W,2,06,1.7,144.0,M,8.4,M,16.0,0000*7D,1
1779390046446,$GPGSA,M,3,15,20,12,25,11,29,,,,,,,2.4,1.7,1.8*3E,1
1779390046608,$GPRMC,190046.000,A,1205.9913,S,07701.4741,W,5.83,84.27,210526,,,D*58,1
1779390047328,$GPGGA,190047.000,1205.9906,S,07701.4726,W,2,06,1.7,143.9,M,8.4,M,17.0,0000*76,1
1779390047445,$GPGSA,M,3,15,20,12,25,11,29,,,,,,,2.4,1.7,1.8*3E,1
1779390047608,$GPRMC,190047.000,A,1205.9906,S,07701.4726,W,6.23,56.34,210526,,,D*58,1
1779390048329,$GPGGA,190048.000,1205.9893,S,07701.4715,W,2,06,1.7,143.8,M,8.4,M,18.0,0000*7A,1
1779390048446,$GPGSA,M,3,15,20,12,25,11,29,,,,,,,2.4,1.7,1.8*3E,1
1779390048606,$GPGSV,3,1,12,15,73,310,44,20,57,023,41,12,48,232,44,25,24,270,43*71,1
1779390048767,$GPGSV,3,2,12,11,17,050,39,29,11,332,34,06,09,088,25,13,45,042,43*76,1
1779390048923,$GPGSV,3,3,12,19,24,135,42,24,42,184,41,48,33,280,35,26,23,042,*7E,1
1779390049085,$GPRMC,190048.000,A,1205.9893,S,07701.4715,W,5.74,30.82,210526,,,D*56,1
1779390049329,$GPGGA,190049.000,1205.9877,S,07701.4711,W,2,06,1.8,143.9,M,8.4,M,19.0,0000*7A,1
1779390049446,$GPGSA,M,3,15,20,12,25,11,05,,,,,,,2.5,1.8,1.8*3E,1
1779390049606,$GPRMC,190049.000,A,1205.9877,S,07701.4711,W,5.88,5.72,210526,,,D*63,1
1779390050324,$GPGGA,190050.000,1205.9862,S,07701.4713,W,2,06,1.8,144.0,M,8.4,M,7.0,0000*45,1
1779390050441,$GPGSA,M,3,15,20,12,25,11,05,,,,,,,2.5,1.8,1.8*3E,1
1779390050606,$GPRMC,190050.000,A,1205.9862,S,07701.4713,W,5.40,351.10,210526,,,D*6F,1
1779390051322,$GPGGA,190051.000,1205.9849,S,07701.4722,W,2,06,1.8,144.2,M,8.4,M,8.0,0000*42,1
1779390051439,$GPGSA,M,3,15,20,12,25,11,05,,,,,,,2.5,1.8,1.8*3E,1
1779390051604,$GPRMC,190051.000,A,1205.9849,S,07701.4722,W,5.64,333.15,210526,,,D*62,1
1779390052322,$GPGGA,190052.000,1205.9838,S,07701.4736,W,2,06,1.8,144.4,M,8.4,M,9.0,0000*45,1
1779390052439,$GPGSA,M,3,15,20,12,25,11,05,,,,,,,2.5,1.8,1.8*3E,1
1779390052604,$GPRMC,190052.000,A,1205.9838,S,07701.4736,W,6.46,315.09,210526,,,D*68,1
1779390053326,$GPGGA,190053.000,1205.9831,S,07701.4751,W,2,06,1.8,144.5,M,8.4,M,10.0,0000*75,1
1779390053443,$GPGSA,M,3,15,20,12,25,11,05,,,,,,,2.5,1.8,1.8*3E,1
1779390053603,$GPGSV,3,1,12,15,73,310,43,20,57,023,42,12,48,232,38,25,24,270,31*7B,1
1779390053764,$GPGSV,3,2,12,11,17,050,31,05,13,357,18,06,09,088,34,13,45,042,38*73,1
1779390053924,$GPGSV,3,3,12,19,24,135,42,24,42,184,37,29,11,332,27,48,33,280,33*76,1
1779390054089,$GPRMC,190053.000,A,1205.9831,S,07701.4751,W,6.33,301.93,210526,,,D*65,1
1779390054327,$GPGGA,190054.000,1205.9823,S,07701.4769,W,2,06,1.8,144.9,M,8.4,M,11.0,0000*77,1
1779390054443,$GPGSA,M,3,15,20,12,25,11,05,,,,,,,2.5,1.8,1.8*3E,1
1779390054608,$GPRMC,190054.000,A,1205.9823,S,07701.4769,W,6.63,296.13,210526,,,D*68,1
1779390055325,$GPGGA,190055.000,1205.9814,S,07701.4789,W,2,06,1.8,145.3,M,8.4,M,12.0,0000*74,1
1779390055442,$GPGSA,M,3,15,20,12,25,11,05,,,,,,,2.5,1.8,1.8*3E,1
1779390055607,$GPRMC,190055.000,A,1205.9814,S,07701.4789,W,7.06,294.32,210526,,,D*60,1
1779390056325,$GPGGA,190056.000,1205.9802,S,07701.4813,W,2,06,1.8,145.4,M,8.4,M,13.0,0000*7A,1
1779390056442,$GPGSA,M,3,15,20,12,25,11,05,,,,,,,2.5,1.8,1.8*3E,1
1779390056607,$GPRMC,190056.000,A,1205.9802,S,07701.4813,W,8.61,294.60,210526,,,D*61,1
1779390057326,$GPGGA,190057.000,1205.9788,S,07701.4837,W,2,06,1.8,145.5,M,8.4,M,14.0,0000*76,1
1779390057442,$GPGSA,M,3,15,20,12,25,11,05,,,,,,,2.5,1.8,1.8*3E,1
1779390057607,$GPRMC,190057.000,A,1205.9788,S,07701.4837,W,9.14,296.13,210526,,,D*6E,1
1779390058327,$GPGGA,190058.000,1205.9773,S,07701.4864,W,2,06,1.8,145.9,M,8.4,M,15.0,0000*76,1
1779390058444,$GPGSA,M,3,15,20,12,25,11,05,,,,,,,2.5,1.8,1.8*3E,1
1779390058605,$GPGSV,3,1,12,15,73,310,44,20,57,023,41,12,48,232,33,25,24,270,32*77,1
1779390058765,$GPGSV,3,2,12,11,17,050,33,05,13,357,17,06,09,088,29,13,45,042,34*7E,1
1779390058925,$GPGSV,3,3,12,19,24,135,32,24,42,184,33,29,11,332,22,48,33,280,40*74,1
1779390059090,$GPRMC,190058.000,A,1205.9773,S,07701.4864,W,9.49,297.61,210526,,,D*6F,1
1779390059330,$GPGGA,190059.000,1205.9758,S,07701.4891,W,2,06,1.8,146.2,M,8.4,M,16.0,0000*7F,1
1779390059447,$GPGSA,M,3,15,20,12,25,11,05,,,,,,,2.5,1.8,1.8*3E,1
1779390059614,$GPRMC,190059.000,A,1205.9758,S,07701.4891,W,10.00,296.90,210526,,,D*57,1
1779390060326,$GPGGA,190100.000,1205.9745,S,07701.4918,W,2,06,1.8,146.2,M,8.4,M,17.0,0000*7F,1
1779390060443,$GPGSA,M,3,15,20,12,25,11,05,,,,,,,2.5,1.8,1.8*3E,1
1779390060610,$GPRMC,190100.000,A,1205.9745,S,07701.4918,W,10.11,296.35,210526,,,D*59,1
1779390061332,$GPGGA,190101.000,1205.9728,S,07701.4948,W,2,07,1.6,145.8,M,8.4,M,2.0,0000*42,1
1779390061453,$GPGSA,M,3,15,20,12,25,11,05,29,,,,,,2.4,1.6,1.8*3A,1
1779390061618,$GPRMC,190101.000,A,1205.9728,S,07701.4948,W,9.79,295.33,210526,,,D*65,1
1779390062326,$GPGGA,190102.000,1205.9716,S,07701.4972,W,2,07,1.6,145.9,M,8.4,M,3.0,0000*45,1
1779390062447,$GPGSA,M,3,15,20,12,25,11,05,29,,,,,,2.4,1.6,1.8*3A,1
1779390062612,$GPRMC,190102.000,A,1205.9716,S,07701.4972,W,9.22,295.53,210526,,,D*6A,1
1779390063325,$GPGGA,190103.000,1205.9707,S,07701.4994,W,2,07,1.6,146.0,M,8.4,M,4.0,0000*41,1
1779390063446,$GPGSA,M,3,15,20,12,25,11,05,29,,,,,,2.4,1.6,1.8*3A,1
1779390063607,$GPGSV,3,1,12,15,73,310,44,20,57,023,41,12,48,232,40,25,24,270,19*7A,1
1779390063767,$GPGSV,3,2,12,11,17,050,22,05,13,357,34,29,11,332,35,06,09,088,22*79,1
1779390063927,$GPGSV,3,3,12,13,45,042,38,19,24,135,31,24,42,184,37,48,33,280,36*75,1
1779390064092,$GPRMC,190103.000,A,1205.9707,S,07701.4994,W,8.12,295.48,210526,,,D*6B,1
1779390064325,$GPGGA,190104.000,1205.9699,S,07701.5013,W,2,07,1.6,146.2,M,8.4,M,5.0,0000*44,1
1779390064447,$GPGSA,M,3,15,20,12,25,11,05,29,,,,,,2.4,1.6,1.8*3A,1
1779390064612,$GPRMC,190104.000,A,1205.9699,S,07701.5013,W,7.58,293.94,210526,,,D*6B,1
1779390065326,$GPGGA,190105.000,1205.9693,S,07701.5032,W,2,07,1.6,146.0,M,8.4,M,6.0,0000*4D,1
1779390065447,$GPGSA,M,3,15,20,12,25,11,05,29,,,,,,2.4,1.6,1.8*3A,1
1779390065612,$GPRMC,190105.000,A,1205.9693,S,07701.5032,W,6.40,288.00,210526,,,D*6C,1
1779390066327,$GPGGA,190106.000,1205.9695,S,07701.5049,W,2,07,1.6,145.9,M,8.4,M,7.0,0000*4F,1
1779390066449,$GPGSA,M,3,15,20,12,25,11,05,29,,,,,,2.4,1.6,1.8*3A,1
1779390066614,$GPRMC,190106.000,A,1205.9695,S,07701.5049,W,5.90,271.15,210526,,,D*69,1
1779390067328,$GPGGA,190107.000,1205.9700,S,07701.5065,W,2,07,1.6,145.7,M,8.4,M,2.0,0000*46,1
1779390067449,$GPGSA,M,3,15,20,12,25,11,05,29,,,,,,2.4,1.6,1.8*3A,1
1779390067614,$GPRMC,190107.000,A,1205.9700,S,07701.5065,W,6.26,259.74,210526,,,D*68,1
1779390068326,$GPGGA,190108.000,1205.9711,S,07701.5079,W,2,07,1.6,145.5,M,8.4,M,3.0,0000*47,1
1779390068448,$GPGSA,M,3,15,20,12,25,11,05,29,,,,,,2.4,1.6,1.8*3A,1
1779390068608,$GPGSV,3,1,12,15,73,310,41,20,57,023,34,12,48,232,41,25,24,270,19*7C,1
1779390068769,$GPGSV,3,2,12,11,17,050,24,05,13,357,35,29,11,332,26,06,09,088,25*7B,1
1779390068929,$GPGSV,3,3,12,13,45,042,40,19,24,135,37,24,42,184,29,48,33,280,38*7D,1
1779390069094,$GPRMC,190108.000,A,1205.9711,S,07701.5079,W,6.49,245.47,210526,,,D*6E,1
1779390069330,$GPGGA,190109.000,1205.9723,S,07701.5093,W,2,07,1.6,145.5,M,8.4,M,2.0,0000*42,1
1779390069452,$GPGSA,M,3,15,20,12,25,11,05,29,,,,,,2.4,1.6,1.8*3A,1
1779390069617,$GPRMC,190109.000,A,1205.9723,S,07701.5093,W,6.04,239.13,210526,,,D*69,1
1779390070330,$GPGGA,190110.000,1205.9729,S,07701.5106,W,2,07,1.6,145.2,M,8.4,M,2.0,0000*4A,1
1779390070451,$GPGSA,M,3,15,20,12,25,11,05,29,,,,,,2.4,1.6,1.8*3A,1
1779390070616,$GPRMC,190110.000,A,1205.9729,S,07701.5106,W,5.06,233.16,210526,,,D*68,1
1779390071326,$GPGGA,190111.000,1205.9735,S,07701.5113,W,2,07,1.6,145.4,M,8.4,M,3.0,0000*45,1
1779390071447,$GPGSA,M,3,15,20,12,25,11,05,29,,,,,,2.4,1.6,1.8*3A,1
1779390071612,$GPRMC,190111.000,A,1205.9735,S,07701.5113,W,3.65,228.98,210526,,,D*6F,1
1779390072331,$GPGGA,190112.000,1205.9750,S,07701.5095,W,2,07,1.6,144.9,M,8.4,M,4.0,0000*41,1
1779390072452,$GPGSA,M,3,15,20,12,25,11,05,29,,,,,,2.4,1.6,1.8*3A,1
1779390072617,$GPRMC,190112.000,A,1205.9750,S,07701.5095,W,3.79,208.65,210526,,,D*6D,1
1779390073331,$GPGGA,190113.000,1205.9767,S,07701.5054,W,2,07,1.6,144.4,M,8.4,M,2.0,0000*42,1
1779390073453,$GPGSA,M,3,15,20,12,25,11,05,29,,,,,,2.4,1.6,1.8*3A,1
1779390073613,$GPGSV,3,1,12,15,73,310,41,20,57,023,42,12,48,232,42,25,24,270,19*7E,1
1779390073774,$GPGSV,3,2,12,11,17,050,33,05,13,357,40,29,11,332,30,06,09,088,28*75,1
1779390073934,$GPGSV,3,3,12,13,45,042,41,19,24,135,40,24,42,184,41,48,33,280,41*7C,1
1779390074099,$GPRMC,190113.000,A,1205.9767,S,07701.5054,W,9.23,124.24,210526,,,D*68,1
1779390074332,$GPGGA,190114.000,1205.9785,S,07701.5015,W,2,07,1.6,144.2,M,8.4,M,2.0,0000*4A,1
1779390074454,$GPGSA,M,3,15,20,12,25,11,05,29,,,,,,2.4,1.6,1.8*3A,1
1779390074621,$GPRMC,190114.000,A,1205.9785,S,07701.5015,W,10.22,115.58,210526,,,D*56,1
1779390075331,$GPGGA,190115.000,1205.9801,S,07701.4981,W,2,07,1.6,144.1,M,8.4,M,2.0,0000*4E,1
1779390075453,$GPGSA,M,3,15,20,12,25,11,05,29,,,,,,2.4,1.6,1.8*3A,1
1779390075620,$GPRMC,190115.000,A,1205.9801,S,07701.4981,W,10.38,114.48,210526,,,D*5A,1
1779390076326,$GPGGA,190116.000,1205.9816,S,07701.4946,W,2,07,1.6,144.0,M,8.4,M,3.0,0000*40,1
1779390076447,$GPGSA,M,3,15,20,12,25,11,05,29,,,,,,2.4,1.6,1.8*3A,1
1779390076615,$GPRMC,190116.000,A,1205.9816,S,07701.4946,W,10.46,115.15,210526,,,D*54,1
1779390077332,$GPGGA,190117.000,1205.9832,S,07701.4913,W,2,07,1.6,143.6,M,8.4,M,4.0,0000*41,1
1779390077453,$GPGSA,M,3,15,20,12,25,11,05,29,,,,,,2.4,1.6,1.8*3A,1
1779390077621,$GPRMC,190117.000,A,1205.9832,S,07701.4913,W,10.62,114.49,210526,,,D*5D,1
1779390078327,$GPGGA,190118.000,1205.9847,S,07701.4879,W,2,07,1.6,143.4,M,8.4,M,5.0,0000*42,1
1779390078449,$GPGSA,M,3,15,20,12,25,11,05,29,,,,,,2.4,1.6,1.8*3A,1
1779390078609,$GPGSV,3,1,12,15,73,310,43,20,57,023,37,12,48,232,43,25,24,270,40*73,1
1779390078769,$GPGSV,3,2,12,11,17,050,38,05,13,357,22,29,11,332,33,06,09,088,29*78,1
1779390078930,$GPGSV,3,3,12,13,45,042,42,19,24,135,43,24,42,184,42,48,33,280,42*7C,1
1779390079097,$GPRMC,190118.000,A,1205.9847,S,07701.4879,W,10.56,114.38,210526,,,D*5C,1
1779390079332,$GPGGA,190119.000,1205.9860,S,07701.4849,W,2,07,1.6,143.2,M,8.4,M,2.0,0000*44,1
1779390079453,$GPGSA,M,3,15,20,12,25,11,05,29,,,,,,2.4,1.6,1.8*3A,1
1779390079621,$GPRMC,190119.000,A,1205.9860,S,07701.4849,W,10.09,113.82,210526,,,D*57,1
1779390080327,$GPGGA,190120.000,1205.9872,S,07701.4823,W,2,07,1.6,143.2,M,8.4,M,3.0,0000*40,1
1779390080448,$GPGSA,M,3,15,20,12,25,11,05,29,,,,,,2.4,1.6,1.8*3A,1
1779390080613,$GPRMC,190120.000,A,1205.9872,S,07701.4823,W,9.27,113.71,210526,,,D*6A,1
1779390081334,$GPGGA,190121.000,1205.9883,S,07701.4800,W,2,07,1.6,143.3,M,8.4,M,2.0,0000*4E,1
1779390081455,$GPGSA,M,3,15,20,12,25,11,05,29,,,,,,2.4,1.6,1.8*3A,1
1779390081620,$GPRMC,190121.000,A,1205.9883,S,07701.4800,W,8.49,114.30,210526,,,D*6F,1
1779390082334,$GPGGA,190122.000,1205.9892,S,07701.4780,W,2,07,1.6,143.3,M,8.4,M,2.0,0000*4A,1
1779390082455,$GPGSA,M,3,15,20,12,25,11,05,29,,,,,,2.4,1.6,1.8*3A,1
1779390082620,$GPRMC,190122.000,A,1205.9892,S,07701.4780,W,7.44,112.08,210526,,,D*64,1
1779390083327,$GPGGA,190123.000,1205.9897,S,07701.4760,W,2,07,1.6,143.3,M,8.4,M,3.0,0000*41,1
1779390083448,$GPGSA,M,3,15,20,12,25,11,05,29,,,,,,2.4,1.6,1.8*3A,1
1779390083608,$GPGSV,3,1,12,15,73,310,43,20,57,023,36,12,48,232,42,25,24,270,40*73,1
1779390083769,$GPGSV,3,2,12,11,17,050,35,05,13,357,18,29,11,332,25,06,09,088,25*77,1
1779390083929,$GPGSV,3,3,12,13,45,042,42,19,24,135,43,24,42,184,41,48,33,280,42*7F,1
1779390084094,$GPRMC,190123.000,A,1205.9897,S,07701.4760,W,6.39,101.09,210526,,,D*66,1
1779390084326,$GPGGA,190124.000,1205.9898,S,07701.4741,W,2,07,1.6,143.0,M,8.4,M,4.0,0000*4E,1
1779390084448,$GPGSA,M,3,15,20,12,25,11,05,29,,,,,,2.4,1.6,1.8*3A,1
1779390084610,$GPRMC,190124.000,A,1205.9898,S,07701.4741,W,6.43,91.49,210526,,,D*5C,1
1779390085334,$GPGGA,190125.000,1205.9893,S,07701.4722,W,2,07,1.6,143.1,M,8.4,M,2.0,0000*46,1
1779390085455,$GPGSA,M,3,15,20,12,25,11,05,29,,,,,,2.4,1.6,1.8*3A,1
1779390085618,$GPRMC,190125.000,A,1205.9893,S,07701.4722,W,6.29,61.09,210526,,,D*54,1
1779390086334,$GPGGA,190126.000,1205.9881,S,07701.4708,W,2,07,1.6,142.8,M,8.4,M,2.0,0000*46,1
1779390086455,$GPGSA,M,3,15,20,12,25,11,05,29,,,,,,2.4,1.6,1.8*3A,1
1779390086618,$GPRMC,190126.000,A,1205.9881,S,07701.4708,W,6.12,29.83,210526,,,D*5A,1
1779390087327,$GPGGA,190127.000,1205.9865,S,07701.4704,W,2,07,1.6,142.7,M,8.4,M,3.0,0000*4F,1
1779390087449,$GPGSA,M,3,15,20,12,25,11,05,29,,,,,,2.4,1.6,1.8*3A,1
1779390087609,$GPRMC,190127.000,A,1205.9865,S,07701.4704,W,5.96,3.14,210526,,,D*64,1
1779390088328,$GPGGA,190128.000,1205.9849,S,07701.4712,W,2,07,1.6,142.8,M,8.4,M,4.0,0000*41,1
1779390088449,$GPGSA,M,3,15,20,12,25,11,05,29,,,,,,2.4,1.6,1.8*3A,1
1779390088610,$GPGSV,3,1,12,15,73,310,43,20,57,023,43,12,48,232,40,25,24,270,33*77,1
1779390088770,$GPGSV,3,2,12,11,17,050,40,05,13,357,22,29,11,332,33,06,09,088,25*7B,1
1779390088931,$GPGSV,3,3,12,13,45,042,38,19,24,135,41,24,42,184,41,48,33,280,31*74,1
1779390089096,$GPRMC,190128.000,A,1205.9849,S,07701.4712,W,7.05,332.73,210526,,,D*6A,1
1779390089329,$GPGGA,190129.000,1205.9835,S,07701.4729,W,2,07,1.6,142.8,M,8.4,M,5.0,0000*42,1
1779390089450,$GPGSA,M,3,15,20,12,25,11,05,29,,,,,,2.4,1.6,1.8*3A,1
1779390089615,$GPRMC,190129.000,A,1205.9835,S,07701.4729,W,8.90,305.81,210526,,,D*62,1
1779390090329,$GPGGA,190130.000,1205.9822,S,07701.4750,W,2,07,1.6,142.9,M,8.4,M,6.0,0000*40,1
1779390090451,$GPGSA,M,3,15,20,12,25,11,05,29,,,,,,2.4,1.6,1.8*3A,1
1779390090616,$GPRMC,190130.000,A,1205.9822,S,07701.4750,W,9.06,300.90,210526,,,D*69,1
1779390091327,$GPGGA,190131.000,1205.9812,S,07701.4774,W,2,07,1.6,143.0,M,8.4,M,7.0,0000*4D,1
1779390091449,$GPGSA,M,3,15,20,12,25,11,05,29,,,,,,2.4,1.6,1.8*3A,1
1779390091614,$GPRMC,190131.000,A,1205.9812,S,07701.4774,W,8.99,297.26,210526,,,D*68,1
1779390092328,$GPGGA,190132.000,1205.9803,S,07701.4797,W,2,07,1.6,143.2,M,8.4,M,8.0,0000*4E,1
1779390092449,$GPGSA,M,3,15,20,12,25,11,05,29,,,,,,2.4,1.6,1.8*3A,1
1779390092614,$GPRMC,190132.000,A,1205.9803,S,07701.4797,W,8.63,294.75,210526,,,D*66,1
1779390093329,$GPGGA,190133.000,1205.9792,S,07701.4820,W,2,07,1.6,143.5,M,8.4,M,9.0,0000*4D,1
1779390093450,$GPGSA,M,3,15,20,12,25,11,05,29,,,,,,2.4,1.6,1.8*3A,1
1779390093611,$GPGSV,3,1,12,15,73,310,43,20,57,023,42,12,48,232,37,25,24,270,30*75,1
1779390093771,$GPGSV,3,2,12,11,17,050,31,05,13,357,16,29,11,332,23,06,09,088,26*78,1
1779390093931,$GPGSV,3,3,12,13,45,042,37,19,24,135,38,24,42,184,36,48,33,280,32*76,1
1779390094096,$GPRMC,190133.000,A,1205.9792,S,07701.4820,W,8.64,295.01,210526,,,D*66,1
1779390094331,$GPGGA,190134.000,1205.9779,S,07701.4844,W,2,07,1.6,143.9,M,8.4,M,10.0,0000*79,1
1779390094452,$GPGSA,M,3,15,20,12,25,11,05,29,,,,,,2.4,1.6,1.8*3A,1
1779390094617,$GPRMC,190134.000,A,1205.9779,S,07701.4844,W,8.76,296.28,210526,,,D*6D,1
1779390095330,$GPGGA,190135.000,1205.9769,S,07701.4866,W,2,07,1.6,144.0,M,8.4,M,11.0,0000*76,1
1779390095451,$GPGSA,M,3,15,20,12,25,11,05,29,,,,,,2.4,1.6,1.8*3A,1
1779390095616,$GPRMC,190135.000,A,1205.9769,S,07701.4866,W,8.70,295.76,210526,,,D*63,1
1779390096335,$GPGGA,190136.000,1205.9753,S,07701.4898,W,2,07,1.6,144.9,M,8.4,M,2.0,0000*46,1
1779390096456,$GPGSA,M,3,15,20,12,25,11,05,29,,,,,,2.4,1.6,1.8*3A,1
1779390096623,$GPRMC,190136.000,A,1205.9753,S,07701.4898,W,10.02,295.13,210526,,,D*57,1
1779390097334,$GPGGA,190137.000,1205.9740,S,07701.4924,W,2,07,1.6,145.1,M,8.4,M,2.0,0000*4A,1
1779390097456,$GPGSA,M,3,15,20,12,25,11,05,29,,,,,,2.4,1.6,1.8*3A,1
1779390097623,$GPRMC,190137.000,A,1205.9740,S,07701.4924,W,10.34,295.91,210526,,,D*5D,1
1779390098334,$GPGGA,190138.000,1205.9733,S,07701.4946,W,2,07,1.6,145.2,M,8.4,M,2.0,0000*46,1
1779390098455,$GPGSA,M,3,15,20,12,25,11,05,29,,,,,,2.4,1.6,1.8*3A,1
1779390098616,$GPGSV,3,1,12,15,73,310,44,20,57,023,41,12,48,232,37,25,24,270,30*71,1
1779390098776,$GPGSV,3,2,12,11,17,050,39,05,13,357,23,29,11,332,39,06,09,088,26*7D,1
1779390098937,$GPGSV,3,3,12,13,45,042,36,19,24,135,32,24,42,184,35,48,33,280,39*75,1
1779390099102,$GPRMC,190138.000,A,1205.9733,S,07701.4946,W,9.80,295.65,210526,,,D*6E,1
1779390099333,$GPGGA,190139.000,1205.9723,S,07701.4969,W,2,07,1.6,145.3,M,8.4,M,2.0,0000*4A,1
1779390099455,$GPGSA,M,3,15,20,12,25,11,05,29,,,,,,2.4,1.6,1.8*3A,1
1779390099620,$GPRMC,190139.000,A,1205.9723,S,07701.4969,W,9.27,296.14,210526,,,D*6B,1
1779390100328,$GPGGA,190140.000,1205.9714,S,07701.4989,W,2,07,1.6,145.4,M,8.4,M,3.0,0000*48,1
1779390100450,$GPGSA,M,3,15,20,12,25,11,05,29,,,,,,2.4,1.6,1.8*3A,1
1779390100615,$GPRMC,190140.000,A,1205.9714,S,07701.4989,W,8.16,297.32,210526,,,D*69,1
1779390101328,$GPGGA,190141.000,1205.9710,S,07701.5006,W,2,07,1.6,145.9,M,8.4,M,4.0,0000*48,1
1779390101450,$GPGSA,M,3,15,20,12,25,11,05,29,,,,,,2.4,1.6,1.8*3A,1
1779390101615,$GPRMC,190141.000,A,1205.9710,S,07701.5006,W,7.33,295.78,210526,,,D*67,1
1779390102329,$GPGGA,190142.000,1205.9707,S,07701.5022,W,2,07,1.6,145.9,M,8.4,M,5.0,0000*4A,1
1779390102451,$GPGSA,M,3,15,20,12,25,11,05,29,,,,,,2.4,1.6,1.8*3A,1
1779390102616,$GPRMC,190142.000,A,1205.9707,S,07701.5022,W,6.10,284.99,210526,,,D*6B,1
1779390103334,$GPGGA,190143.000,1205.9706,S,07701.5041,W,2,07,1.6,145.9,M,8.4,M,2.0,0000*48,1
1779390103456,$GPGSA,M,3,15,20,12,25,11,05,29,,,,,,2.4,1.6,1.8*3A,1
1779390103616,$GPGSV,3,1,12,15,73,310,44,20,57,023,40,12,48,232,39,25,24,270,24*7B,1
1779390103776,$GPGSV,3,2,12,11,17,050,23,05,13,357,34,29,11,332,35,06,09,088,24*7E,1
1779390103937,$GPGSV,3,3,12,13,45,042,38,19,24,135,38,24,42,184,39,48,33,280,39*7D,1
1779390104102,$GPRMC,190143.000,A,1205.9706,S,07701.5041,W,5.84,261.21,210526,,,D*68,1
1779390104328,$GPGGA,190144.000,1205.9711,S,07701.5057,W,2,07,1.6,145.8,M,8.4,M,3.0,0000*4E,1
1779390104450,$GPGSA,M,3,15,20,12,25,11,05,29,,,,,,2.4,1.6,1.8*3A,1
1779390104615,$GPRMC,190144.000,A,1205.9711,S,07701.5057,W,5.79,253.41,210526,,,D*6B,1
1779390105330,$GPGGA,190145.000,1205.9718,S,07701.5069,W,2,07,1.6,145.7,M,8.4,M,4.0,0000*43,1
1779390105451,$GPGSA,M,3,15,20,12,25,11,05,29,,,,,,2.4,1.6,1.8*3A,1
1779390105616,$GPRMC,190145.000,A,1205.9718,S,07701.5069,W,4.29,247.36,210526,,,D*6F,1
1779390106330,$GPGGA,190146.000,1205.9723,S,07701.5076,W,2,07,1.6,145.7,M,8.4,M,5.0,0000*47,1
1779390106451,$GPGSA,M,3,15,20,12,25,11,05,29,,,,,,2.4,1.6,1.8*3A,1
1779390106616,$GPRMC,190146.000,A,1205.9723,S,07701.5076,W,2.74,244.43,210526,,,D*65,1
1779390107329,$GPGGA,190147.000,1205.9722,S,07701.5083,W,2,07,1.6,145.3,M,8.4,M,6.0,0000*4A,1
1779390107451,$GPGSA,M,3,15,20,12,25,11,05,29,,,,,,2.4,1.6,1.8*3A,1
1779390107616,$GPRMC,190147.000,A,1205.9722,S,07701.5083,W,1.30,240.17,210526,,,D*69,1
1779390108330,$GPGGA,190148.000,1205.9723,S,07701.5085,W,2,07,1.6,144.9,M,8.4,M,7.0,0000*48,1
1779390108451,$GPGSA,M,3,15,20,12,25,11,05,29,,,,,,2.4,1.6,1.8*3A,1
1779390108612,$GPGSV,3,1,12,15,73,310,43,20,57,023,39,12,48,232,42,25,24,270,21*7B,1
1779390108772,$GPGSV,3,2,12,11,17,050,25,05,13,357,41,29,11,332,27,06,09,088,33*7F,1
1779390108933,$GPGSV,3,3,12,13,45,042,42,19,24,135,35,24,42,184,35,48,33,280,35*7D,1
1779390109098,$GPRMC,190148.000,A,1205.9723,S,07701.5085,W,1.27,231.46,210526,,,D*65,1
1779390109329,$GPGGA,190149.000,1205.9726,S,07701.5086,W,2,07,1.6,144.6,M,8.4,M,8.0,0000*4F,1
1779390109451,$GPGSA,M,3,15,20,12,25,11,05,29,,,,,,2.4,1.6,1.8*3A,1
1779390109616,$GPRMC,190149.000,A,1205.9726,S,07701.5086,W,2.53,208.63,210526,,,D*6F,1
1779390110335,$GPGGA,190150.000,1205.9735,S,07701.5084,W,2,07,1.6,144.3,M,8.4,M,2.0,0000*48,1
1779390110456,$GPGSA,M,3,15,20,12,25,11,05,29,,,,,,2.4,1.6,1.8*3A,1
1779390110621,$GPRMC,190150.000,A,1205.9735,S,07701.5084,W,4.41,174.98,210526,,,D*6E,1
1779390111334,$GPGGA,190151.000,1205.9746,S,07701.5076,W,2,07,1.6,144.1,M,8.4,M,2.0,0000*42,1
1779390111456,$GPGSA,M,3,15,20,12,25,11,05,29,,,,,,2.4,1.6,1.8*3A,1
1779390111621,$GPRMC,190151.000,A,1205.9746,S,07701.5076,W,6.61,143.02,210526,,,D*61,1
1779390112333,$GPGGA,190152.000,1205.9758,S,07701.5065,W,2,07,1.6,144.2,M,8.4,M,3.0,0000*4E,1
1779390112454,$GPGSA,M,3,15,20,12,25,11,05,29,,,,,,2.4,1.6,1.8*3A,1
1779390112619,$GPRMC,190152.000,A,1205.9758,S,07701.5065,W,6.87,134.59,210526,,,D*69,1
1779390113335,$GPGGA,190153.000,1205.9771,S,07701.5048,W,2,07,1.6,143.9,M,8.4,M,2.0,0000*46,1
1779390113456,$GPGSA,M,3,15,20,12,25,11,05,29,,,,,,2.4,1.6,1.8*3A,1
1779390113616,$GPGSV,3,1,12,15,73,310,40,20,57,023,39,12,48,232,43,25,24,270,21*79,1
1779390113777,$GPGSV,3,2,12,11,17,050,30,05,13,357,39,29,11,332,29,06,09,088,29*71,1
1779390113937,$GPGSV,3,3,12,13,45,042,41,19,24,135,43,24,42,184,42,48,33,280,41*7C,1
1779390114102,$GPRMC,190153.000,A,1205.9771,S,07701.5048,W,7.17,129.84,210526,,,D*68,1
1779390114330,$GPGGA,190154.000,1205.9784,S,07701.5025,W,2,07,1.6,143.6,M,8.4,M,3.0,0000*4E,1
1779390114451,$GPGSA,M,3,15,20,12,25,11,05,29,,,,,,2.4,1.6,1.8*3A,1
1779390114616,$GPRMC,190154.000,A,1205.9784,S,07701.5025,W,8.57,120.46,210526,,,D*62,1
1779390115333,$GPGGA,190155.000,1205.9802,S,07701.4989,W,2,07,1.6,142.7,M,8.4,M,2.0,0000*41,1
1779390115455,$GPGSA,M,3,15,20,12,25,11,05,29,,,,,,2.4,1.6,1.8*3A,1
1779390115622,$GPRMC,190155.000,A,1205.9802,S,07701.4989,W,10.13,115.88,210526,,,D*51,1
1779390116334,$GPGGA,190156.000,1205.9818,S,07701.4954,W,2,07,1.6,141.7,M,8.4,M,2.0,0000*4A,1
1779390116455,$GPGSA,M,3,15,20,12,25,11,05,29,,,,,,2.4,1.6,1.8*3A,1
1779390116623,$GPRMC,190156.000,A,1205.9818,S,07701.4954,W,10.35,115.28,210526,,,D*57,1
1779390117334,$GPGGA,190157.000,1205.9833,S,07701.4926,W,2,07,1.6,141.5,M,8.4,M,2.0,0000*45,1
1779390117455,$GPGSA,M,3,15,20,12,25,11,05,29,,,,,,2.4,1.6,1.8*3A,1
1779390117623,$GPRMC,190157.000,A,1205.9833,S,07701.4926,W,10.63,116.41,210526,,,D*55,1
1779390118333,$GPGGA,190158.000,1205.9847,S,07701.4897,W,2,07,1.6,141.3,M,8.4,M,2.0,0000*44,1
1779390118455,$GPGSA,M,3,15,20,12,25,11,05,29,,,,,,2.4,1.6,1.8*3A,1
1779390118615,$GPGSV,3,1,12,15,73,310,44,20,57,023,39,12,48,232,44,25,24,270,36*7C,1
1779390118775,$GPGSV,3,2,12,11,17,050,37,05,13,357,24,29,11,332,35,06,09,088,30*7F,1
1779390118936,$GPGSV,3,3,12,13,45,042,42,19,24,135,43,24,42,184,42,48,33,280,42*7C,1
1779390119103,$GPRMC,190158.000,A,1205.9847,S,07701.4897,W,11.01,115.54,210526,,,D*50,1
1779390119325,$GPGGA,190159.000,1205.9861,S,07701.4869,W,2,06,1.8,141.2,M,8.4,M,3.0,0000*4F,1
1779390119441,$GPGSA,M,3,15,20,12,25,11,05,,,,,,,2.5,1.8,1.8*3E,1
1779390119609,$GPRMC,190159.000,A,1205.9861,S,07701.4869,W,10.85,115.64,210526,,,D*5A,1
1779390120336,$GPGGA,190200.000,1205.9874,S,07701.4841,W,2,07,1.6,141.1,M,8.4,M,4.0,0000*45,1
1779390120457,$GPGSA,M,3,15,20,12,25,11,05,29,,,,,,2.4,1.6,1.8*3A,1
1779390120625,$GPRMC,190200.000,A,1205.9874,S,07701.4841,W,10.63,115.29,210526,,,D*5A,1
1779390121336,$GPGGA,190201.000,1205.9886,S,07701.4816,W,2,07,1.6,141.2,M,8.4,M,2.0,0000*4E,1
1779390121457,$GPGSA,M,3,15,20,12,25,11,05,29,,,,,,2.4,1.6,1.8*3A,1
1779390121624,$GPRMC,190201.000,A,1205.9886,S,07701.4816,W,10.00,114.46,210526,,,D*59,1
1779390122336,$GPGGA,190202.000,1205.9894,S,07701.4795,W,2,07,1.6,141.7,M,8.4,M,2.0,0000*4F,1
1779390122457,$GPGSA,M,3,15,20,12,25,11,05,29,,,,,,2.3,1.6,1.8*3D,1
1779390122622,$GPRMC,190202.000,A,1205.9894,S,07701.4795,W,8.66,111.99,210526,,,D*63,1
1779390123335,$GPGGA,190203.000,1205.9902,S,07701.4774,W,2,07,1.6,141.8,M,8.4,M,2.0,0000*40,1
1779390123456,$GPGSA,M,3,15,20,12,25,11,05,29,,,,,,2.3,1.6,1.8*3D,1
1779390123616,$GPGSV,3,1,12,15,73,310,44,20,57,023,38,12,48,232,44,25,24,270,39*72,1
1779390123777,$GPGSV,3,2,12,11,17,050,37,05,13,357,22,29,11,332,26,06,09,088,28*72,1
1779390123937,$GPGSV,3,3,12,13,45,042,42,19,24,135,43,24,42,184,41,48,33,280,42*7F,1
1779390124102,$GPRMC,190203.000,A,1205.9902,S,07701.4774,W,6.95,107.48,210526,,,D*6A,1
1779390124329,$GPGGA,190204.000,1205.9905,S,07701.4756,W,2,07,1.6,141.8,M,8.4,M,3.0,0000*41,1
1779390124451,$GPGSA,M,3,15,20,12,25,11,05,29,,,,,,2.3,1.6,1.8*3D,1
1779390124614,$GPRMC,190204.000,A,1205.9905,S,07701.4756,W,5.94,95.43,210526,,,D*59,1
1779390125335,$GPGGA,190205.000,1205.9901,S,07701.4740,W,2,07,1.6,141.6,M,8.4,M,4.0,0000*4A,1
1779390125456,$GPGSA,M,3,15,20,12,25,11,05,29,,,,,,2.3,1.6,1.8*3D,1
1779390125619,$GPRMC,190205.000,A,1205.9901,S,07701.4740,W,6.01,71.90,210526,,,D*50,1
1779390126337,$GPGGA,190206.000,1205.9892,S,07701.4727,W,2,07,1.6,141.2,M,8.4,M,5.0,0000*46,1
1779390126458,$GPGSA,M,3,15,20,12,25,11,05,29,,,,,,2.3,1.6,1.8*3D,1
1779390126621,$GPRMC,190206.000,A,1205.9892,S,07701.4727,W,5.82,56.45,210526,,,D*5C,1
1779390127329,$GPGGA,190207.000,1205.9878,S,07701.4719,W,2,07,1.6,141.2,M,8.4,M,6.0,0000*4D,1
1779390127451,$GPGSA,M,3,15,20,12,25,11,05,29,,,,,,2.3,1.6,1.8*3D,1
1779390127614,$GPRMC,190207.000,A,1205.9878,S,07701.4719,W,5.79,18.78,210526,,,D*54,1
1779390128330,$GPGGA,190208.000,1205.9862,S,07701.4718,W,2,07,1.6,141.1,M,8.4,M,7.0,0000*4A,1
1779390128451,$GPGSA,M,3,15,20,12,25,11,05,29,,,,,,2.3,1.6,1.8*3D,1
1779390128612,$GPGSV,3,1,12,15,73,310,43,20,57,023,44,12,48,232,40,25,24,270,31*72,1
1779390128772,$GPGSV,3,2,12,11,17,050,40,05,13,357,23,29,11,332,34,06,09,088,25*7D,1
1779390128933,$GPGSV,3,3,12,13,45,042,43,19,24,135,42,24,42,184,42,48,33,280,32*7B,1
1779390129098,$GPRMC,190208.000,A,1205.9862,S,07701.4718,W,5.63,358.02,210526,,,D*60,1
1779390129330,$GPGGA,190209.000,1205.9848,S,07701.4725,W,2,07,1.6,141.3,M,8.4,M,8.0,0000*40,1
1779390129452,$GPGSA,M,3,15,20,12,25,11,05,29,,,,,,2.3,1.6,1.8*3D,1
1779390129617,$GPRMC,190209.000,A,1205.9848,S,07701.4725,W,6.75,334.26,210526,,,D*6F,1
1779390130329,$GPGGA,190210.000,1205.9834,S,07701.4737,W,2,07,1.6,141.4,M,8.4,M,9.0,0000*46,1
1779390130450,$GPGSA,M,3,15,20,12,25,11,05,29,,,,,,2.3,1.6,1.8*3D,1
1779390130615,$GPRMC,190210.000,A,1205.9834,S,07701.4737,W,6.78,320.21,210526,,,D*60,1
1779390131332,$GPGGA,190211.000,1205.9823,S,07701.4755,W,2,07,1.6,141.5,M,8.4,M,10.0,0000*7C,1
1779390131453,$GPGSA,M,3,15,20,12,25,11,05,29,,,,,,2.3,1.6,1.8*3D,1
1779390131618,$GPRMC,190211.000,A,1205.9823,S,07701.4755,W,7.59,305.74,210526,,,D*66,1
1779390132332,$GPGGA,190212.000,1205.9813,S,07701.4775,W,2,07,1.6,141.8,M,8.4,M,11.0,0000*72,1
1779390132453,$GPGSA,M,3,15,20,12,25,11,05,29,,,,,,2.3,1.6,1.8*3D,1
1779390132618,$GPRMC,190212.000,A,1205.9813,S,07701.4775,W,7.64,298.75,210526,,,D*6E,1
1779390133335,$GPGGA,190213.000,1205.9803,S,07701.4798,W,2,07,1.6,142.1,M,8.4,M,2.0,0000*49,1
1779390133457,$GPGSA,M,3,15,20,12,25,11,05,29,,,,,,2.3,1.6,1.8*3D,1
1779390133617,$GPGSV,3,1,12,15,73,310,43,20,57,023,42,12,48,232,38,25,24,270,31*7B,1
1779390133778,$GPGSV,3,2,12,11,17,050,32,05,13,357,19,29,11,332,22,06,09,088,29*7A,1
1779390133938,$GPGSV,3,3,12,13,45,042,37,19,24,135,41,24,42,184,36,48,33,280,35*7F,1
1779390134103,$GPRMC,190213.000,A,1205.9803,S,07701.4798,W,8.30,295.00,210526,,,D*6C,1
1779390134330,$GPGGA,190214.000,1205.9792,S,07701.4821,W,2,07,1.6,142.2,M,8.4,M,3.0,0000*46,1
1779390134452,$GPGSA,M,3,15,20,12,25,11,05,29,,,,,,2.3,1.6,1.8*3D,1
1779390134617,$GPRMC,190214.000,A,1205.9792,S,07701.4821,W,9.19,294.64,210526,,,D*68,1
1779390135329,$GPGGA,190215.000,1205.9779,S,07701.4846,W,2,07,1.6,142.5,M,8.4,M,4.0,0000*43,1
1779390135450,$GPGSA,M,3,15,20,12,25,11,05,29,,,,,,2.3,1.6,1.8*3D,1
1779390135615,$GPRMC,190215.000,A,1205.9779,S,07701.4846,W,9.42,296.29,210526,,,D*68,1
1779390136337,$GPGGA,190216.000,1205.9769,S,07701.4869,W,2,07,1.6,142.5,M,8.4,M,5.0,0000*4D,1
1779390136458,$GPGSA,M,3,15,20,12,25,11,05,29,,,,,,2.3,1.6,1.8*3D,1
1779390136623,$GPRMC,190216.000,A,1205.9769,S,07701.4869,W,9.04,295.29,210526,,,D*66,1
1779390137330,$GPGGA,190217.000,1205.9756,S,07701.4896,W,2,06,1.6,143.0,M,8.4,M,6.0,0000*46,1
1779390137447,$GPGSA,M,3,15,20,12,25,11,29,,,,,,,2.4,1.6,1.8*3F,1
1779390137612,$GPRMC,190217.000,A,1205.9756,S,07701.4896,W,9.53,294.25,210526,,,D*64,1
1779390138337,$GPGGA,190218.000,1205.9746,S,07701.4920,W,2,06,1.6,143.1,M,8.4,M,7.0,0000*44,1
1779390138454,$GPGSA,M,3,15,20,12,25,11,29,,,,,,,2.4,1.6,1.8*3F,1
1779390138614,$GPGSV,3,1,12,15,73,310,43,20,57,023,41,12,48,232,37,25,24,270,29*7E,1
1779390138775,$GPGSV,3,2,12,11,17,050,40,29,11,332,31,05,13,357,21,06,09,088,30*7E,1
1779390138935,$GPGSV,3,3,12,13,45,042,39,19,24,135,30,24,42,184,36,48,33,280,40*75,1
1779390139100,$GPRMC,190218.000,A,1205.9746,S,07701.4920,W,9.31,295.36,210526,,,D*61,1
1779390139335,$GPGGA,190219.000,1205.9737,S,07701.4942,W,2,06,1.6,143.2,M,8.4,M,2.0,0000*41,1
1779390139452,$GPGSA,M,3,15,20,12,25,11,29,,,,,,,2.4,1.6,1.8*3F,1
1779390139617,$GPRMC,190219.000,A,1205.9737,S,07701.4942,W,9.35,295.56,210526,,,D*60,1
1779390140329,$GPGGA,190220.000,1205.9726,S,07701.4967,W,2,06,1.6,143.2,M,8.4,M,3.0,0000*4D,1
1779390140446,$GPGSA,M,3,15,20,12,25,11,29,,,,,,,2.4,1.6,1.8*3F,1
1779390140611,$GPRMC,190220.000,A,1205.9726,S,07701.4967,W,9.27,295.18,210526,,,D*64,1
1779390141331,$GPGGA,190221.000,1205.9717,S,07701.4988,W,2,07,1.6,143.1,M,8.4,M,4.0,0000*4A,1
1779390141452,$GPGSA,M,3,15,20,12,25,11,05,29,,,,,,2.3,1.6,1.8*3D,1
1779390141617,$GPRMC,190221.000,A,1205.9717,S,07701.4988,W,8.09,294.66,210526,,,D*63,1
1779390142335,$GPGGA,190222.000,1205.9710,S,07701.5007,W,2,07,1.5,143.0,M,8.4,M,5.0,0000*42,1
1779390142456,$GPGSA,M,3,15,20,12,25,11,05,29,,,,,,2.3,1.5,1.8*3E,1
1779390142621,$GPRMC,190222.000,A,1205.9710,S,07701.5007,W,6.99,290.36,210526,,,D*6E,1
1779390143331,$GPGGA,190223.000,1205.9708,S,07701.5023,W,2,07,1.5,142.8,M,8.4,M,6.0,0000*46,1
1779390143453,$GPGSA,M,3,15,20,12,25,11,05,29,,,,,,2.3,1.5,1.8*3E,1
1779390143613,$GPGSV,3,1,12,15,73,310,43,20,57,023,39,12,48,232,37,25,24,270,25*7D,1
1779390143773,$GPGSV,3,2,12,11,17,050,23,05,13,357,31,29,11,332,35,06,09,088,27*78,1
1779390143934,$GPGSV,3,3,12,13,45,042,38,19,24,135,39,24,42,184,37,48,33,280,43*7F,1
1779390144099,$GPRMC,190223.000,A,1205.9708,S,07701.5023,W,6.04,282.84,210526,,,D*6E,1
1779390144332,$GPGGA,190224.000,1205.9709,S,07701.5040,W,2,07,1.5,142.7,M,8.4,M,7.0,0000*4B,1
1779390144454,$GPGSA,M,3,15,20,12,25,11,05,29,,,,,,2.3,1.5,1.8*3E,1
1779390144619,$GPRMC,190224.000,A,1205.9709,S,07701.5040,W,5.93,276.30,210526,,,D*64,1
1779390145334,$GPGGA,190225.000,1205.9723,S,07701.5049,W,2,07,1.5,142.7,M,8.4,M,2.0,0000*4E,1
1779390145456,$GPGSA,M,3,15,20,12,25,11,05,29,,,,,,2.3,1.5,1.8*3E,1
1779390145621,$GPRMC,190225.000,A,1205.9723,S,07701.5049,W,5.58,259.34,210526,,,D*6A,1
1779390146333,$GPGGA,190226.000,1205.9742,S,07701.5054,W,2,07,1.5,142.9,M,8.4,M,3.0,0000*49,1
1779390146454,$GPGSA,M,3,15,20,12,25,11,05,29,,,,,,2.3,1.5,1.8*3E,1
1779390146619,$GPRMC,190226.000,A,1205.9742,S,07701.5054,W,5.55,237.93,210526,,,D*6A,1
1779390147331,$GPGGA,190227.000,1205.9770,S,07701.5049,W,2,07,1.5,144.2,M,8.4,M,4.0,0000*4F,1
1779390147453,$GPGSA,M,3,15,20,12,25,11,05,29,,,,,,2.3,1.5,1.8*3E,1
1779390147618,$GPRMC,190227.000,A,1205.9770,S,07701.5049,W,6.05,212.73,210526,,,D*69,1
1779390148333,$GPGGA,190228.000,1205.9788,S,07701.5041,W,2,07,1.5,144.7,M,8.4,M,5.0,0000*4B,1
1779390148454,$GPGSA,M,3,15,20,12,25,11,05,29,,,,,,2.3,1.5,1.8*3E,1
1779390148615,$GPGSV,3,1,12,15,73,310,42,20,57,023,36,12,48,232,41,25,24,270,19*7D,1
1779390148775,$GPGSV,3,2,12,11,17,050,25,05,13,357,39,29,11,332,33,06,09,088,28*7F,1
1779390148935,$GPGSV,3,3,12,13,45,042,41,19,24,135,36,24,42,184,41,48,33,280,40*7C,1
1779390149100,$GPRMC,190228.000,A,1205.9788,S,07701.5041,W,7.36,157.97,210526,,,D*60,1
1779390149332,$GPGGA,190229.000,1205.9801,S,07701.5026,W,2,07,1.5,145.1,M,8.4,M,6.0,0000*41,1
1779390149454,$GPGSA,M,3,15,20,12,25,11,05,29,,,,,,2.3,1.5,1.8*3E,1
1779390149619,$GPRMC,190229.000,A,1205.9801,S,07701.5026,W,8.34,132.68,210526,,,D*60,1
1779390150333,$GPGGA,190230.000,1205.9814,S,07701.5006,W,2,07,1.5,145.3,M,8.4,M,7.0,0000*4C,1
1779390150455,$GPGSA,M,3,15,20,12,25,11,05,29,,,,,,2.3,1.5,1.8*3E,1
1779390150620,$GPRMC,190230.000,A,1205.9814,S,07701.5006,W,9.14,121.67,210526,,,D*60,1
1779390151332,$GPGGA,190231.000,1205.9825,S,07701.4982,W,2,07,1.5,145.3,M,8.4,M,2.0,0000*4E,1
1779390151453,$GPGSA,M,3,15,20,12,25,11,05,29,,,,,,2.3,1.5,1.8*3E,1
1779390151618,$GPRMC,190231.000,A,1205.9825,S,07701.4982,W,9.73,116.00,210526,,,D*63,1
1779390152333,$GPGGA,190232.000,1205.9839,S,07701.4951,W,2,07,1.5,144.8,M,8.4,M,2.0,0000*44,1
1779390152455,$GPGSA,M,3,15,20,12,25,11,05,29,,,,,,2.3,1.5,1.8*3E,1
1779390152622,$GPRMC,190232.000,A,1205.9839,S,07701.4951,W,10.28,113.93,210526,,,D*5A,1
