Unix_time,GPS_data,motion_flag
1779390338342,$GPGGA,190538.000,1205.9948,S,07701.4540,W,2,06,1.7,145.1,M,8.4,M,2.0,0000*49,0
1779390365296,$GPGSA,M,3,15,20,12,25,11,05,,,,,,,2.4,1.7,1.7*3F,0
1779390365296,$GPGSV,3,1,12,15,72,316,45,20,55,022,43,12,48,229,39,25,25,268,34*7E,0
1779390365297,$GPGSV,3,2,12,11,18,052,41,05,12,358,30,06,09,090,14,13,43,040,37*7D,0
1779390365298,$GPGSV,3,3,12,19,22,136,41,24,43,182,41,48,33,280,39,26,22,041,*71,0
1779390365298,$GPRMC,190538.000,A,1205.9948,S,07701.4540,W,0.00,300.95,210526,,,D*61,0
1779390365299,$GPGGA,190539.000,1205.9948,S,07701.4540,W,2,06,1.7,145.1,M,8.4,M,2.0,0000*48,0
1779390365300,$GPGSA,M,3,15,20,12,25,11,05,,,,,,,2.4,1.7,1.7*3F,0
1779390365300,$GPRMC,190539.000,A,1205.9948,S,07701.4540,W,0.00,300.95,210526,,,D*60,0
1779390365301,$GPGGA,190540.000,1205.9948,S,07701.4540,W,2,06,1.7,145.1,M,8.4,M,3.0,0000*47,0
1779390365302,$GPGSA,M,3,15,20,12,25,11,05,,,,,,,2.4,1.7,1.7*3F,0
1779390365302,$GPRMC,190540.000,A,1205.9948,S,07701.4540,W,0.00,300.95,210526,,,D*6E,0
1779390365303,$GPGGA,190541.000,1205.9948,S,07701.4540,W,2,06,1.7,145.1,M,8.4,M,4.0,0000*41,0
1779390365304,$GPGSA,M,3,15,20,12,25,11,05,,,,,,,2.4,1.7,1.7*3F,0
1779390365304,$GPRMC,190541.000,A,1205.9948,S,07701.4540,W,0.00,300.95,210526,,,D*6F,0
1779390365305,$GPGGA,190542.000,1205.9948,S,07701.4540,W,2,06,1.7,145.1,M,8.4,M,2.0,0000*44,0
1779390365306,$GPGSA,M,3,15,20,12,25,11,05,,,,,,,2.4,1.7,1.7*3F,0
1779390365306,$GPRMC,190542.000,A,1205.9948,S,07701.4540,W,0.00,300.95,210526,,,D*6C,0
1779390365307,$GPGGA,190543.000,1205.9948,S,07701.4540,W,2,06,1.7,145.1,M,8.4,M,2.0,0000*45,0
1779390365308,$GPGSA,M,3,15,20,12,25,11,05,,,,,,,2.4,1.7,1.7*3F,0
1779390365308,$GPGSV,3,1,12,15,72,316,45,20,55,022,44,12,48,229,41,25,25,268,33*71,0
1779390365309,$GPGSV,3,2,12,11,18,052,41,05,12,358,27,06,09,090,17,13,43,040,38*77,0
1779390365310,$GPGSV,3,3,12,19,22,136,41,24,43,182,42,48,33,280,40,26,22,041,*7C,0
1779390365310,$GPRMC,190543.000,A,1205.9948,S,07701.4540,W,0.00,300.95,210526,,,D*6D,0
1779390365311,$GPGGA,190544.000,1205.9948,S,07701.4540,W,2,06,1.7,145.1,M,8.4,M,2.0,0000*42,0
1779390365312,$GPGSA,M,3,15,20,12,25,11,05,,,,,,,2.4,1.7,1.7*3F,0
1779390365312,$GPRMC,190544.000,A,1205.9948,S,07701.4540,W,0.00,300.95,210526,,,D*6A,0
1779390365313,$GPGGA,190545.000,1205.9948,S,07701.4540,W,2,06,1.7,145.1,M,8.4,M,2.0,0000*43,0
1779390365314,$GPGSA,M,3,15,20,12,25,11,05,,,,,,,2.4,1.7,1.7*3F,0
1779390365314,$GPRMC,190545.000,A,1205.9948,S,07701.4540,W,0.00,300.95,210526,,,D*6B,0
1779390365315,$GPGGA,190546.000,1205.9948,S,07701.4540,W,2,06,1.7,145.1,M,8.4,M,2.0,0000*40,0
1779390365316,$GPGSA,M,3,15,20,12,25,11,05,,,,,,,2.4,1.7,1.7*3F,0
1779390365316,$GPRMC,190546.000,A,1205.9948,S,07701.4540,W,0.00,300.95,210526,,,D*68,0
1779390365317,$GPGGA,190547.000,1205.9948,S,07701.4540,W,2,06,1.7,145.0,M,8.4,M,3.0,0000*41,0
1779390365318,$GPGSA,M,3,15,20,12,25,11,05,,,,,,,2.4,1.7,1.7*3F,0
1779390365318,$GPRMC,190547.000,A,1205.9948,S,07701.4540,W,0.03,300.95,210526,,,D*6A,0
1779390365319,$GPGGA,190548.000,1205.9948,S,07701.4540,W,2,07,1.5,145.0,M,8.4,M,4.0,0000*4A,0
1779390365319,$GPGSA,M,3,15,20,12,25,11,29,05,,,,,,2.3,1.5,1.7*31,0
1779390365320,$GPGSV,3,1,12,15,72,316,45,20,55,022,43,12,48,229,40,25,25,268,29*7C,0
1779390365321,$GPGSV,3,2,12,11,18,052,40,29,13,332,23,05,12,358,28,06,09,090,17*79,0
1779390365321,$GPGSV,3,3,12,13,43,040,39,19,22,136,41,24,43,182,41,48,33,280,38*7A,0
1779390365321,$GPRMC,190548.000,A,1205.9948,S,07701.4540,W,0.01,300.95,210526,,,D*67,0
1779390365322,$GPGGA,190549.000,1205.9948,S,07701.4540,W,2,07,1.5,144.9,M,8.4,M,2.0,0000*45,0
1779390365322,$GPGSA,M,3,15,20,12,25,11,29,05,,,,,,2.3,1.5,1.7*31,0
1779390365322,$GPRMC,190549.000,A,1205.9948,S,07701.4540,W,0.00,300.95,210526,,,D*67,0
1779390365322,$GPGGA,190550.000,1205.9948,S,07701.4540,W,2,07,1.5,144.9,M,8.4,M,2.0,0000*4D,0
1779390365322,$GPGSA,M,3,15,20,12,25,11,29,05,,,,,,2.3,1.5,1.7*31,0
1779390365322,$GPRMC,190550.000,A,1205.9948,S,07701.4540,W,0.00,300.95,210526,,,D*6F,0
1779390365322,$GPGGA,190551.000,1205.9948,S,07701.4540,W,2,07,1.5,144.9,M,8.4,M,2.0,0000*4C,0
1779390365323,$GPGSA,M,3,15,20,12,25,11,29,05,,,,,,2.3,1.5,1.7*31,0
1779390365323,$GPRMC,190551.000,A,1205.9948,S,07701.4540,W,0.00,300.95,210526,,,D*6E,0
1779390365323,$GPGGA,190552.000,1205.9948,S,07701.4540,W,2,07,1.5,144.9,M,8.4,M,2.0,0000*4F,0
1779390365323,$GPGSA,M,3,15,20,12,25,11,29,05,,,,,,2.3,1.5,1.7*31,0
1779390365323,$GPRMC,190552.000,A,1205.9948,S,07701.4540,W,0.00,300.95,210526,,,D*6D,0
1779390365323,$GPGGA,190553.000,1205.9948,S,07701.4540,W,2,07,1.5,144.9,M,8.4,M,3.0,0000*4F,0
1779390365323,$GPGSA,M,3,15,20,12,25,11,29,05,,,,,,2.3,1.5,1.7*31,0
1779390365323,$GPGSV,3,1,12,15,72,316,44,20,55,022,44,12,48,229,39,25,25,268,21*7C,0
1779390365324,$GPGSV,3,2,12,11,18,052,40,29,13,332,28,05,12,358,28,06,09,090,16*73,0
1779390365324,$GPGSV,3,3,12,13,43,040,38,19,22,136,40,24,43,182,42,48,33,280,39*78,0
1779390365324,$GPRMC,190553.000,A,1205.9948,S,07701.4540,W,0.00,300.95,210526,,,D*6C,0
1779390365324,$GPGGA,190554.000,1205.9948,S,07701.4540,W,2,07,1.5,144.9,M,8.4,M,4.0,0000*4F,0
1779390365324,$GPGSA,M,3,15,20,12,25,11,29,05,,,,,,2.3,1.5,1.7*31,0
1779390365324,$GPRMC,190554.000,A,1205.9948,S,07701.4540,W,0.00,300.95,210526,,,D*6B,0
1779390365324,$GPGGA,190555.000,1205.9948,S,07701.4540,W,2,07,1.5,144.9,M,8.4,M,2.0,0000*48,0
1779390365324,$GPGSA,M,3,15,20,12,25,11,29,05,,,,,,2.3,1.5,1.7*31,0
1779390365325,$GPRMC,190555.000,A,1205.9948,S,07701.4540,W,0.00,300.95,210526,,,D*6A,0
1779390365325,$GPGGA,190556.000,1205.9948,S,07701.4540,W,2,07,1.5,144.9,M,8.4,M,2.0,0000*4B,0
1779390365325,$GPGSA,M,3,15,20,12,25,11,29,05,,,,,,2.3,1.5,1.7*31,0
1779390365325,$GPRMC,190556.000,A,1205.9948,S,07701.4540,W,0.00,300.95,210526,,,D*69,0
1779390365325,$GPGGA,190557.000,1205.9948,S,07701.4540,W,2,07,1.5,144.9,M,8.4,M,2.0,0000*4A,0
1779390365325,$GPGSA,M,3,15,20,12,25,11,29,05,,,,,,2.3,1.5,1.7*31,0
1779390365325,$GPRMC,190557.000,A,1205.9948,S,07701.4540,W,0.00,300.95,210526,,,D*68,0
1779390365325,$GPGGA,190558.000,1205.9948,S,07701.4540,W,2,07,1.5,144.9,M,8.4,M,3.0,0000*44,0
1779390365326,$GPGSA,M,3,15,20,12,25,11,29,05,,,,,,2.3,1.5,1.7*31,0
1779390365326,$GPGSV,3,1,12,15,72,316,45,20,55,022,44,12,48,229,38,25,25,268,23*7E,0
1779390365326,$GPGSV,3,2,12,11,18,052,41,29,13,332,29,05,12,358,29,06,09,090,18*7C,0
1779390365326,$GPGSV,3,3,12,13,43,040,38,19,22,136,40,24,43,182,42,48,33,280,40*76,0
1779390365326,$GPRMC,190558.000,A,1205.9948,S,07701.4540,W,0.00,300.95,210526,,,D*67,0
1779390365326,$GPGGA,190559.000,1205.9949,S,07701.4540,W,2,07,1.5,144.9,M,8.4,M,2.0,0000*45,0
1779390365326,$GPGSA,M,3,15,20,12,25,11,29,05,,,,,,2.3,1.5,1.7*31,0
1779390365326,$GPRMC,190559.000,A,1205.9949,S,07701.4540,W,0.00,300.95,210526,,,D*67,0
1779390365327,$GPGGA,190600.000,1205.9949,S,07701.4540,W,2,07,1.5,144.9,M,8.4,M,2.0,0000*4A,0
1779390365327,$GPGSA,M,3,15,20,12,25,11,29,05,,,,,,2.3,1.5,1.7*31,0
1779390365327,$GPRMC,190600.000,A,1205.9949,S,07701.4540,W,0.00,300.95,210526,,,D*68,0
1779390365327,$GPGGA,190601.000,1205.9949,S,07701.4540,W,2,07,1.5,144.9,M,8.4,M,2.0,0000*4B,0
1779390365327,$GPGSA,M,3,15,20,12,25,11,29,05,,,,,,2.3,1.5,1.7*31,0
1779390365327,$GPRMC,190601.000,A,1205.9949,S,07701.4540,W,0.00,300.95,210526,,,D*69,0
1779390365327,$GPGGA,190602.000,1205.9949,S,07701.4540,W,2,07,1.5,144.9,M,8.4,M,2.0,0000*48,0
1779390365328,$GPGSA,M,3,15,20,12,25,11,29,05,,,,,,2.3,1.5,1.7*31,0
1779390365328,$GPRMC,190602.000,A,1205.9949,S,07701.4540,W,0.00,300.95,210526,,,D*6A,0
1779390365328,$GPGGA,190603.000,1205.9949,S,07701.4540,W,2,07,1.5,144.9,M,8.4,M,2.0,0000*49,0
1779390365328,$GPGSA,M,3,15,20,12,25,11,29,05,,,,,,2.3,1.5,1.7*31,0
1779390365328,$GPGSV,3,1,12,15,72,316,45,20,55,022,44,12,48,229,39,25,25,268,24*78,0
1779390365328,$GPGSV,3,2,12,11,18,052,41,29,13,332,28,05,12,358,29,06,09,090,21*77,0
1779390365328,$GPGSV,3,3,12,13,43,040,38,19,22,136,41,24,43,182,43,48,33,280,40*76,0
1779390365328,$GPRMC,190603.000,A,1205.9949,S,07701.4540,W,0.00,300.95,210526,,,D*6B,0
1779390365329,$GPGGA,190604.000,1205.9949,S,07701.4540,W,2,07,1.5,144.9,M,8.4,M,3.0,0000*4F,0
1779390365329,$GPGSA,M,3,15,20,12,25,11,29,05,,,,,,2.3,1.5,1.7*31,0
1779390365329,$GPRMC,190604.000,A,1205.9949,S,07701.4540,W,0.00,300.95,210526,,,D*6C,0
1779390365346,$GPGGA,190605.000,1205.9949,S,07701.4540,W,2,07,1.5,144.9,M,8.4,M,4.0,0000*49,0
1779390365468,$GPGSA,M,3,15,20,12,25,11,29,05,,,,,,2.3,1.5,1.7*31,0
1779390365633,$GPRMC,190605.000,A,1205.9949,S,07701.4540,W,0.00,300.95,210526,,,D*6D,0
1779390366341,$GPGGA,190606.000,1205.9950,S,07701.4539,W,2,07,1.5,144.8,M,8.4,M,5.0,0000*4C,0
1779390366463,$GPGSA,M,3,15,20,12,25,11,29,05,,,,,,2.3,1.5,1.7*31,0
1779390366628,$GPRMC,190606.000,A,1205.9950,S,07701.4539,W,0.05,300.95,210526,,,D*6D,0
1779390367346,$GPGGA,190607.000,1205.9950,S,07701.4539,W,2,07,1.5,144.8,M,8.4,M,2.0,0000*4A,0
1779390367467,$GPGSA,M,3,15,20,12,25,11,29,05,,,,,,2.3,1.5,1.7*31,0
1779390367632,$GPRMC,190607.000,A,1205.9950,S,07701.4539,W,0.00,300.95,210526,,,D*69,0
1779390368346,$GPGGA,190608.000,1205.9950,S,07701.4539,W,2,07,1.5,144.8,M,8.4,M,2.0,0000*45,0
1779390368467,$GPGSA,M,3,15,20,12,25,11,29,05,,,,,,2.3,1.5,1.7*31,0
1779390368628,$GPGSV,3,1,12,15,72,316,46,20,55,022,44,12,48,229,40,25,25,268,25*74,0
1779390368788,$GPGSV,3,2,12,11,18,052,41,29,13,332,28,05,12,358,21,06,09,090,22*7C,0
1779390368948,$GPGSV,3,3,12,13,43,040,40,19,22,136,41,24,43,182,43,48,33,280,39*77,0
1779390369114,$GPRMC,190608.000,A,1205.9950,S,07701.4539,W,0.00,300.95,210526,,,D*66,0
1779390369347,$GPGGA,190609.000,1205.9950,S,07701.4539,W,2,07,1.5,144.8,M,8.4,M,2.0,0000*44,0
1779390369468,$GPGSA,M,3,15,20,12,25,11,29,05,,,,,,2.3,1.5,1.7*31,0
1779390369633,$GPRMC,190609.000,A,1205.9950,S,07701.4539,W,0.00,300.95,210526,,,D*67,0
1779390370346,$GPGGA,190610.000,1205.9950,S,07701.4539,W,2,07,1.5,144.8,M,8.4,M,3.0,0000*4D,0
1779390370467,$GPGSA,M,3,15,20,12,25,11,29,05,,,,,,2.3,1.5,1.7*31,0
1779390370632,$GPRMC,190610.000,A,1205.9950,S,07701.4539,W,0.00,300.95,210526,,,D*6F,0
1779390371340,$GPGGA,190611.000,1205.9950,S,07701.4539,W,2,07,1.5,144.8,M,8.4,M,4.0,0000*4B,0
1779390371462,$GPGSA,M,3,15,20,12,25,11,29,05,,,,,,2.3,1.5,1.7*31,0
1779390371627,$GPRMC,190611.000,A,1205.9950,S,07701.4539,W,0.00,300.95,210526,,,D*6E,0
1779390372342,$GPGGA,190612.000,1205.9951,S,07701.4538,W,2,07,1.5,144.7,M,8.4,M,5.0,0000*46,0
1779390372463,$GPGSA,M,3,15,20,12,25,11,29,05,,,,,,2.3,1.5,1.7*31,0
1779390372628,$GPRMC,190612.000,A,1205.9951,S,07701.4538,W,0.16,300.95,210526,,,D*6A,0
1779390373348,$GPGGA,190613.000,1205.9951,S,07701.4538,W,2,07,1.5,144.7,M,8.4,M,2.0,0000*40,0
1779390373469,$GPGSA,M,3,15,20,12,25,11,29,05,,,,,,2.3,1.5,1.7*31,0
1779390373629,$GPGSV,3,1,12,15,72,316,46,20,55,022,44,12,48,229,40,25,25,268,33*73,0
1779390373790,$GPGSV,3,2,12,11,18,052,41,29,13,332,32,05,12,358,28,06,09,090,22*7E,0
1779390373950,$GPGSV,3,3,12,13,43,040,40,19,22,136,41,24,43,182,43,48,33,280,39*77,0
1779390374115,$GPRMC,190613.000,A,1205.9951,S,07701.4538,W,0.05,300.95,210526,,,D*69,0
1779390374346,$GPGGA,190614.000,1205.9951,S,07701.4539,W,2,07,1.5,144.6,M,8.4,M,2.0,0000*47,1
1779390374467,$GPGSA,M,3,15,20,12,25,11,29,05,,,,,,2.3,1.5,1.7*31,1
1779390374632,$GPRMC,190614.000,A,1205.9951,S,07701.4539,W,0.88,300.95,210526,,,D*6A,1
1779390375346,$GPGGA,190615.000,1205.9948,S,07701.4547,W,2,07,1.5,144.2,M,8.4,M,2.0,0000*43,1
1779390375467,$GPGSA,M,3,15,20,12,25,11,29,05,,,,,,2.3,1.5,1.7*31,1
1779390375632,$GPRMC,190615.000,A,1205.9948,S,07701.4547,W,3.30,298.33,210526,,,D*66,1
1779390376342,$GPGGA,190616.000,1205.9941,S,07701.4560,W,2,07,1.5,144.0,M,8.4,M,3.0,0000*4F,1
1779390376464,$GPGSA,M,3,15,20,12,25,11,29,05,,,,,,2.3,1.5,1.7*31,1
1779390376629,$GPRMC,190616.000,A,1205.9941,S,07701.4560,W,5.66,300.67,210526,,,D*6D,1
1779390377342,$GPGGA,190617.000,1205.9931,S,07701.4578,W,2,07,1.5,143.8,M,8.4,M,4.0,0000*48,1
1779390377464,$GPGSA,M,3,15,20,12,25,11,29,05,,,,,,2.3,1.5,1.7*31,1
1779390377629,$GPRMC,190617.000,A,1205.9931,S,07701.4578,W,7.61,300.46,210526,,,D*64,1
1779390378342,$GPGGA,190618.000,1205.9920,S,07701.4598,W,2,07,1.5,143.6,M,8.4,M,5.0,0000*46,1
1779390378463,$GPGSA,M,3,15,20,12,25,11,29,05,,,,,,2.3,1.5,1.7*31,1
1779390378624,$GPGSV,3,1,12,15,72,316,42,20,55,022,42,12,48,229,41,25,25,268,36*75,1
1779390378784,$GPGSV,3,2,12,11,18,052,30,29,13,332,32,05,12,358,27,06,09,090,21*74,1
1779390378944,$GPGSV,3,3,12,13,43,040,41,19,22,136,35,24,43,182,42,48,33,280,39*74,1
1779390379109,$GPRMC,190618.000,A,1205.9920,S,07701.4598,W,7.77,298.69,210526,,,D*6F,1
1779390379340,$GPGGA,190619.000,1205.9910,S,07701.4619,W,2,07,1.5,143.4,M,8.4,M,6.0,0000*4F,1
1779390379461,$GPGSA,M,3,15,20,12,25,11,29,05,,,,,,2.3,1.5,1.7*31,1
1779390379626,$GPRMC,190619.000,A,1205.9910,S,07701.4619,W,7.58,298.27,210526,,,D*60,1
1779390380349,$GPGGA,190620.000,1205.9898,S,07701.4641,W,2,07,1.5,143.2,M,8.4,M,2.0,0000*4B,1
1779390380470,$GPGSA,M,3,15,20,12,25,11,29,05,,,,,,2.3,1.5,1.7*31,1
1779390380635,$GPRMC,190620.000,A,1205.9898,S,07701.4641,W,8.56,296.70,210526,,,D*6B,1
1779390381342,$GPGGA,190621.000,1205.9887,S,07701.4664,W,2,07,1.5,143.4,M,8.4,M,3.0,0000*44,1
1779390381463,$GPGSA,M,3,15,20,12,25,11,29,05,,,,,,2.3,1.5,1.7*31,1
1779390381628,$GPRMC,190621.000,A,1205.9887,S,07701.4664,W,8.91,297.16,210526,,,D*69,1
1779390382341,$GPGGA,190622.000,1205.9875,S,07701.4687,W,2,07,1.5,143.2,M,8.4,M,4.0,0000*46,1
1779390382462,$GPGSA,M,3,15,20,12,25,11,29,05,,,,,,2.3,1.5,1.7*31,1
1779390382627,$GPRMC,190622.000,A,1205.9875,S,07701.4687,W,9.52,297.48,210526,,,D*6F,1
1779390383338,$GPGGA,190623.000,1205.9859,S,07701.4715,W,2,07,1.5,143.0,M,8.4,M,5.0,0000*40,1
1779390383460,$GPGSA,M,3,15,20,12,25,11,29,05,,,,,,2.3,1.5,1.7*31,1
1779390383620,$GPGSV,3,1,12,15,72,316,43,20,55,022,41,12,48,229,36,25,25,268,28*78,1
1779390383781,$GPGSV,3,2,12,11,18,052,37,29,13,332,38,05,12,358,19,06,09,090,35*71,1
1779390383941,$GPGSV,3,3,12,13,43,040,37,19,22,136,40,24,43,182,36,48,33,280,35*78,1
1779390384108,$GPRMC,190623.000,A,1205.9859,S,07701.4715,W,10.80,298.63,210526,,,D*5B,1
1779390384340,$GPGGA,190624.000,1205.9842,S,07701.4745,W,2,07,1.5,143.7,M,8.4,M,6.0,0000*4C,1
1779390384461,$GPGSA,M,3,15,20,12,25,11,29,05,,,,,,2.3,1.5,1.7*31,1
1779390384629,$GPRMC,190624.000,A,1205.9842,S,07701.4745,W,11.04,298.31,210526,,,D*59,1
1779390385341,$GPGGA,190625.000,1205.9828,S,07701.4774,W,2,07,1.5,144.0,M,8.4,M,7.0,0000*42,1
1779390385463,$GPGSA,M,3,15,20,12,25,11,29,05,,,,,,2.3,1.5,1.7*31,1
1779390385630,$GPRMC,190625.000,A,1205.9828,S,07701.4774,W,10.95,297.29,210526,,,D*59,1
1779390386340,$GPGGA,190626.000,1205.9812,S,07701.4803,W,2,07,1.5,144.1,M,8.4,M,8.0,0000*49,1
1779390386461,$GPGSA,M,3,15,20,12,25,11,29,05,,,,,,2.3,1.5,1.7*31,1
1779390386628,$GPRMC,190626.000,A,1205.9812,S,07701.4803,W,11.42,297.29,210526,,,D*57,1
1779390387338,$GPGGA,190627.000,1205.9797,S,07701.4832,W,2,07,1.5,144.2,M,8.4,M,9.0,0000*4A,1
1779390387459,$GPGSA,M,3,15,20,12,25,11,29,05,,,,,,2.3,1.5,1.7*31,1
1779390387627,$GPRMC,190627.000,A,1205.9797,S,07701.4832,W,11.35,296.98,210526,,,D*5D,1
1779390388343,$GPGGA,190628.000,1205.9781,S,07701.4863,W,2,07,1.5,144.5,M,8.4,M,10.0,0000*79,1
1779390388464,$GPGSA,M,3,15,20,12,25,11,29,05,,,,,,2.3,1.5,1.7*31,1
1779390388625,$GPGSV,3,1,12,15,72,316,43,20,55,022,41,12,48,229,36,25,25,268,33*72,1
1779390388785,$GPGSV,3,2,12,11,18,052,37,29,13,332,22,05,12,358,17,06,09,090,30*71,1
1779390388945,$GPGSV,3,3,12,13,43,040,30,19,22,136,31,24,43,182,34,48,33,280,38*76,1
1779390389113,$GPRMC,190628.000,A,1205.9781,S,07701.4863,W,11.43,298.63,210526,,,D*5A,1
1779390389344,$GPGGA,190629.000,1205.9767,S,07701.4891,W,2,07,1.5,144.6,M,8.4,M,11.0,0000*7F,1
1779390389465,$GPGSA,M,3,15,20,12,25,11,29,05,,,,,,2.3,1.5,1.7*31,1
1779390389633,$GPRMC,190629.000,A,1205.9767,S,07701.4891,W,11.08,297.09,210526,,,D*52,1
1779390390347,$GPGGA,190630.000,1205.9755,S,07701.4919,W,2,07,1.5,145.0,M,8.4,M,2.0,0000*42,1
1779390390469,$GPGSA,M,3,15,20,12,25,11,29,05,,,,,,2.3,1.5,1.7*31,1
1779390390636,$GPRMC,190630.000,A,1205.9755,S,07701.4919,W,11.02,295.04,210526,,,D*5F,1
1779390391341,$GPGGA,190631.000,1205.9746,S,07701.4943,W,2,07,1.5,145.4,M,8.4,M,3.0,0000*4B,1
1779390391462,$GPGSA,M,3,15,20,12,25,11,29,05,,,,,,2.3,1.5,1.7*31,1
1779390391630,$GPRMC,190631.000,A,1205.9746,S,07701.4943,W,10.65,295.41,210526,,,D*52,1
1779390392347,$GPGGA,190632.000,1205.9735,S,07701.4967,W,2,07,1.5,145.5,M,8.4,M,2.0,0000*4A,1
1779390392468,$GPGSA,M,3,15,20,12,25,11,29,05,,,,,,2.3,1.5,1.7*31,1
1779390392633,$GPRMC,190632.000,A,1205.9735,S,07701.4967,W,9.83,296.00,210526,,,D*65,1
1779390393342,$GPGGA,190633.000,1205.9725,S,07701.4990,W,2,07,1.5,145.4,M,8.4,M,3.0,0000*42,1
1779390393464,$GPGSA,M,3,15,20,12,25,11,29,05,,,,,,2.3,1.5,1.7*31,1
1779390393624,$GPGSV,3,1,12,15,72,316,43,20,55,022,39,12,48,229,38,25,25,268,21*70,1
1779390393784,$GPGSV,3,2,12,11,18,052,22,29,13,332,36,05,12,358,22,06,09,090,20*77,1
1779390393945,$GPGSV,3,3,12,13,43,040,36,19,22,136,30,24,43,182,38,48,33,280,40*72,1
1779390394110,$GPRMC,190633.000,A,1205.9725,S,07701.4990,W,8.22,293.72,210526,,,D*67,1
1779390394346,$GPGGA,190634.000,1205.9718,S,07701.5009,W,2,07,1.5,145.4,M,8.4,M,4.0,0000*44,1
1779390394467,$GPGSA,M,3,15,20,12,25,11,29,05,,,,,,2.3,1.5,1.7*31,1
1779390394632,$GPRMC,190634.000,A,1205.9718,S,07701.5009,W,7.15,289.03,210526,,,D*60,1
1779390395343,$GPGGA,190635.000,1205.9715,S,07701.5031,W,2,07,1.5,145.0,M,8.4,M,5.0,0000*46,1
1779390395465,$GPGSA,M,3,15,20,12,25,11,29,05,,,,,,2.3,1.5,1.7*31,1
1779390395630,$GPRMC,190635.000,A,1205.9715,S,07701.5031,W,7.11,278.70,210526,,,D*69,1
1779390396342,$GPGGA,190636.000,1205.9717,S,07701.5050,W,2,07,1.5,145.4,M,8.4,M,6.0,0000*47,1
1779390396464,$GPGSA,M,3,15,20,12,25,11,29,05,,,,,,2.3,1.5,1.7*31,1
1779390396629,$GPRMC,190636.000,A,1205.9717,S,07701.5050,W,7.02,272.72,210526,,,D*65,1
1779390397343,$GPGGA,190637.000,1205.9730,S,07701.5063,W,2,07,1.5,144.9,M,8.4,M,7.0,0000*4E,1
1779390397464,$GPGSA,M,3,15,20,12,25,11,29,05,,,,,,2.3,1.5,1.7*31,1
1779390397629,$GPRMC,190637.000,A,1205.9730,S,07701.5063,W,6.30,260.92,210526,,,D*6C,1
1779390398342,$GPGGA,190638.000,1205.9745,S,07701.5074,W,2,07,1.5,144.4,M,8.4,M,8.0,0000*47,1
1779390398463,$GPGSA,M,3,15,20,12,25,11,29,05,,,,,,2.3,1.5,1.7*31,1
1779390398624,$GPGSV,3,1,12,15,72,316,43,20,55,022,38,12,48,229,44,25,25,268,21*7A,1
1779390398785,$GPGSV,3,2,12,11,18,052,24,29,13,332,28,05,12,358,33,06,09,090,29*77,1
1779390398945,$GPGSV,3,3,12,13,43,040,43,19,22,136,35,24,43,182,36,48,33,280,38*74,1
1779390399110,$GPRMC,190638.000,A,1205.9745,S,07701.5074,W,5.95,246.84,210526,,,D*68,1
1779390399346,$GPGGA,190639.000,1205.9759,S,07701.5080,W,2,07,1.5,144.3,M,8.4,M,2.0,0000*4D,1
1779390399467,$GPGSA,M,3,15,20,12,25,11,29,05,,,,,,2.3,1.5,1.7*31,1
1779390399632,$GPRMC,190639.000,A,1205.9759,S,07701.5080,W,4.74,237.01,210526,,,D*6A,1
1779390400345,$GPGGA,190640.000,1205.9770,S,07701.5083,W,2,07,1.5,144.3,M,8.4,M,3.0,0000*4A,1
1779390400466,$GPGSA,M,3,15,20,12,25,11,29,05,,,,,,2.3,1.5,1.7*31,1
1779390400631,$GPRMC,190640.000,A,1205.9770,S,07701.5083,W,3.99,231.16,210526,,,D*68,1
1779390401342,$GPGGA,190641.000,1205.9783,S,07701.5073,W,2,07,1.5,143.9,M,8.4,M,4.0,0000*42,1
1779390401463,$GPGSA,M,3,15,20,12,25,11,29,05,,,,,,2.3,1.5,1.7*31,1
1779390401628,$GPRMC,190641.000,A,1205.9783,S,07701.5073,W,3.03,221.70,210526,,,D*68,1
1779390402343,$GPGGA,190642.000,1205.9797,S,07701.5046,W,2,07,1.5,143.6,M,8.4,M,5.0,0000*4C,1
1779390402464,$GPGSA,M,3,15,20,12,25,11,29,05,,,,,,2.3,1.5,1.7*31,1
1779390402629,$GPRMC,190642.000,A,1205.9797,S,07701.5046,W,4.30,180.16,210526,,,D*67,1
1779390403346,$GPGGA,190643.000,1205.9814,S,07701.5007,W,2,07,1.5,143.3,M,8.4,M,2.0,0000*4E,1
1779390403467,$GPGSA,M,3,15,20,12,25,11,29,05,,,,,,2.3,1.5,1.7*31,1
1779390403628,$GPGSV,3,1,12,15,72,316,43,20,55,022,41,12,48,229,43,25,25,268,32*71,1
1779390403788,$GPGSV,3,2,12,11,18,052,34,29,13,332,34,05,12,358,23,06,09,090,29*7A,1
1779390403949,$GPGSV,3,3,12,13,43,040,42,19,22,136,43,24,43,182,42,48,33,280,41*79,1
1779390404114,$GPRMC,190643.000,A,1205.9814,S,07701.5007,W,7.58,129.16,210526,,,D*69,1
1779390404347,$GPGGA,190644.000,1205.9833,S,07701.4962,W,2,07,1.5,143.1,M,8.4,M,2.0,0000*45,1
1779390404468,$GPGSA,M,3,15,20,12,25,11,29,05,,,,,,2.3,1.5,1.7*31,1
1779390404636,$GPRMC,190644.000,A,1205.9833,S,07701.4962,W,10.54,114.38,210526,,,D*58,1
1779390405347,$GPGGA,190645.000,1205.9849,S,07701.4925,W,2,07,1.5,142.8,M,8.4,M,2.0,0000*42,1
1779390405469,$GPGSA,M,3,15,20,12,25,11,29,05,,,,,,2.3,1.5,1.7*31,1
1779390405636,$GPRMC,190645.000,A,1205.9849,S,07701.4925,W,11.48,114.41,210526,,,D*55,1
1779390406346,$GPGGA,190646.000,1205.9864,S,07701.4889,W,2,07,1.5,142.7,M,8.4,M,2.0,0000*46,1
1779390406467,$GPGSA,M,3,15,20,12,25,11,29,05,,,,,,2.3,1.5,1.7*31,1
1779390406635,$GPRMC,190646.000,A,1205.9864,S,07701.4889,W,11.98,112.95,210526,,,D*5C,1
1779390407341,$GPGGA,190647.000,1205.9881,S,07701.4849,W,2,07,1.5,142.2,M,8.4,M,3.0,0000*44,1
1779390407462,$GPGSA,M,3,15,20,12,25,11,29,05,,,,,,2.3,1.5,1.7*31,1
1779390407629,$GPRMC,190647.000,A,1205.9881,S,07701.4849,W,11.95,113.11,210526,,,D*5A,1
1779390408348,$GPGGA,190648.000,1205.9895,S,07701.4814,W,2,07,1.5,141.8,M,8.4,M,4.0,0000*48,1
1779390408470,$GPGSA,M,3,15,20,12,25,11,29,05,,,,,,2.3,1.5,1.7*31,1
1779390408630,$GPGSV,3,1,12,15,72,316,44,20,55,022,38,12,48,229,43,25,25,268,37*7D,1
1779390408791,$GPGSV,3,2,12,11,18,052,36,29,13,332,28,05,12,358,16,06,09,090,25*7F,1
1779390408951,$GPGSV,3,3,12,13,43,040,42,19,22,136,43,24,43,182,42,48,33,280,42*7A,1
1779390409118,$GPRMC,190648.000,A,1205.9895,S,07701.4814,W,11.27,114.00,210526,,,D*56,1
1779390409343,$GPGGA,190649.000,1205.9907,S,07701.4787,W,2,07,1.5,141.8,M,8.4,M,5.0,0000*47,1
1779390409465,$GPGSA,M,3,15,20,12,25,11,29,05,,,,,,2.3,1.5,1.7*31,1
1779390409630,$GPRMC,190649.000,A,1205.9907,S,07701.4787,W,9.02,115.14,210526,,,D*62,1
1779390410342,$GPGGA,190650.000,1205.9915,S,07701.4767,W,2,07,1.5,141.9,M,8.4,M,6.0,0000*40,1
1779390410463,$GPGSA,M,3,15,20,12,25,11,29,05,,,,,,2.3,1.5,1.7*31,1
1779390410628,$GPRMC,190650.000,A,1205.9915,S,07701.4767,W,7.26,110.84,210526,,,D*63,1
1779390411325,$GPGGA,190651.000,1205.9922,S,07701.4748,W,1,04,4.3,142.1,M,8.4,M,,0000*68,1
1779390411433,$GPGSA,M,3,15,29,05,06,,,,,,,,,5.5,4.3,3.4*32,1
1779390411598,$GPRMC,190651.000,A,1205.9922,S,07701.4748,W,6.91,109.24,210526,,,A*61,1
1779390412341,$GPGGA,190652.000,1205.9927,S,07701.4726,W,2,07,1.5,142.5,M,8.4,M,8.0,0000*47,1
1779390412462,$GPGSA,M,3,15,20,12,25,11,29,05,,,,,,2.3,1.5,1.7*31,1
1779390412627,$GPRMC,190652.000,A,1205.9927,S,07701.4726,W,7.10,104.72,210526,,,D*6C,1
1779390413347,$GPGGA,190653.000,1205.9919,S,07701.4709,W,2,07,1.5,143.2,M,8.4,M,2.0,0000*4A,1
1779390413469,$GPGSA,M,3,15,20,12,25,11,29,05,,,,,,2.3,1.5,1.7*31,1
1779390413629,$GPGSV,3,1,12,15,72,316,43,20,55,022,39,12,48,229,44,25,25,268,43*7F,1
1779390413790,$GPGSV,3,2,12,11,18,052,38,29,13,332,38,05,12,358,25,06,09,090,22*77,1
1779390413950,$GPGSV,3,3,12,13,43,040,42,19,22,136,40,24,43,182,41,48,33,280,40*78,1
1779390414113,$GPRMC,190653.000,A,1205.9919,S,07701.4709,W,6.52,96.48,210526,,,D*59,1
1779390414348,$GPGGA,190654.000,1205.9898,S,07701.4702,W,2,07,1.5,143.1,M,8.4,M,3.0,0000*4C,1
1779390414470,$GPGSA,M,3,15,20,12,25,11,29,05,,,,,,2.3,1.5,1.7*31,1
1779390414632,$GPRMC,190654.000,A,1205.9898,S,07701.4702,W,5.37,75.26,210526,,,D*58,1
1779390415343,$GPGGA,190655.000,1205.9875,S,07701.4700,W,2,07,1.5,143.6,M,8.4,M,4.0,0000*4C,1
1779390415464,$GPGSA,M,3,15,20,12,25,11,29,05,,,,,,2.3,1.5,1.7*31,1
1779390415627,$GPRMC,190655.000,A,1205.9875,S,07701.4700,W,5.37,48.56,210526,,,D*51,1
1779390416342,$GPGGA,190656.000,1205.9855,S,07701.4708,W,2,07,1.5,144.4,M,8.4,M,5.0,0000*41,1
1779390416463,$GPGSA,M,3,15,20,12,25,11,29,05,,,,,,2.3,1.5,1.7*31,1
1779390416626,$GPRMC,190656.000,A,1205.9855,S,07701.4708,W,4.77,26.98,210526,,,D*57,1
1779390417343,$GPGGA,190657.000,1205.9838,S,07701.4723,W,2,07,1.5,144.3,M,8.4,M,6.0,0000*46,1
1779390417465,$GPGSA,M,3,15,20,12,25,11,29,05,,,,,,2.3,1.5,1.7*31,1
1779390417630,$GPRMC,190657.000,A,1205.9838,S,07701.4723,W,7.73,328.60,210526,,,D*69,1
1779390418343,$GPGGA,190658.000,1205.9826,S,07701.4747,W,2,07,1.5,144.4,M,8.4,M,7.0,0000*42,1
1779390418464,$GPGSA,M,3,15,20,12,25,11,29,05,,,,,,2.3,1.5,1.7*31,1
1779390418625,$GPGSV,3,1,12,15,72,316,42,20,55,022,41,12,48,229,39,25,25,268,30*7F,1
1779390418785,$GPGSV,3,2,12,11,18,052,33,29,13,332,33,05,12,358,17,06,09,090,34*71,1
1779390418946,$GPGSV,3,3,12,13,43,040,36,19,22,136,41,24,43,182,38,48,33,280,30*73,1
1779390419110,$GPRMC,190658.000,A,1205.9826,S,07701.4747,W,8.85,305.36,210526,,,D*61,1
1779390419343,$GPGGA,190659.000,1205.9813,S,07701.4774,W,2,07,1.5,144.8,M,8.4,M,8.0,0000*46,1
1779390419464,$GPGSA,M,3,15,20,12,25,11,29,05,,,,,,2.3,1.5,1.7*31,1
1779390419629,$GPRMC,190659.000,A,1205.9813,S,07701.4774,W,9.34,296.18,210526,,,D*6A,1
1779390420343,$GPGGA,190700.000,1205.9799,S,07701.4803,W,2,07,1.5,145.3,M,8.4,M,9.0,0000*42,1
1779390420464,$GPGSA,M,3,15,20,12,25,11,29,05,,,,,,2.3,1.5,1.7*31,1
1779390420632,$GPRMC,190700.000,A,1205.9799,S,07701.4803,W,10.06,295.95,210526,,,D*5A,1
1779390421345,$GPGGA,190701.000,1205.9785,S,07701.4829,W,2,07,1.5,145.4,M,8.4,M,10.0,0000*79,1
1779390421466,$GPGSA,M,3,15,20,12,25,11,29,05,,,,,,2.3,1.5,1.7*31,1
1779390421633,$GPRMC,190701.000,A,1205.9785,S,07701.4829,W,10.43,297.48,210526,,,D*5D,1
1779390422344,$GPGGA,190702.000,1205.9769,S,07701.4858,W,2,07,1.5,145.6,M,8.4,M,11.0,0000*7D,1
1779390422466,$GPGSA,M,3,15,20,12,25,11,29,05,,,,,,2.3,1.5,1.7*31,1
1779390422633,$GPRMC,190702.000,A,1205.9769,S,07701.4858,W,11.13,298.91,210526,,,D*55,1
1779390423348,$GPGGA,190703.000,1205.9755,S,07701.4889,W,2,07,1.5,146.4,M,8.4,M,2.0,0000*4C,1
1779390423469,$GPGSA,M,3,15,20,12,25,11,29,05,,,,,,2.3,1.5,1.7*31,1
1779390423629,$GPGSV,3,1,12,15,71,319,43,20,53,021,41,12,48,227,38,25,25,267,34*73,1
1779390423790,$GPGSV,3,2,12,11,18,054,42,29,14,332,23,05,11,359,17,06,09,091,31*71,1
1779390423950,$GPGSV,3,3,12,13,42,039,36,19,21,137,32,24,43,180,37,48,33,280,39*7E,1
1779390424118,$GPRMC,190703.000,A,1205.9755,S,07701.4889,W,10.81,296.22,210526,,,D*5B,1
1779390424344,$GPGGA,190704.000,1205.9742,S,07701.4918,W,2,07,1.5,146.6,M,8.4,M,3.0,0000*47,1
1779390424466,$GPGSA,M,3,15,20,12,25,11,29,05,,,,,,2.3,1.5,1.7*31,1
1779390424633,$GPRMC,190704.000,A,1205.9742,S,07701.4918,W,11.19,294.39,210526,,,D*5B,1
1779390425345,$GPGGA,190705.000,1205.9734,S,07701.4944,W,2,07,1.5,146.9,M,8.4,M,4.0,0000*46,1
1779390425466,$GPGSA,M,3,15,20,12,25,11,29,05,,,,,,2.3,1.5,1.7*31,1
1779390425633,$GPRMC,190705.000,A,1205.9734,S,07701.4944,W,10.76,292.72,210526,,,D*53,1
1779390426346,$GPGGA,190706.000,1205.9723,S,07701.4971,W,2,07,1.5,146.9,M,8.4,M,5.0,0000*44,1
1779390426468,$GPGSA,M,3,15,20,12,25,11,29,05,,,,,,2.3,1.5,1.7*31,1
1779390426635,$GPRMC,190706.000,A,1205.9723,S,07701.4971,W,10.60,294.44,210526,,,D*54,1
1779390427344,$GPGGA,190707.000,1205.9713,S,07701.4995,W,2,07,1.5,147.0,M,8.4,M,6.0,0000*47,1
1779390427465,$GPGSA,M,3,15,20,12,25,11,29,05,,,,,,2.3,1.5,1.7*31,1
1779390427630,$GPRMC,190707.000,A,1205.9713,S,07701.4995,W,9.50,295.69,210526,,,D*69,1
1779390428347,$GPGGA,190708.000,1205.9703,S,07701.5015,W,2,07,1.5,147.1,M,8.4,M,2.0,0000*4C,1
1779390428469,$GPGSA,M,3,15,20,12,25,11,29,05,,,,,,2.3,1.5,1.7*31,1
1779390428629,$GPGSV,3,1,12,15,71,319,43,20,53,021,40,12,48,227,39,25,25,267,23*75,1
1779390428790,$GPGSV,3,2,12,11,18,054,26,29,14,332,40,05,11,359,24,06,09,091,24*72,1
1779390428950,$GPGSV,3,3,12,13,42,039,38,19,21,137,30,24,43,180,38,48,33,280,40*73,1
1779390429115,$GPRMC,190708.000,A,1205.9703,S,07701.5015,W,7.82,295.59,210526,,,D*65,1
1779390429343,$GPGGA,190709.000,1205.9698,S,07701.5033,W,2,07,1.5,147.2,M,8.4,M,3.0,0000*48,1
1779390429465,$GPGSA,M,3,15,20,12,25,11,29,05,,,,,,2.3,1.5,1.7*31,1
1779390429630,$GPRMC,190709.000,A,1205.9698,S,07701.5033,W,6.90,289.47,210526,,,D*63,1
1779390430342,$GPGGA,190710.000,1205.9697,S,07701.5053,W,2,06,1.7,147.3,M,8.4,M,4.0,0000*4C,1
1779390430459,$GPGSA,M,3,15,20,12,25,11,05,,,,,,,2.4,1.7,1.7*3F,1
1779390430624,$GPRMC,190710.000,A,1205.9697,S,07701.5053,W,7.17,281.44,210526,,,D*67,1
1779390431347,$GPGGA,190711.000,1205.9705,S,07701.5071,W,2,06,1.7,146.9,M,8.4,M,2.0,0000*4A,1
1779390431464,$GPGSA,M,3,15,20,12,25,11,05,,,,,,,2.4,1.7,1.7*3F,1
1779390431629,$GPRMC,190711.000,A,1205.9705,S,07701.5071,W,7.26,269.01,210526,,,D*69,1
1779390432342,$GPGGA,190712.000,1205.9719,S,07701.5084,W,2,06,1.7,146.5,M,8.4,M,3.0,0000*43,1
1779390432459,$GPGSA,M,3,15,20,12,25,11,05,,,,,,,2.4,1.7,1.7*3F,1
1779390432624,$GPRMC,190712.000,A,1205.9719,S,07701.5084,W,6.66,254.80,210526,,,D*6F,1
1779390433340,$GPGGA,190713.000,1205.9736,S,07701.5093,W,2,06,1.7,146.5,M,8.4,M,4.0,0000*4E,1
1779390433457,$GPGSA,M,3,15,20,12,25,11,05,,,,,,,2.4,1.7,1.7*3F,1
1779390433617,$GPGSV,3,1,12,15,71,319,43,20,53,021,40,12,48,227,42,25,25,267,22*78,1
1779390433777,$GPGSV,3,2,12,11,18,054,25,05,11,359,34,06,09,091,33,13,42,039,40*74,1
1779390433938,$GPGSV,3,3,12,19,21,137,35,24,43,180,44,29,14,332,31,48,33,280,39*78,1
1779390434103,$GPRMC,190713.000,A,1205.9736,S,07701.5093,W,6.04,240.08,210526,,,D*64,1
1779390434347,$GPGGA,190714.000,1205.9753,S,07701.5091,W,2,06,1.7,146.4,M,8.4,M,2.0,0000*4F,1
1779390434464,$GPGSA,M,3,15,20,12,25,11,05,,,,,,,2.4,1.7,1.7*3F,1
1779390434629,$GPRMC,190714.000,A,1205.9753,S,07701.5091,W,4.81,225.66,210526,,,D*66,1
1779390435347,$GPGGA,190715.000,1205.9766,S,07701.5082,W,2,06,1.7,146.4,M,8.4,M,2.0,0000*4A,1
1779390435464,$GPGSA,M,3,15,20,12,25,11,05,,,,,,,2.4,1.7,1.7*3F,1
1779390435629,$GPRMC,190715.000,A,1205.9766,S,07701.5082,W,4.79,202.67,210526,,,D*60,1
1779390436340,$GPGGA,190716.000,1205.9779,S,07701.5064,W,2,06,1.7,146.0,M,8.4,M,3.0,0000*4A,1
1779390436457,$GPGSA,M,3,15,20,12,25,11,05,,,,,,,2.4,1.7,1.7*3F,1
1779390436622,$GPRMC,190716.000,A,1205.9779,S,07701.5064,W,5.35,171.01,210526,,,D*6B,1
1779390437341,$GPGGA,190717.000,1205.9796,S,07701.5031,W,2,06,1.7,145.7,M,8.4,M,4.0,0000*49,1
1779390437458,$GPGSA,M,3,15,20,12,25,11,05,,,,,,,2.4,1.7,1.7*3F,1
1779390437623,$GPRMC,190717.000,A,1205.9796,S,07701.5031,W,7.74,134.48,210526,,,D*60,1
1779390438346,$GPGGA,190718.000,1205.9815,S,07701.4988,W,2,06,1.7,145.3,M,8.4,M,2.0,0000*4A,1
1779390438463,$GPGSA,M,3,15,20,12,25,11,05,,,,,,,2.4,1.7,1.7*3F,1
1779390438623,$GPGSV,3,1,12,15,71,319,43,20,53,021,40,12,48,227,43,25,25,267,33*79,1
1779390438784,$GPGSV,3,2,12,11,18,054,34,05,11,359,28,06,09,091,27,13,42,039,41*7D,1
1779390438944,$GPGSV,3,3,12,19,21,137,43,24,43,180,42,29,14,332,34,48,33,280,42*76,1
1779390439111,$GPRMC,190718.000,A,1205.9815,S,07701.4988,W,10.41,116.08,210526,,,D*55,1
1779390439349,$GPGGA,190719.000,1205.9830,S,07701.4954,W,2,07,1.5,145.1,M,8.4,M,2.0,0000*4C,1
1779390439471,$GPGSA,M,3,15,20,12,25,11,29,05,,,,,,2.3,1.5,1.7*31,1
1779390439638,$GPRMC,190719.000,A,1205.9830,S,07701.4954,W,10.65,113.95,210526,,,D*55,1
1779390440349,$GPGGA,190720.000,1205.9843,S,07701.4923,W,2,07,1.5,144.8,M,8.4,M,2.0,0000*4A,1
1779390440471,$GPGSA,M,3,15,20,12,25,11,29,05,,,,,,2.3,1.5,1.7*31,1
1779390440638,$GPRMC,190720.000,A,1205.9843,S,07701.4923,W,11.15,115.67,210526,,,D*56,1
1779390441348,$GPGGA,190721.000,1205.9858,S,07701.4890,W,2,07,1.5,144.5,M,8.4,M,2.0,0000*45,1
1779390441470,$GPGSA,M,3,15,20,12,25,11,29,05,,,,,,2.3,1.5,1.7*31,1
1779390441637,$GPRMC,190721.000,A,1205.9858,S,07701.4890,W,11.45,113.74,210526,,,D*55,1
1779390442349,$GPGGA,190722.000,1205.9872,S,07701.4857,W,2,07,1.5,144.0,M,8.4,M,3.0,0000*41,1
1779390442470,$GPGSA,M,3,15,20,12,25,11,29,05,,,,,,2.3,1.5,1.7*31,1
1779390442638,$GPRMC,190722.000,A,1205.9872,S,07701.4857,W,11.37,113.99,210526,,,D*53,1
1779390443349,$GPGGA,190723.000,1205.9885,S,07701.4826,W,2,07,1.5,143.8,M,8.4,M,2.0,0000*40,1
1779390443471,$GPGSA,M,3,15,20,12,25,11,29,05,,,,,,2.3,1.5,1.7*31,1
1779390443631,$GPGSV,3,1,12,15,71,319,44,20,53,021,37,12,48,227,43,25,25,267,38*75,1
1779390443792,$GPGSV,3,2,12,11,18,054,36,29,14,332,29,05,11,359,21,06,09,091,23*7E,1
1779390443952,$GPGSV,3,3,12,13,42,039,42,19,21,137,43,24,43,180,42,48,33,280,42*75,1
1779390444119,$GPRMC,190723.000,A,1205.9885,S,07701.4826,W,10.96,114.89,210526,,,D*50,1
1779390444345,$GPGGA,190724.000,1205.9897,S,07701.4799,W,2,07,1.5,143.4,M,8.4,M,3.0,0000*42,1
1779390444467,$GPGSA,M,3,15,20,12,25,11,29,05,,,,,,2.3,1.5,1.7*31,1
1779390444632,$GPRMC,190724.000,A,1205.9897,S,07701.4799,W,9.82,114.73,210526,,,D*67,1
1779390445351,$GPGGA,190725.000,1205.9907,S,07701.4778,W,2,07,1.5,143.6,M,8.4,M,2.0,0000*47,1
1779390445472,$GPGSA,M,3,15,20,12,25,11,29,05,,,,,,2.3,1.5,1.7*31,1
1779390445637,$GPRMC,190725.000,A,1205.9907,S,07701.4778,W,8.26,112.46,210526,,,D*6E,1
1779390446350,$GPGGA,190726.000,1205.9913,S,07701.4759,W,2,07,1.5,143.6,M,8.4,M,2.0,0000*42,1
1779390446472,$GPGSA,M,3,15,20,12,25,11,29,05,,,,,,2.3,1.5,1.7*31,1
1779390446637,$GPRMC,190726.000,A,1205.9913,S,07701.4759,W,7.31,107.64,210526,,,D*66,1
1779390447355,$GPGGA,190727.000,1205.9912,S,07701.4746,W,2,07,1.5,143.7,M,8.4,M,2.0,0000*4D,1
1779390447476,$GPGSA,M,3,15,20,12,25,11,29,05,,,,,,2.3,1.5,1.7*31,1
1779390447639,$GPRMC,190727.000,A,1205.9912,S,07701.4746,W,6.92,99.86,210526,,,D*5A,1
1779390448349,$GPGGA,190728.000,1205.9905,S,07701.4732,W,2,07,1.5,143.6,M,8.4,M,3.0,0000*47,1
1779390448471,$GPGSA,M,3,15,20,12,25,11,29,05,,,,,,2.3,1.5,1.7*31,1
1779390448631,$GPGSV,3,1,12,15,71,319,44,20,53,021,40,12,48,227,43,25,25,267,44*7E,1
1779390448791,$GPGSV,3,2,12,11,18,054,38,29,14,332,38,05,11,359,24,06,09,091,22*74,1
1779390448952,$GPGSV,3,3,12,13,42,039,42,19,21,137,43,24,43,180,41,48,33,280,42*76,1
1779390449115,$GPRMC,190728.000,A,1205.9905,S,07701.4732,W,6.19,70.91,210526,,,D*52,1
1779390449344,$GPGGA,190729.000,1205.9889,S,07701.4724,W,2,07,1.5,143.9,M,8.4,M,4.0,0000*4C,1
1779390449466,$GPGSA,M,3,15,20,12,25,11,29,05,,,,,,2.3,1.5,1.7*31,1
1779390449628,$GPRMC,190729.000,A,1205.9889,S,07701.4724,W,6.07,33.06,210526,,,D*57,1
1779390450346,$GPGGA,190730.000,1205.9870,S,07701.4721,W,2,07,1.5,144.0,M,8.4,M,5.0,0000*48,1
1779390450468,$GPGSA,M,3,15,20,12,25,11,29,05,,,,,,2.3,1.5,1.7*31,1
1779390450628,$GPRMC,190730.000,A,1205.9870,S,07701.4721,W,7.01,8.17,210526,,,D*63,1
1779390451345,$GPGGA,190731.000,1205.9849,S,07701.4724,W,2,07,1.5,144.1,M,8.4,M,6.0,0000*44,1
1779390451466,$GPGSA,M,3,15,20,12,25,11,29,05,,,,,,2.3,1.5,1.7*31,1
1779390451631,$GPRMC,190731.000,A,1205.9849,S,07701.4724,W,6.52,356.46,210526,,,D*66,1
1779390452345,$GPGGA,190732.000,1205.9832,S,07701.4738,W,2,07,1.5,144.1,M,8.4,M,7.0,0000*47,1
1779390452466,$GPGSA,M,3,15,20,12,25,11,29,05,,,,,,2.3,1.5,1.7*31,1
1779390452631,$GPRMC,190732.000,A,1205.9832,S,07701.4738,W,8.33,313.90,210526,,,D*67,1
1779390453346,$GPGGA,190733.000,1205.9818,S,07701.4759,W,2,07,1.5,143.8,M,8.4,M,8.0,0000*48,1
1779390453467,$GPGSA,M,3,15,20,12,25,11,29,05,,,,,,2.3,1.5,1.7*31,1
1779390453628,$GPGSV,3,1,12,15,71,319,43,20,53,021,43,12,48,227,38,25,25,267,30*75,1
1779390453788,$GPGSV,3,2,12,11,18,054,32,29,14,332,38,05,11,359,17,06,09,091,34*79,1
1779390453948,$GPGSV,3,3,12,13,42,039,37,19,21,137,42,24,43,180,37,48,33,280,32*73,1
1779390454113,$GPRMC,190733.000,A,1205.9818,S,07701.4759,W,9.25,298.56,210526,,,D*67,1
1779390454345,$GPGGA,190734.000,1205.9807,S,07701.4784,W,2,07,1.5,144.0,M,8.4,M,9.0,0000*4F,1
1779390454466,$GPGSA,M,3,15,20,12,25,11,29,05,,,,,,2.3,1.5,1.7*31,1
1779390454631,$GPRMC,190734.000,A,1205.9807,S,07701.4784,W,9.34,295.72,210526,,,D*65,1
1779390455349,$GPGGA,190735.000,1205.9796,S,07701.4808,W,2,07,1.5,144.2,M,8.4,M,10.0,0000*78,1
1779390455470,$GPGSA,M,3,15,20,12,25,11,29,05,,,,,,2.3,1.5,1.7*31,1
1779390455635,$GPRMC,190735.000,A,1205.9796,S,07701.4808,W,9.39,295.83,210526,,,D*6B,1
1779390456348,$GPGGA,190736.000,1205.9785,S,07701.4833,W,2,07,1.5,144.3,M,8.4,M,11.0,0000*71,1
1779390456470,$GPGSA,M,3,15,20,12,25,11,29,05,,,,,,2.3,1.5,1.7*31,1
1779390456635,$GPRMC,190736.000,A,1205.9785,S,07701.4833,W,9.78,295.35,210526,,,D*6A,1
1779390457351,$GPGGA,190737.000,1205.9770,S,07701.4862,W,2,07,1.5,144.4,M,8.4,M,2.0,0000*4B,1
1779390457473,$GPGSA,M,3,15,20,12,25,11,29,05,,,,,,2.3,1.5,1.7*31,1
1779390457640,$GPRMC,190737.000,A,1205.9770,S,07701.4862,W,10.94,295.82,210526,,,D*53,1
1779390458349,$GPGGA,190738.000,1205.9755,S,07701.4894,W,2,07,1.5,145.1,M,8.4,M,2.0,0000*4E,1
1779390458471,$GPGSA,M,3,15,20,12,25,11,29,05,,,,,,2.3,1.5,1.7*31,1
1779390458631,$GPGSV,3,1,12,15,71,319,43,20,53,021,41,12,48,227,37,25,25,267,40*7F,1
1779390458791,$GPGSV,3,2,12,11,18,054,38,29,14,332,22,05,11,359,16,06,09,091,34*79,1
1779390458952,$GPGSV,3,3,12,13,42,039,37,19,21,137,36,24,43,180,37,48,33,280,42*77,1
1779390459119,$GPRMC,190738.000,A,1205.9755,S,07701.4894,W,11.22,295.34,210526,,,D*53,1
1779390459352,$GPGGA,190739.000,1205.9743,S,07701.4922,W,2,07,1.5,145.0,M,8.4,M,2.0,0000*45,1
1779390459473,$GPGSA,M,3,15,20,12,25,11,29,05,,,,,,2.3,1.5,1.7*31,1
1779390459640,$GPRMC,190739.000,A,1205.9743,S,07701.4922,W,11.07,293.77,210526,,,D*5F,1
1779390460345,$GPGGA,190740.000,1205.9735,S,07701.4947,W,2,07,1.5,145.3,M,8.4,M,3.0,0000*4B,1
1779390460466,$GPGSA,M,3,15,20,12,25,11,29,05,,,,,,2.3,1.5,1.7*31,1
1779390460634,$GPRMC,190740.000,A,1205.9735,S,07701.4947,W,10.92,293.71,210526,,,D*58,1
1779390461349,$GPGGA,190741.000,1205.9726,S,07701.4973,W,2,06,1.5,145.4,M,8.4,M,4.0,0000*4E,1
1779390461466,$GPGSA,M,3,15,20,12,25,11,29,,,,,,,2.3,1.5,1.8*3B,1
1779390461634,$GPRMC,190741.000,A,1205.9726,S,07701.4973,W,10.45,293.85,210526,,,D*5D,1
1779390462346,$GPGGA,190742.000,1205.9717,S,07701.4997,W,2,07,1.5,145.6,M,8.4,M,5.0,0000*47,1
1779390462467,$GPGSA,M,3,15,20,12,25,11,29,05,,,,,,2.3,1.5,1.7*31,1
1779390462632,$GPRMC,190742.000,A,1205.9717,S,07701.4997,W,9.62,294.53,210526,,,D*67,1
1779390463346,$GPGGA,190743.000,1205.9707,S,07701.5018,W,2,07,1.5,145.8,M,8.4,M,6.0,0000*45,1
1779390463468,$GPGSA,M,3,15,20,12,25,11,29,05,,,,,,2.3,1.5,1.7*31,1
1779390463628,$GPGSV,3,1,12,15,71,319,43,20,53,021,40,12,48,227,37,25,25,267,22*7A,1
1779390463788,$GPGSV,3,2,12,11,18,054,24,29,14,332,35,05,11,359,19,06,09,091,23*7B,1
1779390463949,$GPGSV,3,3,12,13,42,039,39,19,21,137,29,24,43,180,39,48,33,280,39*75,1
1779390464114,$GPRMC,190743.000,A,1205.9707,S,07701.5018,W,8.29,295.26,210526,,,D*65,1
1779390464350,$GPGGA,190744.000,1205.9699,S,07701.5037,W,2,07,1.5,146.0,M,8.4,M,2.0,0000*46,1
1779390464472,$GPGSA,M,3,15,20,12,25,11,29,05,,,,,,2.3,1.5,1.7*31,1
1779390464637,$GPRMC,190744.000,A,1205.9699,S,07701.5037,W,7.24,290.85,210526,,,D*67,1
1779390465347,$GPGGA,190745.000,1205.9698,S,07701.5055,W,2,06,1.6,146.2,M,8.4,M,2.0,0000*42,1
1779390465464,$GPGSA,M,3,15,20,12,11,29,05,,,,,,,2.5,1.6,1.9*3D,1
1779390465629,$GPRMC,190745.000,A,1205.9698,S,07701.5055,W,6.65,281.16,210526,,,D*6D,1
1779390466343,$GPGGA,190746.000,1205.9706,S,07701.5071,W,2,06,1.6,146.2,M,8.4,M,3.0,0000*40,1
1779390466460,$GPGSA,M,3,15,20,12,11,29,05,,,,,,,2.5,1.6,1.9*3D,1
1779390466625,$GPRMC,190746.000,A,1205.9706,S,07701.5071,W,6.71,268.59,210526,,,D*67,1
1779390467343,$GPGGA,190747.000,1205.9718,S,07701.5084,W,2,06,1.6,146.0,M,8.4,M,4.0,0000*41,1
1779390467460,$GPGSA,M,3,15,20,12,11,29,05,,,,,,,2.5,1.6,1.9*3D,1
1779390467625,$GPRMC,190747.000,A,1205.9718,S,07701.5084,W,6.14,252.99,210526,,,D*65,1
1779390468349,$GPGGA,190748.000,1205.9731,S,07701.5095,W,2,06,1.6,145.9,M,8.4,M,5.0,0000*4E,1
1779390468465,$GPGSA,M,3,15,20,12,11,29,05,,,,,,,2.5,1.6,1.9*3D,1
1779390468626,$GPGSV,3,1,12,15,71,319,43,20,53,021,35,12,48,227,43,11,18,054,24*76,1
1779390468786,$GPGSV,3,2,12,29,14,332,27,05,11,359,33,06,09,091,31,13,42,039,41*76,1
1779390468947,$GPGSV,3,3,12,19,21,137,35,24,43,180,35,25,25,267,19,48,33,280,38*7A,1
1779390469112,$GPRMC,190748.000,A,1205.9731,S,07701.5095,W,5.93,241.91,210526,,,D*67,1
1779390469351,$GPGGA,190749.000,1205.9745,S,07701.5104,W,2,07,1.5,145.8,M,8.4,M,2.0,0000*41,1
1779390469472,$GPGSA,M,3,15,20,12,25,11,29,05,,,,,,2.3,1.5,1.7*31,1
1779390469637,$GPRMC,190749.000,A,1205.9745,S,07701.5104,W,5.40,235.68,210526,,,D*67,1
1779390470347,$GPGGA,190750.000,1205.9758,S,07701.5104,W,2,06,1.6,146.0,M,8.4,M,2.0,0000*4C,1
1779390470464,$GPGSA,M,3,15,20,12,11,29,05,,,,,,,2.5,1.6,1.9*3D,1
1779390470629,$GPRMC,190750.000,A,1205.9758,S,07701.5104,W,4.28,230.46,210526,,,D*65,1
1779390471348,$GPGGA,190751.000,1205.9770,S,07701.5098,W,2,06,1.6,145.7,M,8.4,M,2.0,0000*47,1
1779390471465,$GPGSA,M,3,15,20,12,11,29,05,,,,,,,2.5,1.6,1.9*3D,1
1779390471630,$GPRMC,190751.000,A,1205.9770,S,07701.5098,W,3.39,224.97,210526,,,D*64,1
1779390472348,$GPGGA,190752.000,1205.9788,S,07701.5056,W,2,06,1.6,145.8,M,8.4,M,3.0,0000*4F,1
1779390472464,$GPGSA,M,3,15,20,12,11,29,05,,,,,,,2.5,1.6,1.9*3D,1
1779390472629,$GPRMC,190752.000,A,1205.9788,S,07701.5056,W,5.32,175.27,210526,,,D*63,1
1779390473348,$GPGGA,190753.000,1205.9807,S,07701.5009,W,2,06,1.6,145.5,M,8.4,M,2.0,0000*40,1
1779390473465,$GPGSA,M,3,15,20,12,11,29,05,,,,,,,2.5,1.6,1.9*3D,1
1779390473626,$GPGSV,3,1,12,15,71,319,42,20,53,021,43,12,48,227,43,11,18,054,34*77,1
1779390473786,$GPGSV,3,2,12,29,14,332,33,05,11,359,27,06,09,091,30,13,42,039,41*77,1
1779390473942,$GPGSV,3,3,12,19,21,137,43,24,43,180,42,48,33,280,42,25,25,267,*7E,1
1779390474107,$GPRMC,190753.000,A,1205.9807,S,07701.5009,W,8.73,127.24,210526,,,D*6C,1
1779390474352,$GPGGA,190754.000,1205.9825,S,07701.4965,W,2,07,1.5,145.4,M,8.4,M,3.0,0000*47,1
1779390474474,$GPGSA,M,3,15,20,12,25,11,29,05,,,,,,2.3,1.5,1.7*31,1
1779390474641,$GPRMC,190754.000,A,1205.9825,S,07701.4965,W,11.00,114.81,210526,,,D*5A,1
1779390475351,$GPGGA,190755.000,1205.9842,S,07701.4926,W,2,07,1.5,145.4,M,8.4,M,2.0,0000*41,1
1779390475473,$GPGSA,M,3,15,20,12,25,11,29,05,,,,,,2.3,1.5,1.7*31,1
1779390475640,$GPRMC,190755.000,A,1205.9842,S,07701.4926,W,11.82,113.91,210526,,,D*51,1
1779390476350,$GPGGA,190756.000,1205.9857,S,07701.4890,W,2,07,1.5,145.2,M,8.4,M,2.0,0000*4C,1
1779390476472,$GPGSA,M,3,15,20,12,25,11,29,05,,,,,,2.3,1.5,1.7*31,1
1779390476639,$GPRMC,190756.000,A,1205.9857,S,07701.4890,W,12.37,114.08,210526,,,D*50,1
1779390477351,$GPGGA,190757.000,1205.9872,S,07701.4855,W,2,07,1.5,144.7,M,8.4,M,2.0,0000*47,1
1779390477473,$GPGSA,M,3,15,20,12,25,11,29,05,,,,,,2.3,1.5,1.7*31,1
1779390477640,$GPRMC,190757.000,A,1205.9872,S,07701.4855,W,12.05,113.80,210526,,,D*59,1
1779390478347,$GPGGA,190758.000,1205.9887,S,07701.4821,W,2,07,1.5,144.5,M,8.4,M,3.0,0000*42,1
1779390478469,$GPGSA,M,3,15,20,12,25,11,29,05,,,,,,2.3,1.5,1.7*31,1
1779390478629,$GPGSV,3,1,12,15,71,319,44,20,53,021,38,12,48,227,43,25,25,267,39*7B,1
1779390478789,$GPGSV,3,2,12,11,18,054,36,29,14,332,32,05,11,359,19,06,09,091,27*7B,1
1779390478950,$GPGSV,3,3,12,13,42,039,42,19,21,137,44,24,43,180,42,48,33,280,42*72,1
1779390479117,$GPRMC,190758.000,A,1205.9887,S,07701.4821,W,11.16,114.13,210526,,,D*53,1
1779390479351,$GPGGA,190759.000,1205.9900,S,07701.4791,W,2,07,1.5,144.1,M,8.4,M,4.0,0000*4A,1
1779390479473,$GPGSA,M,3,15,20,12,25,11,29,05,,,,,,2.3,1.5,1.7*31,1
1779390479640,$GPRMC,190759.000,A,1205.9900,S,07701.4791,W,10.34,115.11,210526,,,D*5A,1
1779390480345,$GPGGA,190800.000,1205.9908,S,07701.4773,W,2,07,1.5,144.5,M,8.4,M,5.0,0000*48,1
1779390480467,$GPGSA,M,3,15,20,12,25,11,29,05,,,,,,2.3,1.5,1.7*31,1
1779390480632,$GPRMC,190800.000,A,1205.9908,S,07701.4773,W,9.11,113.95,210526,,,D*68,1
1779390481354,$GPGGA,190801.000,1205.9915,S,07701.4754,W,2,07,1.5,144.4,M,8.4,M,2.0,0000*46,1
1779390481476,$GPGSA,M,3,15,20,12,25,11,29,05,,,,,,2.3,1.5,1.7*31,1
1779390481641,$GPRMC,190801.000,A,1205.9915,S,07701.4754,W,7.78,109.31,210526,,,D*64,1
1779390482350,$GPGGA,190802.000,1205.9917,S,07701.4736,W,2,07,1.5,144.5,M,8.4,M,2.0,0000*42,1
1779390482472,$GPGSA,M,3,15,20,12,25,11,29,05,,,,,,2.3,1.5,1.7*31,1
1779390482637,$GPRMC,190802.000,A,1205.9917,S,07701.4736,W,7.03,102.93,210526,,,D*6E,1
1779390483350,$GPGGA,190803.000,1205.9912,S,07701.4719,W,2,07,1.5,144.4,M,8.4,M,2.0,0000*4A,1
1779390483472,$GPGSA,M,3,15,20,12,25,11,29,05,,,,,,2.3,1.5,1.7*31,1
1779390483632,$GPGSV,3,1,12,15,71,319,43,20,53,021,38,12,48,227,43,25,25,267,40*72,1
1779390483792,$GPGSV,3,2,12,11,18,054,38,29,14,332,40,05,11,359,26,06,09,091,20*7B,1
1779390483953,$GPGSV,3,3,12,13,42,039,42,19,21,137,42,24,43,180,41,48,33,280,43*76,1
1779390484116,$GPRMC,190803.000,A,1205.9912,S,07701.4719,W,6.48,92.86,210526,,,D*55,1
1779390484344,$GPGGA,190804.000,1205.9899,S,07701.4705,W,2,07,1.5,144.5,M,8.4,M,3.0,0000*42,1
1779390484466,$GPGSA,M,3,15,20,12,25,11,29,05,,,,,,2.3,1.5,1.7*31,1
1779390484628,$GPRMC,190804.000,A,1205.9899,S,07701.4705,W,5.75,74.30,210526,,,D*55,1
1779390485347,$GPGGA,190805.000,1205.9878,S,07701.4701,W,2,07,1.5,144.3,M,8.4,M,4.0,0000*49,1
1779390485468,$GPGSA,M,3,15,20,12,25,11,29,05,,,,,,2.3,1.5,1.7*31,1
1779390485631,$GPRMC,190805.000,A,1205.9878,S,07701.4701,W,6.28,21.32,210526,,,D*56,1
1779390486347,$GPGGA,190806.000,1205.9857,S,07701.4707,W,2,07,1.5,144.3,M,8.4,M,5.0,0000*40,1
1779390486469,$GPGSA,M,3,15,20,12,25,11,29,05,,,,,,2.3,1.5,1.7*31,1
1779390486634,$GPRMC,190806.000,A,1205.9857,S,07701.4707,W,7.08,341.87,210526,,,D*66,1
1779390487348,$GPGGA,190807.000,1205.9840,S,07701.4722,W,2,07,1.5,144.2,M,8.4,M,6.0,0000*42,1
1779390487469,$GPGSA,M,3,15,20,12,25,11,29,05,,,,,,2.3,1.5,1.7*31,1
1779390487634,$GPRMC,190807.000,A,1205.9840,S,07701.4722,W,7.70,312.98,210526,,,D*61,1
1779390488347,$GPGGA,190808.000,1205.9826,S,07701.4742,W,2,07,1.4,144.1,M,8.4,M,7.0,0000*48,1
1779390488469,$GPGSA,M,3,15,20,12,25,11,29,05,,,,,,2.3,1.4,1.7*30,1
1779390488629,$GPGSV,3,1,12,15,71,319,43,20,53,021,41,12,48,227,39,25,25,267,29*7E,1
1779390488789,$GPGSV,3,2,12,11,18,054,34,29,14,332,38,05,11,359,19,06,09,091,34*71,1
1779390488950,$GPGSV,3,3,12,13,42,039,36,19,21,137,42,24,43,180,37,48,33,280,34*74,1
1779390489115,$GPRMC,190808.000,A,1205.9826,S,07701.4742,W,8.50,300.60,210526,,,D*61,1
1779390489347,$GPGGA,190809.000,1205.9814,S,07701.4765,W,2,07,1.4,144.1,M,8.4,M,8.0,0000*42,1
1779390489469,$GPGSA,M,3,15,20,12,25,11,29,05,,,,,,2.3,1.4,1.7*30,1
1779390489633,$GPRMC,190809.000,A,1205.9814,S,07701.4765,W,8.83,297.69,210526,,,D*6C,1
1779390490349,$GPGGA,190810.000,1205.9802,S,07701.4789,W,2,07,1.4,144.3,M,8.4,M,9.0,0000*4C,1
1779390490470,$GPGSA,M,3,15,20,12,25,11,29,05,,,,,,2.3,1.4,1.7*30,1
1779390490635,$GPRMC,190810.000,A,1205.9802,S,07701.4789,W,8.81,296.56,210526,,,D*6E,1
1779390491351,$GPGGA,190811.000,1205.9791,S,07701.4811,W,2,07,1.4,144.5,M,8.4,M,10.0,0000*78,1
1779390491473,$GPGSA,M,3,15,20,12,25,11,29,05,,,,,,2.2,1.4,1.7*31,1
1779390491638,$GPRMC,190811.000,A,1205.9791,S,07701.4811,W,8.81,296.18,210526,,,D*6E,1
1779390492350,$GPGGA,190812.000,1205.9779,S,07701.4835,W,2,07,1.4,144.7,M,8.4,M,11.0,0000*78,1
1779390492471,$GPGSA,M,3,15,20,12,25,11,29,05,,,,,,2.2,1.4,1.7*31,1
1779390492636,$GPRMC,190812.000,A,1205.9779,S,07701.4835,W,9.34,296.76,210526,,,D*6A,1
1779390493349,$GPGGA,190813.000,1205.9766,S,07701.4859,W,2,07,1.4,144.9,M,8.4,M,12.0,0000*70,1
1779390493471,$GPGSA,M,3,15,20,12,25,11,29,05,,,,,,2.2,1.4,1.7*31,1
1779390493631,$GPGSV,3,1,12,15,71,319,43,20,53,021,41,12,48,227,34,25,25,267,34*7F,1
1779390493792,$GPGSV,3,2,12,11,18,054,28,29,14,332,23,05,11,359,17,06,09,091,28*75,1
1779390493952,$GPGSV,3,3,12,13,42,039,35,19,21,137,34,24,43,180,36,48,33,280,36*75,1
1779390494117,$GPRMC,190813.000,A,1205.9766,S,07701.4859,W,9.62,298.30,210526,,,D*60,1
1779390494348,$GPGGA,190814.000,1205.9753,S,07701.4884,W,2,07,1.4,145.1,M,8.4,M,13.0,0000*79,1
1779390494470,$GPGSA,M,3,15,20,12,25,11,29,05,,,,,,2.2,1.4,1.7*31,1
1779390494635,$GPRMC,190814.000,A,1205.9753,S,07701.4884,W,9.97,295.62,210526,,,D*61,1
1779390495352,$GPGGA,190815.000,1205.9741,S,07701.4913,W,2,07,1.4,145.2,M,8.4,M,2.0,0000*47,1
1779390495473,$GPGSA,M,3,15,20,12,25,11,29,05,,,,,,2.2,1.4,1.7*31,1
1779390495641,$GPRMC,190815.000,A,1205.9741,S,07701.4913,W,10.97,292.84,210526,,,D*5B,1
1779390496351,$GPGGA,190816.000,1205.9731,S,07701.4939,W,2,07,1.4,145.1,M,8.4,M,3.0,0000*49,1
1779390496472,$GPGSA,M,3,15,20,12,25,11,29,05,,,,,,2.2,1.4,1.7*31,1
1779390496639,$GPRMC,190816.000,A,1205.9731,S,07701.4939,W,10.74,293.39,210526,,,D*5D,1
1779390497353,$GPGGA,190817.000,1205.9723,S,07701.4962,W,2,07,1.4,145.5,M,8.4,M,2.0,0000*40,1
1779390497474,$GPGSA,M,3,15,20,12,25,11,29,05,,,,,,2.2,1.4,1.7*31,1
1779390497642,$GPRMC,190817.000,A,1205.9723,S,07701.4962,W,10.38,294.78,210526,,,D*5B,1
1779390498353,$GPGGA,190818.000,1205.9711,S,07701.4988,W,2,07,1.4,145.6,M,8.4,M,3.0,0000*48,1
1779390498475,$GPGSA,M,3,15,20,12,25,11,29,05,,,,,,2.2,1.4,1.7*31,1
1779390498635,$GPGSV,3,1,12,15,71,319,43,20,53,021,40,12,48,227,42,25,25,267,24*7E,1
1779390498796,$GPGSV,3,2,12,11,18,054,20,29,14,332,35,05,11,359,18,06,09,091,23*7E,1
1779390498956,$GPGSV,3,3,12,13,42,039,38,19,21,137,28,24,43,180,38,48,33,280,35*78,1
1779390499121,$GPRMC,190818.000,A,1205.9711,S,07701.4988,W,9.77,295.32,210526,,,D*6D,1
1779390499349,$GPGGA,190819.000,1205.9702,S,07701.5009,W,2,07,1.4,145.7,M,8.4,M,4.0,0000*4C,1
1779390499471,$GPGSA,M,3,15,20,12,25,11,29,05,,,,,,2.2,1.4,1.7*31,1
1779390499636,$GPRMC,190819.000,A,1205.9702,S,07701.5009,W,8.02,292.67,210526,,,D*6B,1
1779390500352,$GPGGA,190820.000,1205.9696,S,07701.5028,W,2,07,1.4,145.9,M,8.4,M,2.0,0000*41,1
1779390500474,$GPGSA,M,3,15,20,12,25,11,29,05,,,,,,2.2,1.4,1.7*31,1
1779390500639,$GPRMC,190820.000,A,1205.9696,S,07701.5028,W,6.86,288.70,210526,,,D*61,1
1779390501352,$GPGGA,190821.000,1205.9694,S,07701.5047,W,2,07,1.4,145.8,M,8.4,M,2.0,0000*4A,1
1779390501473,$GPGSA,M,3,15,20,12,25,11,29,05,,,,,,2.2,1.4,1.7*31,1
1779390501638,$GPRMC,190821.000,A,1205.9694,S,07701.5047,W,6.83,282.60,210526,,,D*65,1
1779390502352,$GPGGA,190822.000,1205.9705,S,07701.5061,W,2,07,1.4,145.7,M,8.4,M,2.0,0000*4B,1
1779390502473,$GPGSA,M,3,15,20,12,25,11,29,05,,,,,,2.2,1.4,1.7*31,1
1779390502638,$GPRMC,190822.000,A,1205.9705,S,07701.5061,W,6.62,269.24,210526,,,D*61,1
1779390503348,$GPGGA,190823.000,1205.9718,S,07701.5073,W,2,07,1.4,145.2,M,8.4,M,3.0,0000*41,1
1779390503470,$GPGSA,M,3,15,20,12,25,11,29,05,,,,,,2.2,1.4,1.7*31,1
1779390503630,$GPGSV,3,1,12,15,71,319,42,20,53,021,40,12,48,227,44,25,25,267,22*7F,1
1779390503791,$GPGSV,3,2,12,11,18,054,24,29,14,332,26,05,11,359,33,06,09,091,29*7B,1
1779390503951,$GPGSV,3,3,12,13,42,039,43,19,21,137,35,24,43,180,29,48,33,280,36*7B,1
1779390504116,$GPRMC,190823.000,A,1205.9718,S,07701.5073,W,5.95,253.03,210526,,,D*68,1
1779390504348,$GPGGA,190824.000,1205.9727,S,07701.5083,W,2,07,1.4,144.8,M,8.4,M,4.0,0000*49,1
1779390504469,$GPGSA,M,3,15,20,12,25,11,29,05,,,,,,2.2,1.4,1.7*31,1
1779390504634,$GPRMC,190824.000,A,1205.9727,S,07701.5083,W,4.29,249.77,210526,,,D*62,1
1779390505354,$GPGGA,190825.000,1205.9736,S,07701.5084,W,2,07,1.4,144.6,M,8.4,M,2.0,0000*47,1
1779390505475,$GPGSA,M,3,15,20,12,25,11,29,05,,,,,,2.2,1.4,1.7*31,1
1779390505640,$GPRMC,190825.000,A,1205.9736,S,07701.5084,W,2.06,246.63,210526,,,D*65,1
1779390506354,$GPGGA,190826.000,1205.9742,S,07701.5081,W,2,07,1.4,144.5,M,8.4,M,2.0,0000*41,1
1779390506475,$GPGSA,M,3,15,20,12,25,11,29,05,,,,,,2.2,1.4,1.7*31,1
1779390506640,$GPRMC,190826.000,A,1205.9742,S,07701.5081,W,1.16,246.63,210526,,,D*62,1
1779390507354,$GPGGA,190827.000,1205.9749,S,07701.5078,W,2,07,1.4,144.3,M,8.4,M,2.0,0000*4B,1
1779390507476,$GPGSA,M,3,15,20,12,25,11,29,05,,,,,,2.2,1.4,1.7*31,1
1779390507641,$GPRMC,190827.000,A,1205.9749,S,07701.5078,W,2.42,214.92,210526,,,D*65,1
1779390508353,$GPGGA,190828.000,1205.9757,S,07701.5072,W,2,07,1.4,144.0,M,8.4,M,3.0,0000*43,1
1779390508474,$GPGSA,M,3,15,20,12,25,11,29,05,,,,,,2.2,1.4,1.7*31,1
1779390508635,$GPGSV,3,1,12,15,71,319,39,20,53,021,32,12,48,227,43,25,25,267,22*71,1
1779390508795,$GPGSV,3,2,12,11,18,054,24,29,14,332,30,05,11,359,37,06,09,091,30*70,1
1779390508956,$GPGSV,3,3,12,13,42,039,42,19,21,137,35,24,43,180,41,48,33,280,39*7B,1
1779390509121,$GPRMC,190828.000,A,1205.9757,S,07701.5072,W,3.45,183.54,210526,,,D*6E,1
1779390509353,$GPGGA,190829.000,1205.9765,S,07701.5066,W,2,07,1.4,143.8,M,8.4,M,4.0,0000*4E,1
1779390509474,$GPGSA,M,3,15,20,12,25,11,29,05,,,,,,2.2,1.4,1.7*31,1
1779390509639,$GPRMC,190829.000,A,1205.9765,S,07701.5066,W,3.96,157.17,210526,,,D*6B,1
1779390510354,$GPGGA,190830.000,1205.9775,S,07701.5054,W,2,07,1.4,143.6,M,8.4,M,5.0,0000*49,1
1779390510475,$GPGSA,M,3,15,20,12,25,11,29,05,,,,,,2.2,1.4,1.7*31,1
1779390510640,$GPRMC,190830.000,A,1205.9775,S,07701.5054,W,4.47,145.60,210526,,,D*6B,1
1779390511354,$GPGGA,190831.000,1205.9785,S,07701.5040,W,2,07,1.4,143.2,M,8.4,M,2.0,0000*41,1
1779390511475,$GPGSA,M,3,15,20,12,25,11,29,05,,,,,,2.2,1.4,1.7*31,1
1779390511640,$GPRMC,190831.000,A,1205.9785,S,07701.5040,W,4.78,133.51,210526,,,D*6F,1
1779390512353,$GPGGA,190832.000,1205.9800,S,07701.5012,W,2,07,1.4,143.0,M,8.4,M,2.0,0000*45,1
1779390512474,$GPGSA,M,3,15,20,12,25,11,29,05,,,,,,2.2,1.4,1.7*31,1
1779390512639,$GPRMC,190832.000,A,1205.9800,S,07701.5012,W,6.83,122.22,210526,,,D*6B,1
1779390513352,$GPGGA,190833.000,1205.9818,S,07701.4975,W,2,07,1.4,143.0,M,8.4,M,2.0,0000*44,1
1779390513473,$GPGSA,M,3,15,20,12,25,11,29,05,,,,,,2.2,1.4,1.7*31,1
1779390513634,$GPGSV,3,1,12,15,71,319,42,20,53,021,40,12,48,227,42,25,25,267,36*7C,1
1779390513794,$GPGSV,3,2,12,11,18,054,34,29,14,332,36,05,11,359,21,06,09,091,27*76,1
1779390513955,$GPGSV,3,3,12,13,42,039,42,19,21,137,43,24,43,180,41,48,33,280,42*76,1
1779390514120,$GPRMC,190833.000,A,1205.9818,S,07701.4975,W,8.83,117.92,210526,,,D*69,1
1779390514352,$GPGGA,190834.000,1205.9840,S,07701.4932,W,2,07,1.4,142.9,M,8.4,M,3.0,0000*44,1
1779390514474,$GPGSA,M,3,15,20,12,25,11,29,05,,,,,,2.2,1.4,1.7*31,1
1779390514641,$GPRMC,190834.000,A,1205.9840,S,07701.4932,W,11.82,117.46,210526,,,D*50,1
1779390515352,$GPGGA,190835.000,1205.9860,S,07701.4890,W,2,07,1.4,142.7,M,8.4,M,4.0,0000*47,1
1779390515474,$GPGSA,M,3,15,20,12,25,11,29,05,,,,,,2.2,1.4,1.7*31,1
1779390515641,$GPRMC,190835.000,A,1205.9860,S,07701.4890,W,13.68,115.20,210526,,,D*5E,1
1779390516348,$GPGGA,190836.000,1205.9879,S,07701.4848,W,2,07,1.4,142.1,M,8.4,M,5.0,0000*4E,1
1779390516469,$GPGSA,M,3,15,20,12,25,11,29,05,,,,,,2.2,1.4,1.7*31,1
1779390516637,$GPRMC,190836.000,A,1205.9879,S,07701.4848,W,13.82,114.91,210526,,,D*5F,1
1779390517354,$GPGGA,190837.000,1205.9898,S,07701.4807,W,2,07,1.4,141.8,M,8.4,M,2.0,0000*46,1
1779390517475,$GPGSA,M,3,15,20,12,25,11,29,05,,,,,,2.2,1.4,1.7*31,1
1779390517642,$GPRMC,190837.000,A,1205.9898,S,07701.4807,W,12.17,114.82,210526,,,D*55,1
1779390518354,$GPGGA,190838.000,1205.9912,S,07701.4777,W,2,07,1.4,142.0,M,8.4,M,2.0,0000*49,1
1779390518476,$GPGSA,M,3,15,20,12,25,11,29,05,,,,,,2.2,1.4,1.7*31,1
1779390518636,$GPGSV,3,1,12,15,71,319,44,20,53,021,39,12,48,227,43,25,25,267,37*74,1
1779390518797,$GPGSV,3,2,12,11,18,054,37,29,14,332,29,05,11,359,19,06,09,091,28*7F,1
1779390518957,$GPGSV,3,3,12,13,42,039,42,19,21,137,43,24,43,180,41,48,33,280,41*75,1
1779390519122,$GPRMC,190838.000,A,1205.9912,S,07701.4777,W,9.62,112.32,210526,,,D*64,1
1779390519354,$GPGGA,190839.000,1205.9920,S,07701.4755,W,2,07,1.4,142.4,M,8.4,M,3.0,0000*4C,1
1779390519475,$GPGSA,M,3,15,20,12,25,11,29,05,,,,,,2.2,1.4,1.7*31,1
1779390519640,$GPRMC,190839.000,A,1205.9920,S,07701.4755,W,7.39,107.39,210526,,,D*6B,1
1779390520352,$GPGGA,190840.000,1205.9921,S,07701.4741,W,2,07,1.4,142.9,M,8.4,M,4.0,0000*4C,1
1779390520474,$GPGSA,M,3,15,20,12,25,11,29,05,,,,,,2.2,1.4,1.7*31,1
1779390520637,$GPRMC,190840.000,A,1205.9921,S,07701.4741,W,6.10,94.47,210526,,,D*59,1
1779390521359,$GPGGA,190841.000,1205.9917,S,07701.4729,W,2,07,1.4,142.9,M,8.4,M,2.0,0000*40,1
1779390521480,$GPGSA,M,3,15,20,12,25,11,29,05,,,,,,2.2,1.4,1.7*31,1
1779390521643,$GPRMC,190841.000,A,1205.9917,S,07701.4729,W,5.36,71.40,210526,,,D*58,1
1779390522359,$GPGGA,190842.000,1205.9909,S,07701.4720,W,2,07,1.4,143.0,M,8.4,M,3.0,0000*4C,1
1779390522481,$GPGSA,M,3,15,20,12,25,11,29,05,,,,,,2.2,1.4,1.7*31,1
1779390522643,$GPRMC,190842.000,A,1205.9909,S,07701.4720,W,3.98,53.07,210526,,,D*5C,1
1779390523354,$GPGGA,190843.000,1205.9901,S,07701.4715,W,2,07,1.4,143.1,M,8.4,M,2.0,0000*43,1
1779390523475,$GPGSA,M,3,15,20,12,25,11,29,05,,,,,,2.2,1.4,1.7*31,1
1779390523636,$GPGSV,3,1,12,15,71,319,44,20,53,021,44,12,48,227,44,25,25,267,43*7A,1
1779390523796,$GPGSV,3,2,12,11,18,054,38,29,14,332,40,05,11,359,28,06,09,091,23*76,1
1779390523957,$GPGSV,3,3,12,13,42,039,43,19,21,137,42,24,43,180,41,48,33,280,35*76,1
1779390524119,$GPRMC,190843.000,A,1205.9901,S,07701.4715,W,2.77,36.35,210526,,,D*51,1
1779390524355,$GPGGA,190844.000,1205.9897,S,07701.4713,W,2,07,1.4,143.2,M,8.4,M,2.0,0000*4F,1
1779390524476,$GPGSA,M,3,15,20,12,25,11,29,05,,,,,,2.2,1.4,1.7*31,1
1779390524639,$GPRMC,190844.000,A,1205.9897,S,07701.4713,W,1.36,30.93,210526,,,D*52,1
1779390525349,$GPGGA,190845.000,1205.9894,S,07701.4712,W,2,07,1.4,143.3,M,8.4,M,3.0,0000*4C,1
1779390525471,$GPGSA,M,3,15,20,12,25,11,29,05,,,,,,2.2,1.4,1.7*31,1
1779390525634,$GPRMC,190845.000,A,1205.9894,S,07701.4712,W,0.74,30.93,210526,,,D*56,1
1779390526351,$GPGGA,190846.000,1205.9893,S,07701.4712,W,2,07,1.4,143.2,M,8.4,M,4.0,0000*4E,1
1779390526472,$GPGSA,M,3,15,20,12,25,11,29,05,,,,,,2.2,1.4,1.7*31,1
1779390526635,$GPRMC,190846.000,A,1205.9893,S,07701.4712,W,0.38,30.93,210526,,,D*5A,1
1779390527351,$GPGGA,190847.000,1205.9891,S,07701.4712,W,2,07,1.4,143.1,M,8.4,M,5.0,0000*4F,1
1779390527473,$GPGSA,M,3,15,20,12,25,11,29,05,,,,,,2.2,1.4,1.7*31,1
1779390527635,$GPRMC,190847.000,A,1205.9891,S,07701.4712,W,0.85,30.93,210526,,,D*5F,1
1779390528350,$GPGGA,190848.000,1205.9888,S,07701.4711,W,2,07,1.4,143.1,M,8.4,M,6.0,0000*48,1
1779390528472,$GPGSA,M,3,15,20,12,25,11,29,05,,,,,,2.2,1.4,1.7*31,1
1779390528632,$GPGSV,3,1,12,15,71,319,44,20,53,021,44,12,48,227,45,25,25,267,32*7D,1
1779390528793,$GPGSV,3,2,12,11,18,054,38,29,14,332,34,05,11,359,24,06,09,091,23*79,1
1779390528953,$GPGSV,3,3,12,13,42,039,44,19,21,137,40,24,43,180,42,48,33,280,29*7D,1
1779390529116,$GPRMC,190848.000,A,1205.9888,S,07701.4711,W,1.49,21.10,210526,,,D*51,1
1779390529350,$GPGGA,190849.000,1205.9884,S,07701.4710,W,2,07,1.4,143.2,M,8.4,M,7.0,0000*46,1
1779390529472,$GPGSA,M,3,15,20,12,25,11,29,05,,,,,,2.2,1.4,1.7*31,1
1779390529634,$GPRMC,190849.000,A,1205.9884,S,07701.4710,W,1.58,13.42,210526,,,D*5B,1
1779390530350,$GPGGA,190850.000,1205.9882,S,07701.4708,W,2,07,1.4,143.5,M,8.4,M,8.0,0000*49,1
1779390530472,$GPGSA,M,3,15,20,12,25,11,29,05,,,,,,2.2,1.4,1.7*31,1
1779390530634,$GPRMC,190850.000,A,1205.9882,S,07701.4708,W,0.94,13.42,210526,,,D*5D,1
1779390531350,$GPGGA,190851.000,1205.9881,S,07701.4707,W,2,07,1.4,143.7,M,8.4,M,9.0,0000*47,1
1779390531472,$GPGSA,M,3,15,20,12,25,11,29,05,,,,,,2.2,1.4,1.7*31,1
1779390531635,$GPRMC,190851.000,A,1205.9881,S,07701.4707,W,0.37,13.42,210526,,,D*59,1
1779390532353,$GPGGA,190852.000,1205.9880,S,07701.4707,W,2,07,1.4,143.9,M,8.4,M,10.0,0000*73,1
1779390532474,$GPGSA,M,3,15,20,12,25,11,29,05,,,,,,2.2,1.4,1.7*31,1
1779390532637,$GPRMC,190852.000,A,1205.9880,S,07701.4707,W,0.74,13.42,210526,,,D*5C,1
1779390533352,$GPGGA,190853.000,1205.9877,S,07701.4707,W,2,07,1.4,144.0,M,8.4,M,11.0,0000*75,1
1779390533473,$GPGSA,M,3,15,20,12,25,11,29,05,,,,,,2.2,1.4,1.7*31,1
1779390533633,$GPGSV,3,1,12,15,71,319,44,20,53,021,44,12,48,227,43,25,25,267,33*7A,1
1779390533794,$GPGSV,3,2,12,11,18,054,39,29,14,332,36,05,11,359,27,06,09,091,24*7E,1
1779390533954,$GPGSV,3,3,12,13,42,039,36,19,21,137,40,24,43,180,43,48,33,280,30*71,1
1779390534119,$GPRMC,190853.000,A,1205.9877,S,07701.4707,W,1.92,352.50,210526,,,D*69,1
1779390534353,$GPGGA,190854.000,1205.9871,S,07701.4709,W,2,07,1.4,144.0,M,8.4,M,12.0,0000*79,1
1779390534474,$GPGSA,M,3,15,20,12,25,11,29,05,,,,,,2.2,1.4,1.7*31,1
1779390534639,$GPRMC,190854.000,A,1205.9871,S,07701.4709,W,2.46,339.60,210526,,,D*62,1
1779390535352,$GPGGA,190855.000,1205.9866,S,07701.4712,W,2,07,1.4,143.9,M,8.4,M,13.0,0000*7B,1
1779390535473,$GPGSA,M,3,15,20,12,25,11,29,05,,,,,,2.2,1.4,1.7*31,1
1779390535638,$GPRMC,190855.000,A,1205.9866,S,07701.4712,W,2.61,329.63,210526,,,D*68,1
1779390536350,$GPGGA,190856.000,1205.9860,S,07701.4717,W,2,07,1.4,143.9,M,8.4,M,14.0,0000*7C,1
1779390536472,$GPGSA,M,3,15,20,12,25,11,29,05,,,,,,2.2,1.4,1.7*31,1
1779390536637,$GPRMC,190856.000,A,1205.9860,S,07701.4717,W,2.74,321.50,210526,,,D*64,1
1779390537351,$GPGGA,190857.000,1205.9854,S,07701.4723,W,2,07,1.4,143.9,M,8.4,M,15.0,0000*7C,1
1779390537472,$GPGSA,M,3,15,20,12,25,11,29,05,,,,,,2.2,1.4,1.7*31,1
1779390537637,$GPRMC,190857.000,A,1205.9854,S,07701.4723,W,2.63,316.48,210526,,,D*6E,1
